<?xml version='1.0' encoding='utf-8'?>
<gpx version="1.1" creator="Infofile GPX Generator">
<wpt lat = "43.42247" lon = "6.61047"><name>PKA2</name><desc>11.5 km Enduroc
Images:685
First:06.10.2023 13:46:54
Last:06.10.2023 16:43:56
Duration:02:57:02
</desc></wpt>
<wpt lat = "43.39686" lon = "6.64873"><name>COR1</name><desc>16.5 km Marathon / Roc Trophy / Multi Roc
Images:3087
First:06.10.2023 08:12:35
Last:06.10.2023 09:56:31
Duration:01:43:56
</desc></wpt>
<wpt lat = "43.39686" lon = "6.64873"><name>COR1LS1</name><desc>16.5 km Marathon / Roc Trophy / Multi Roc
Images:2890
First:06.10.2023 08:14:11
Last:06.10.2023 09:52:49
Duration:01:38:38
</desc></wpt>
<wpt lat = "43.39686" lon = "6.64873"><name>COR1LS2</name><desc>16.5 km Marathon / Roc Trophy / Multi Roc
Images:821
First:06.10.2023 08:09:52
Last:06.10.2023 08:30:19
Duration:00:20:27
</desc></wpt>
<wpt lat = "43.45592" lon = "6.83065"><name>HS2</name><desc>17.3km Estere24k, 49.5 km esterel 56k, 23.2km esterel 30k, 41.7 esterel 49k, 40.4km esterel 48k, 64.3km gravel esterel70k
Images:797
First:06.10.2023 13:51:25
Last:06.10.2023 17:00:27
Duration:03:09:02
</desc></wpt>
<wpt lat = "43.47963" lon = "6.79330"><name>BRN1</name><desc>17.7 km esterel 56k, 17.7km esterel 48km, 17.7km gravel esterel 70k, 17.7km esterel 49k
Images:1464
First:06.10.2023 08:59:50
Last:06.10.2023 15:51:28
Duration:06:51:38
</desc></wpt>
<wpt lat = "43.47963" lon = "6.79330"><name>BRN1LS1</name><desc>17.7 km esterel 56k, 17.7km esterel 48km, 17.7km gravel esterel 70k, 17.7km esterel 49k
Images:1860
First:06.10.2023 08:59:58
Last:06.10.2023 16:44:04
Duration:07:44:06
</desc></wpt>
<wpt lat = "43.45507" lon = "6.83183"><name>ROB2</name><desc>18.3km Estere24k, 42km esterel 56k, 42km esterel 30k, 42km esterel 48km, 42km esterel 49k, 42km gravel esterel 70km
Images:37
First:06.10.2023 16:36:38
Last:06.10.2023 17:01:23
Duration:00:24:45
</desc></wpt>
<wpt lat = "43.45507" lon = "6.83183"><name>ROB2LS1</name><desc>18.3km Estere24k, 42km esterel 56k, 42km esterel 30k, 42km esterel 48km, 42km esterel 49k, 42km gravel esterel 70km
Images:61
First:06.10.2023 16:16:20
Last:06.10.2023 17:02:31
Duration:00:46:11
</desc></wpt>
<wpt lat = "43.43420" lon = "6.63134"><name>JH3</name><desc>21.0 km Enduroc
Images:531
First:06.10.2023 16:13:57
Last:06.10.2023 18:00:27
Duration:01:46:30
</desc></wpt>
<wpt lat = "43.48740" lon = "6.80313"><name>MLU1</name><desc>22.0 km esterel 56k, 22.0km esterel 48km, 22.0km gravel esterel 70k, 22.0km esterel 49k
Images:4520
First:06.10.2023 09:10:06
Last:06.10.2023 13:53:50
Duration:04:43:44
</desc></wpt>
<wpt lat = "43.48706" lon = "6.80341"><name>MLU1LS1</name><desc>22.0 km esterel 56k, 22.0km esterel 48km, 22.0km gravel esterel 70k, 22.0km esterel 49k
Images:966
First:06.10.2023 08:45:05
Last:06.10.2023 13:41:25
Duration:04:56:20
</desc></wpt>
<wpt lat = "43.48706" lon = "6.80341"><name>MLU1LS2</name><desc>22.0 km esterel 56k, 22.0km esterel 48km, 22.0km gravel esterel 70k, 22.0km esterel 49k
Images:1592
First:06.10.2023 08:57:27
Last:06.10.2023 14:02:52
Duration:05:05:25
</desc></wpt>
<wpt lat = "43.49771" lon = "6.81382"><name>ROB1</name><desc>25km etsterel 56km, 25km esterel 48km, 25km esterel gravel70k, 25km esterel 49k
Images:1777
First:06.10.2023 08:22:21
Last:06.10.2023 14:26:46
Duration:06:04:25
</desc></wpt>
<wpt lat = "43.49716" lon = "6.81426"><name>ROB1LS1</name><desc>25km etsterel 56km, 25km esterel 48km, 25km esterel gravel70k, 25km esterel 49k
Images:328
First:06.10.2023 08:53:36
Last:06.10.2023 14:25:51
Duration:05:32:15
</desc></wpt>
<wpt lat = "43.49716" lon = "6.81426"><name>ROB1LS2</name><desc>25km etsterel 56km, 25km esterel 48km, 25km esterel gravel70k, 25km esterel 49k
Images:486
First:06.10.2023 08:52:12
Last:06.10.2023 14:32:49
Duration:05:40:37
</desc></wpt>
<wpt lat = "43.44002" lon = "6.62077"><name>PKA1</name><desc>32.0 km Marathon / Roc Trophy / Multi Roc
Images:2028
First:06.10.2023 08:29:42
Last:06.10.2023 12:17:18
Duration:03:47:36
</desc></wpt>
<wpt lat = "43.43819" lon = "6.60337"><name>JH1</name><desc>38.0 km Marathon / Roc Trophy / Multi Roc
Images:5582
First:06.10.2023 09:01:46
Last:06.10.2023 12:26:51
Duration:03:25:05
</desc></wpt>
<wpt lat = "43.43819" lon = "6.60337"><name>JH1LS1</name><desc>38.0 km Marathon / Roc Trophy / Multi Roc
Images:2997
First:06.10.2023 08:45:29
Last:06.10.2023 14:09:54
Duration:05:24:25
</desc></wpt>
<wpt lat = "43.43819" lon = "6.60337"><name>JH1LS2</name><desc>38.0 km Marathon / Roc Trophy / Multi Roc
Images:2256
First:06.10.2023 08:54:22
Last:06.10.2023 12:34:49
Duration:03:40:27
</desc></wpt>
<wpt lat = "43.46656" lon = "6.86123"><name>MAGA1</name><desc>43.0km esterel 56km, 43.0km esterel 48km, 56.5km esterel gravel 70km, 36km etserel 49km
Images:2109
First:06.10.2023 10:26:21
Last:06.10.2023 16:43:16
Duration:06:16:55
</desc></wpt>
<wpt lat = "43.46656" lon = "6.86123"><name>MAGA1LS1</name><desc>43.0km esterel 56km, 43.0km esterel 48km, 56.5km esterel gravel 70km, 36km etserel 49km
Images:1254
First:06.10.2023 09:07:18
Last:06.10.2023 16:43:01
Duration:07:35:43
</desc></wpt>
<wpt lat = "43.47039" lon = "6.85617"><name>MATR1</name><desc>45.5km esterel 56km, 36.5km esterel 48km, 59.5km esterel gravel 70km, 37.5km etserel 49km
Images:2334
First:06.10.2023 08:26:39
Last:06.10.2023 16:47:06
Duration:08:20:27
</desc></wpt>
<wpt lat = "43.47039" lon = "6.85617"><name>MATR1LS1</name><desc>45.5km esterel 56km, 36.5km esterel 48km, 59.5km esterel gravel 70km, 37.5km etserel 49km
Images:1255
First:06.10.2023 08:02:31
Last:06.10.2023 16:50:38
Duration:08:48:07
</desc></wpt>
<wpt lat = "43.40578" lon = "6.64748"><name>COR2</name><desc>57.0 km Marathon / Roc Trophy / Multi Roc
Images:3865
First:06.10.2023 10:21:24
Last:06.10.2023 15:12:13
Duration:04:50:49
</desc></wpt>
<wpt lat = "43.40578" lon = "6.64748"><name>COR2LS1</name><desc>57.0 km Marathon / Roc Trophy / Multi Roc
Images:1390
First:06.10.2023 10:14:41
Last:06.10.2023 14:43:16
Duration:04:28:35
</desc></wpt>
<wpt lat = "43.40578" lon = "6.64748"><name>COR2LS2</name><desc>57.0 km Marathon / Roc Trophy / Multi Roc
Images:731
First:06.10.2023 10:08:29
Last:06.10.2023 14:56:05
Duration:04:47:36
</desc></wpt>
<wpt lat = "43.36719" lon = "6.66645"><name>MIFP1</name><desc>69.0 km Marathon / Roc Trophy / Multi Roc
Images:3961
First:06.10.2023 10:28:22
Last:06.10.2023 16:38:30
Duration:06:10:08
</desc></wpt>
<wpt lat = "43.36719" lon = "6.66645"><name>MIFP1LS1</name><desc>69.0 km Marathon / Roc Trophy / Multi Roc
Images:1538
First:06.10.2023 10:19:01
Last:06.10.2023 16:42:01
Duration:06:23:00
</desc></wpt>
<wpt lat = "43.36773" lon = "6.67652"><name>MANR1</name><desc>70.0 km Marathon / Roc Trophy / Multi Roc
Images:12889
First:06.10.2023 10:36:06
Last:06.10.2023 16:47:43
Duration:06:11:37
</desc></wpt>
<wpt lat = "43.36773" lon = "6.67652"><name>MANR1LS1</name><desc>70.0 km Marathon / Roc Trophy / Multi Roc
Images:5718
First:06.10.2023 09:43:24
Last:06.10.2023 16:47:54
Duration:07:04:30
</desc></wpt>
<wpt lat = "43.39110" lon = "6.69655"><name>EP1</name><desc>8.5km Marathon/  Trophy#3 / Multi Roc Chalange
Images:2078
First:06.10.2023 07:52:12
Last:06.10.2023 09:42:08
Duration:01:49:56
</desc></wpt>
<wpt lat = "43.40132" lon = "6.70868"><name>DARO1</name><desc>83.0km Marathon / Roc Trophy / Multi Roc, 25.5km Odessey
Images:1416
First:06.10.2023 11:14:10
Last:06.10.2023 18:08:31
Duration:06:54:21
</desc></wpt>
<wpt lat = "43.40132" lon = "6.70868"><name>DARO1LS1</name><desc>83.0km Marathon / Roc Trophy / Multi Roc, 25.5km Odessey
Images:1956
First:06.10.2023 10:27:42
Last:06.10.2023 17:37:09
Duration:07:09:27
</desc></wpt>
<wpt lat = "43.40132" lon = "6.70868"><name>DARO1LS2</name><desc>83.0km Marathon / Roc Trophy / Multi Roc, 25.5km Odessey
Images:2040
First:06.10.2023 10:29:45
Last:06.10.2023 18:13:27
Duration:07:43:42
</desc></wpt>
<wpt lat = "43.40130" lon = "6.70704"><name>JJPT1</name><desc>86.5km Marathon / Roc Trophy / Multi Roc, 25.5km Odessey
Images:1917
First:06.10.2023 10:45:11
Last:06.10.2023 18:08:17
Duration:07:23:06
</desc></wpt>
<wpt lat = "43.40130" lon = "6.70704"><name>JJPT1LS1</name><desc>86.5km Marathon / Roc Trophy / Multi Roc, 25.5km Odessey
Images:2150
First:06.10.2023 10:30:46
Last:06.10.2023 17:52:31
Duration:07:21:45
</desc></wpt>
<wpt lat = "43.40130" lon = "6.70704"><name>JJPT1LS2</name><desc>86.5km Marathon / Roc Trophy / Multi Roc, 25.5km Odessey
Images:3115
First:06.10.2023 11:05:43
Last:06.10.2023 18:11:17
Duration:07:05:34
</desc></wpt>
<wpt lat = "43.39037" lon = "6.73219"><name>JLTG1</name><desc>86.5km Marathon / Roc Trophy / Multi Roc, 25.5km Odessey
Images:1999
First:06.10.2023 10:46:26
Last:06.10.2023 17:51:03
Duration:07:04:37
</desc></wpt>
<wpt lat = "43.39037" lon = "6.73219"><name>JLTG1LS1</name><desc>86.5km Marathon / Roc Trophy / Multi Roc, 25.5km Odessey
Images:1708
First:06.10.2023 10:39:36
Last:06.10.2023 16:55:33
Duration:06:15:57
</desc></wpt>
<wpt lat = "43.39037" lon = "6.73219"><name>JLTG1LS2</name><desc>86.5km Marathon / Roc Trophy / Multi Roc, 25.5km Odessey
Images:2872
First:06.10.2023 10:37:30
Last:06.10.2023 16:33:16
Duration:05:55:46
</desc></wpt>
<wpt lat = "43.39264" lon = "6.72561"><name>STO1</name><desc>87.0 Marathon / Roc Trophy / Multi Roc, 26.0km Odessey
Images:3265
First:06.10.2023 11:17:59
Last:06.10.2023 17:53:36
Duration:06:35:37
</desc></wpt>
<wpt lat = "43.39264" lon = "6.72561"><name>STO1LS1</name><desc>87.0 Marathon / Roc Trophy / Multi Roc, 26.0km Odessey
Images:2148
First:06.10.2023 11:18:15
Last:06.10.2023 17:53:36
Duration:06:35:21
</desc></wpt>
<wpt lat = "43.41115" lon = "6.61880"><name>JH2</name><desc>9.0 km Enduroc
Images:934
First:06.10.2023 13:44:42
Last:06.10.2023 15:27:58
Duration:01:43:16
</desc></wpt>
<wpt lat = "43.41115" lon = "6.61880"><name>JH2LS1</name><desc>9.0 km Enduroc
Images:1585
First:06.10.2023 13:23:46
Last:06.10.2023 15:44:58
Duration:02:21:12
</desc></wpt>
<wpt lat = "43.41115" lon = "6.61880"><name>JH2LS2</name><desc>9.0 km Enduroc
Images:780
First:06.10.2023 13:22:48
Last:06.10.2023 15:05:16
Duration:01:42:28
</desc></wpt>
<wpt lat = "43.45710" lon = "6.82875"><name>HS1</name><desc>9km Estere24k, 9km esterel 56k, 9km esterel 30k, 9km esterel 48km, 9km esterel 49k, 9km gravel esterel 70km
Images:1279
First:06.10.2023 08:30:52
Last:06.10.2023 12:59:30
Duration:04:28:38
</desc></wpt>
<wpt lat = "43.45710" lon = "6.82875"><name>HS1DRONE1</name><desc>9km Estere24k, 9km esterel 56k, 9km esterel 30k, 9km esterel 48km, 9km esterel 49k, 9km gravel esterel 70km
Images:55
First:06.10.2023 09:18:12
Last:06.10.2023 12:15:10
Duration:02:56:58
</desc></wpt>
<wpt lat = "43.45710" lon = "6.82875"><name>HS1LS1</name><desc>9km Estere24k, 9km esterel 56k, 9km esterel 30k, 9km esterel 48km, 9km esterel 49k, 9km gravel esterel 70km
Images:2929
First:06.10.2023 07:53:13
Last:06.10.2023 13:06:20
Duration:05:13:07
</desc></wpt>
<wpt lat = "43.45710" lon = "6.82875"><name>HS1LS2</name><desc>9km Estere24k, 9km esterel 56k, 9km esterel 30k, 9km esterel 48km, 9km esterel 49k, 9km gravel esterel 70km
Images:2572
First:06.10.2023 08:56:15
Last:06.10.2023 13:05:09
Duration:04:08:54
</desc></wpt>
<wpt lat = "43.41950" lon = "6.73749"><name>ZIEL1</name><desc>Finish
Images:3382
First:06.10.2023 11:28:47
Last:06.10.2023 18:36:08
Duration:07:07:21
</desc></wpt>
<wpt lat = "43.39686" lon = "6.64873"><name>COR1DRONE1</name><desc>Impressions / Pano
Images:23
First:06.10.2023 07:45:33
Last:06.10.2023 09:46:20
Duration:02:00:47
</desc></wpt>
<wpt lat = "43.40132" lon = "6.70868"><name>DARO1DRONE1</name><desc>Impressions / Pano
Images:12
First:06.10.2023 11:40:32
Last:06.10.2023 11:51:04
Duration:00:10:32
</desc></wpt>
<wpt lat = "43.47039" lon = "6.85617"><name>MATR1DRONE1</name><desc>Impressions / Pano
Images:20
First:06.10.2023 08:30:13
Last:06.10.2023 08:41:01
Duration:00:10:48
</desc></wpt>
<wpt lat = "43.48740" lon = "6.80313"><name>MLU1DRONE1</name><desc>Impressions / Pano
Images:26
First:06.10.2023 09:52:51
Last:06.10.2023 12:23:04
Duration:02:30:13
</desc></wpt>
<wpt lat = "43.38929" lon = "6.69337"><name>EP2LS1</name><desc>km 8.8 Rando Odyssey
Images:1317
First:06.10.2023 14:00:14
Last:06.10.2023 15:43:21
Duration:01:43:07
</desc></wpt>
<wpt lat = "43.38929" lon = "6.69337"><name>EP2LS2</name><desc>km 8.8 Rando Odyssey
Images:1308
First:06.10.2023 14:05:39
Last:06.10.2023 15:42:32
Duration:01:36:53
</desc></wpt>
<wpt lat = "43.38929" lon = "6.69337"><name>EP2</name><desc>km 9.1 Rando Odyssey
Images:1491
First:06.10.2023 14:19:41
Last:06.10.2023 15:40:21
Duration:01:20:40
</desc></wpt>
<wpt lat = "43.38786" lon = "6.69206"><name>BATI1</name><desc>km87.0 Marathon, km29.1 Odyssey
Images:2934
First:06.10.2023 11:22:14
Last:06.10.2023 18:23:19
Duration:07:01:05
</desc></wpt>
<wpt lat = "43.43362" lon = "6.73724"><name>MANR2</name><desc>Roc Ruelles de Frejus
Images:741
First:06.10.2023 18:43:09
Last:06.10.2023 21:10:01
Duration:02:26:52
</desc></wpt>
<wpt lat = "43.43362" lon = "6.73724"><name>MIFP2</name><desc>Roc Ruelles de Frejus
Images:554
First:06.10.2023 18:46:16
Last:06.10.2023 21:12:56
Duration:02:26:40
</desc></wpt>
<wpt lat = "43.41950" lon = "6.73749"><name>START1</name><desc>Start
Images:219
First:06.10.2023 08:06:35
Last:06.10.2023 08:24:07
Duration:00:17:32
</desc></wpt>
</gpx>