<?xml version='1.0' encoding='utf-8'?>
<gpx version="1.1" creator="Infofile GPX Generator">
<wpt lat = "40.43302" lon = "-3.68838"><name>AECL1</name><desc>16,4 km Puente de Rubén Darío
Images:10692
First:28.04.2024 07:41:57
Last:28.04.2024 12:18:26
Duration:04:36:29
</desc></wpt>
<wpt lat = "40.43302" lon = "-3.68838"><name>ASAG1</name><desc>16,4 km Puente de Rubén Darío
Images:21963
First:28.04.2024 07:29:40
Last:28.04.2024 12:20:06
Duration:04:50:26
</desc></wpt>
<wpt lat = "40.43302" lon = "-3.68838"><name>CVF2</name><desc>16.4 km Puente de Rubén Darío
Images:10646
First:28.04.2024 09:41:30
Last:28.04.2024 12:18:05
Duration:02:36:35
</desc></wpt>
<wpt lat = "40.44613" lon = "-3.69113"><name>AAIC1</name><desc>2,7 km Puente de Nuevos Ministerios
Images:8276
First:28.04.2024 08:01:51
Last:28.04.2024 11:14:09
Duration:03:12:18
</desc></wpt>
<wpt lat = "40.44613" lon = "-3.69113"><name>AEGP1</name><desc>2,7 km Puente de Nuevos Ministerios
Images:4744
First:28.04.2024 07:37:53
Last:28.04.2024 11:14:10
Duration:03:36:17
</desc></wpt>
<wpt lat = "40.44613" lon = "-3.69113"><name>AJMO1</name><desc>2,7 km Puente de Nuevos Ministerios
Images:12554
First:28.04.2024 07:42:54
Last:28.04.2024 11:14:06
Duration:03:31:12
</desc></wpt>
<wpt lat = "40.44613" lon = "-3.69113"><name>AOMS1</name><desc>2,7 km Puente de Nuevos Ministerios
Images:6030
First:28.04.2024 08:02:26
Last:28.04.2024 11:15:21
Duration:03:12:55
</desc></wpt>
<wpt lat = "40.41585" lon = "-3.69624"><name>ADJ1</name><desc>20,2 km Congreso de los Diputados
Images:22750
First:28.04.2024 08:18:02
Last:28.04.2024 12:53:59
Duration:04:35:57
</desc></wpt>
<wpt lat = "40.41585" lon = "-3.69624"><name>ASEP1</name><desc>20,2 km Congreso de los Diputados
Images:17710
First:28.04.2024 08:05:56
Last:28.04.2024 12:54:11
Duration:04:48:15
</desc></wpt>
<wpt lat = "40.41963" lon = "-3.69275"><name>AANL2</name><desc>20,8 km Plaza de Cibeles
Images:12504
First:28.04.2024 10:09:38
Last:28.04.2024 13:00:28
Duration:02:50:50
</desc></wpt>
<wpt lat = "40.41963" lon = "-3.69275"><name>ANIL2</name><desc>20,8 km Plaza de Cibeles
Images:9795
First:28.04.2024 10:04:27
Last:28.04.2024 13:05:28
Duration:03:01:01
</desc></wpt>
<wpt lat = "40.41883" lon = "-3.72361"><name>CAFU2</name><desc>27.4 km Fuente de la Buena Suerte
Images:4613
First:28.04.2024 10:02:20
Last:28.04.2024 13:51:03
Duration:03:48:43
</desc></wpt>
<wpt lat = "40.41883" lon = "-3.72361"><name>CJDMM2</name><desc>27.4 km Fuente de la Buena Suerte
Images:4374
First:28.04.2024 09:36:51
Last:28.04.2024 13:53:06
Duration:04:16:15
</desc></wpt>
<wpt lat = "40.42052" lon = "-3.73116"><name>CJMGJ2</name><desc>30.5 km Lago de Casa de Campo
Images:4146
First:28.04.2024 10:17:32
Last:28.04.2024 14:07:08
Duration:03:49:36
</desc></wpt>
<wpt lat = "40.42052" lon = "-3.73116"><name>CJOLO2</name><desc>30.5 km Lago de Casa de Campo
Images:5661
First:28.04.2024 10:30:52
Last:28.04.2024 14:05:33
Duration:03:34:41
</desc></wpt>
<wpt lat = "40.41963" lon = "-3.69275"><name>AARA2</name><desc>41,5 km Plaza de Cibeles
Images:13671
First:28.04.2024 10:14:39
Last:28.04.2024 15:35:24
Duration:05:20:45
</desc></wpt>
<wpt lat = "40.41963" lon = "-3.69275"><name>AARA2LS1</name><desc>41,5 km Plaza de Cibeles
Images:6778
First:28.04.2024 10:08:57
Last:28.04.2024 14:05:18
Duration:03:56:21
</desc></wpt>
<wpt lat = "40.41963" lon = "-3.69275"><name>ARTG2</name><desc>41,5 km Plaza de Cibeles
Images:3865
First:28.04.2024 10:43:46
Last:28.04.2024 15:46:56
Duration:05:03:10
</desc></wpt>
<wpt lat = "40.42232" lon = "-3.69152"><name>AJCF1</name><desc>41,7 km Recta de Meta
Images:7662
First:28.04.2024 07:54:49
Last:28.04.2024 16:02:40
Duration:08:07:51
</desc></wpt>
<wpt lat = "40.42232" lon = "-3.69152"><name>AJG1</name><desc>41,7 km Recta de Meta
Images:19486
First:27.04.2024 18:10:16
Last:28.04.2024 15:58:46
Duration:21:48:30
</desc></wpt>
<wpt lat = "40.42232" lon = "-3.69152"><name>ALUM1</name><desc>41,7 km Recta de Meta
Images:38537
First:28.04.2024 08:29:34
Last:28.04.2024 15:57:48
Duration:07:28:14
</desc></wpt>
<wpt lat = "40.42232" lon = "-3.69152"><name>ASIC1</name><desc>41,7 km Recta de Meta
Images:15426
First:28.04.2024 07:59:57
Last:28.04.2024 15:56:26
Duration:07:56:29
</desc></wpt>
<wpt lat = "40.41963" lon = "-3.69275"><name>CODR1</name><desc>41.6 km Plaza de Cibeles
Images:11415
First:28.04.2024 10:39:37
Last:28.04.2024 15:44:05
Duration:05:04:28
</desc></wpt>
<wpt lat = "40.46580" lon = "-3.69029"><name>AMAAP1</name><desc>5,3 km Plaza de Castilla
Images:9820
First:28.04.2024 08:58:23
Last:28.04.2024 10:55:26
Duration:01:57:03
</desc></wpt>
<wpt lat = "40.46580" lon = "-3.69029"><name>ARUR1</name><desc>5,3 km Plaza de Castilla
Images:5866
First:28.04.2024 08:19:38
Last:28.04.2024 10:57:56
Duration:02:38:18
</desc></wpt>
<wpt lat = "40.46580" lon = "-3.69029"><name>ARUR1LS1</name><desc>5,3 km Plaza de Castilla
Images:5088
First:28.04.2024 08:26:50
Last:28.04.2024 10:40:51
Duration:02:14:01
</desc></wpt>
<wpt lat = "40.46580" lon = "-3.69029"><name>ARUR1LS2</name><desc>5,3 km Plaza de Castilla
Images:3161
First:28.04.2024 08:32:48
Last:28.04.2024 10:40:50
Duration:02:08:02
</desc></wpt>
<wpt lat = "40.43302" lon = "-3.68838"><name>CVF1</name><desc>5.2 km Puente de Rubén Darío
Images:1216
First:28.04.2024 07:42:09
Last:28.04.2024 08:32:37
Duration:00:50:28
</desc></wpt>
<wpt lat = "40.41563" lon = "-3.69499"><name>AARA1</name><desc>9,3 km Plaza de Neptuno
Images:6457
First:28.04.2024 08:31:16
Last:28.04.2024 09:33:32
Duration:01:02:16
</desc></wpt>
<wpt lat = "40.41563" lon = "-3.69499"><name>AARA1LS1</name><desc>9,3 km Plaza de Neptuno
Images:7872
First:26.04.2024 21:10:48
Last:28.04.2024 12:38:01
Duration:1.15:27:13
</desc></wpt>
<wpt lat = "40.41563" lon = "-3.69499"><name>ARTG1</name><desc>9,3 km Plaza de Neptuno
Images:2323
First:28.04.2024 08:22:18
Last:28.04.2024 10:25:24
Duration:02:03:06
</desc></wpt>
<wpt lat = "40.41963" lon = "-3.69275"><name>AANL1</name><desc>9,5 km Plaza de Cibeles
Images:8288
First:28.04.2024 08:34:56
Last:28.04.2024 10:08:49
Duration:01:33:53
</desc></wpt>
<wpt lat = "40.41963" lon = "-3.69275"><name>ANIL1</name><desc>9,5 km Plaza de Cibeles
Images:3366
First:28.04.2024 07:52:05
Last:28.04.2024 10:02:15
Duration:02:10:10
</desc></wpt>
<wpt lat = "40.44493" lon = "-3.68559"><name>AASQ1</name><desc>9,6 km Plaza Republica Argentina
Images:9073
First:28.04.2024 07:56:10
Last:28.04.2024 11:15:48
Duration:03:19:38
</desc></wpt>
<wpt lat = "40.44493" lon = "-3.68559"><name>ACRGA1</name><desc>9,6 km Plaza Republica Argentina
Images:13559
First:28.04.2024 08:00:27
Last:28.04.2024 11:16:37
Duration:03:16:10
</desc></wpt>
<wpt lat = "40.44493" lon = "-3.68559"><name>ACRGA1LS1</name><desc>9,6 km Plaza Republica Argentina
Images:1610
First:28.04.2024 08:09:36
Last:28.04.2024 10:36:08
Duration:02:26:32
</desc></wpt>
<wpt lat = "40.41549" lon = "-3.71071"><name>BJCFJ2</name><desc>Calle Mayor 42K
Images:12491
First:28.04.2024 09:32:33
Last:28.04.2024 12:45:10
Duration:03:12:37
</desc></wpt>
<wpt lat = "40.41549" lon = "-3.71071"><name>BOHO2</name><desc>Calle Mayor 42K
Images:2529
First:28.04.2024 09:46:25
Last:28.04.2024 12:43:47
Duration:02:57:22
</desc></wpt>
<wpt lat = "40.42227" lon = "-3.69161"><name>AAGAR1</name><desc>Finish
Images:9724
First:28.04.2024 08:08:42
Last:28.04.2024 13:51:16
Duration:05:42:34
</desc></wpt>
<wpt lat = "40.42227" lon = "-3.69161"><name>AALSE1</name><desc>Finish
Images:7125
First:28.04.2024 08:30:06
Last:28.04.2024 15:59:14
Duration:07:29:08
</desc></wpt>
<wpt lat = "40.42227" lon = "-3.69161"><name>ACPA1</name><desc>Finish
Images:10793
First:28.04.2024 07:47:37
Last:28.04.2024 16:00:13
Duration:08:12:36
</desc></wpt>
<wpt lat = "40.42227" lon = "-3.69161"><name>ACRGA2</name><desc>Finish
Images:3879
First:28.04.2024 13:40:42
Last:28.04.2024 15:59:03
Duration:02:18:21
</desc></wpt>
<wpt lat = "40.42227" lon = "-3.69161"><name>AJMP1</name><desc>Finish
Images:16001
First:28.04.2024 08:28:17
Last:28.04.2024 13:58:22
Duration:05:30:05
</desc></wpt>
<wpt lat = "40.42227" lon = "-3.69161"><name>AMAAP2</name><desc>Finish
Images:6378
First:28.04.2024 12:16:26
Last:28.04.2024 14:58:43
Duration:02:42:17
</desc></wpt>
<wpt lat = "40.42227" lon = "-3.69161"><name>AMBB1</name><desc>Finish
Images:6671
First:28.04.2024 07:44:55
Last:28.04.2024 16:00:04
Duration:08:15:09
</desc></wpt>
<wpt lat = "40.42227" lon = "-3.69161"><name>ARBC1</name><desc>Finish
Images:12669
First:28.04.2024 08:24:09
Last:28.04.2024 16:00:15
Duration:07:36:06
</desc></wpt>
<wpt lat = "40.42227" lon = "-3.69161"><name>AROM1</name><desc>Finish
Images:12072
First:28.04.2024 08:19:05
Last:28.04.2024 16:00:20
Duration:07:41:15
</desc></wpt>
<wpt lat = "40.42227" lon = "-3.69161"><name>AROM1LS1</name><desc>Finish
Images:13441
First:28.04.2024 08:26:09
Last:28.04.2024 15:39:24
Duration:07:13:15
</desc></wpt>
<wpt lat = "40.42227" lon = "-3.69161"><name>ARUR2</name><desc>Finish
Images:11389
First:28.04.2024 08:19:38
Last:28.04.2024 15:04:29
Duration:06:44:51
</desc></wpt>
<wpt lat = "40.42227" lon = "-3.69161"><name>CDR2</name><desc>Finish
Images:5992
First:28.04.2024 10:17:45
Last:28.04.2024 11:11:14
Duration:00:53:29
</desc></wpt>
<wpt lat = "40.43765" lon = "-3.69318"><name>CDR1IMP1</name><desc>Impressions / Pano
Images:19
First:28.04.2024 08:42:01
Last:28.04.2024 11:13:11
Duration:02:31:10
</desc></wpt>
<wpt lat = "40.43765" lon = "-3.69318"><name>CODR1IMP1</name><desc>Impressions / Pano
Images:421
First:28.04.2024 08:30:01
Last:28.04.2024 09:37:13
Duration:01:07:12
</desc></wpt>
<wpt lat = "40.43765" lon = "-3.69318"><name>CVF1IMP1</name><desc>Impressions / Pano
Images:503
First:28.04.2024 08:41:43
Last:28.04.2024 09:33:03
Duration:00:51:20
</desc></wpt>
<wpt lat = "40.41910" lon = "-3.71300"><name>BMCAS1</name><desc>Palacio Real 42K
Images:8282
First:28.04.2024 09:05:33
Last:28.04.2024 12:51:09
Duration:03:45:36
</desc></wpt>
<wpt lat = "40.41910" lon = "-3.71300"><name>BRAVE1</name><desc>Palacio Real 42K
Images:8476
First:28.04.2024 08:51:45
Last:28.04.2024 12:46:00
Duration:03:54:15
</desc></wpt>
<wpt lat = "40.41910" lon = "-3.71300"><name>BSNP1</name><desc>Palacio Real 42K
Images:6626
First:28.04.2024 07:59:58
Last:28.04.2024 12:43:16
Duration:04:43:18
</desc></wpt>
<wpt lat = "40.41910" lon = "-3.71300"><name>BSTO1</name><desc>Palacio Real 42K
Images:7267
First:28.04.2024 10:35:14
Last:28.04.2024 12:45:46
Duration:02:10:32
</desc></wpt>
<wpt lat = "40.41996" lon = "-3.70569"><name>BCHA1</name><desc>Plaza de Callao
Images:12358
First:28.04.2024 08:19:44
Last:28.04.2024 13:14:38
Duration:04:54:54
</desc></wpt>
<wpt lat = "40.41996" lon = "-3.70569"><name>BFEGO1</name><desc>Plaza de Callao
Images:13551
First:28.04.2024 08:24:25
Last:28.04.2024 12:38:28
Duration:04:14:03
</desc></wpt>
<wpt lat = "40.41674" lon = "-3.70290"><name>BAMRU1</name><desc>Puerta del Sol 10K y 21K
Images:2975
First:28.04.2024 07:23:59
Last:28.04.2024 09:16:06
Duration:01:52:07
</desc></wpt>
<wpt lat = "40.41674" lon = "-3.70290"><name>BCCG1</name><desc>Puerta del Sol 10K y 21K
Images:19800
First:28.04.2024 07:34:29
Last:28.04.2024 12:42:03
Duration:05:07:34
</desc></wpt>
<wpt lat = "40.41674" lon = "-3.70290"><name>BGCA1</name><desc>Puerta del Sol 10K y 21K
Images:12212
First:28.04.2024 07:55:50
Last:28.04.2024 12:42:03
Duration:04:46:13
</desc></wpt>
<wpt lat = "40.41674" lon = "-3.70290"><name>BJCFJ1</name><desc>Puerta del Sol 10K y 21K
Images:6078
First:28.04.2024 07:31:56
Last:28.04.2024 09:18:10
Duration:01:46:14
</desc></wpt>
<wpt lat = "40.41674" lon = "-3.70290"><name>BJMB1</name><desc>Puerta del Sol 10K y 21K
Images:2780
First:28.04.2024 07:38:55
Last:28.04.2024 09:20:00
Duration:01:41:05
</desc></wpt>
<wpt lat = "40.41674" lon = "-3.70290"><name>BJMCA1</name><desc>Puerta del Sol 10K y 21K
Images:16538
First:28.04.2024 07:38:24
Last:28.04.2024 12:52:59
Duration:05:14:35
</desc></wpt>
<wpt lat = "40.41674" lon = "-3.70290"><name>BJRP1</name><desc>Puerta del Sol 10K y 21K
Images:2345
First:28.04.2024 07:55:44
Last:28.04.2024 09:17:27
Duration:01:21:43
</desc></wpt>
<wpt lat = "40.41674" lon = "-3.70290"><name>BOHO1</name><desc>Puerta del Sol 10K y 21K
Images:1031
First:28.04.2024 07:50:25
Last:28.04.2024 09:34:54
Duration:01:44:29
</desc></wpt>
<wpt lat = "40.41674" lon = "-3.70290"><name>BAMRU2</name><desc>Puerta del Sol 42K
Images:9741
First:28.04.2024 09:17:07
Last:28.04.2024 12:41:45
Duration:03:24:38
</desc></wpt>
<wpt lat = "40.41674" lon = "-3.70290"><name>BJMB2</name><desc>Puerta del Sol 42K
Images:8828
First:28.04.2024 09:29:38
Last:28.04.2024 12:42:15
Duration:03:12:37
</desc></wpt>
<wpt lat = "40.41674" lon = "-3.70290"><name>BJRP2</name><desc>Puerta del Sol 42K
Images:5533
First:28.04.2024 09:37:52
Last:28.04.2024 12:38:18
Duration:03:00:26
</desc></wpt>
<wpt lat = "40.43803" lon = "-3.69339"><name>CAFU1</name><desc>Start
Images:96
First:28.04.2024 07:26:48
Last:28.04.2024 08:23:09
Duration:00:56:21
</desc></wpt>
<wpt lat = "40.43803" lon = "-3.69339"><name>CJDMM1</name><desc>Start
Images:50
First:28.04.2024 07:28:21
Last:28.04.2024 08:07:08
Duration:00:38:47
</desc></wpt>
<wpt lat = "40.43803" lon = "-3.69339"><name>CJMGJ1</name><desc>Start
Images:147
First:28.04.2024 07:27:11
Last:28.04.2024 08:23:01
Duration:00:55:50
</desc></wpt>
<wpt lat = "40.43803" lon = "-3.69339"><name>CJOLO1</name><desc>Start
Images:63
First:28.04.2024 07:22:11
Last:28.04.2024 08:06:19
Duration:00:44:08
</desc></wpt>
</gpx>