<?xml version='1.0' encoding='utf-8'?>
<gpx version="1.1" creator="Infofile GPX Generator">
<wpt lat = "-33.64597" lon = "115.34329"><name>ATOSC2</name><desc>Bike - 0.2 km
Images:1012
First:01.12.2024 10:47:17
Last:01.12.2024 11:31:24
Duration:00:44:07
</desc></wpt>
<wpt lat = "-33.64597" lon = "115.34329"><name>ATOSC7LS1</name><desc>Bike - 0.2 km
Images:357
First:01.01.0001 23:00:00
Last:01.12.2024 22:57:29
Duration:739219.23:57:29
</desc></wpt>
<wpt lat = "-33.64611" lon = "115.34669"><name>ACLJ3</name><desc>Bike - 0.4 km
Images:302
First:01.12.2024 11:31:12
Last:01.12.2024 13:44:42
Duration:02:13:30
</desc></wpt>
<wpt lat = "-33.55054" lon = "115.51542"><name>BDJA2</name><desc>Bike - 132.0 km
Images:2839
First:01.12.2024 11:21:18
Last:01.12.2024 15:05:03
Duration:03:43:45
</desc></wpt>
<wpt lat = "-33.55054" lon = "115.51542"><name>BDJA2LS1</name><desc>Bike - 132.0 km
Images:808
First:01.12.2024 11:04:57
Last:01.12.2024 14:58:35
Duration:03:53:38
</desc></wpt>
<wpt lat = "-33.55054" lon = "115.51542"><name>BDJA3</name><desc>Bike - 132.0 km
Images:22
First:01.12.2024 16:04:12
Last:01.12.2024 16:15:23
Duration:00:11:11
</desc></wpt>
<wpt lat = "-33.62329" lon = "115.44741"><name>BVN2LS1</name><desc>Bike - 141.0 km Tuard Dr
Images:1665
First:01.12.2024 10:34:31
Last:01.12.2024 12:37:20
Duration:02:02:49
</desc></wpt>
<wpt lat = "-33.62329" lon = "115.44741"><name>BVN2LS2</name><desc>Bike - 141.0 km Tuard Dr
Images:5752
First:01.12.2024 05:35:31
Last:01.12.2024 15:48:30
Duration:10:12:59
</desc></wpt>
<wpt lat = "-33.62329" lon = "115.44741"><name>BVN4</name><desc>Bike - 141.0 km Tuard Dr
Images:3761
First:01.12.2024 10:15:07
Last:01.12.2024 16:09:58
Duration:05:54:51
</desc></wpt>
<wpt lat = "-33.62329" lon = "115.44741"><name>BVN1</name><desc>Bike - 32.0 km Tuard Dr
Images:8701
First:01.12.2024 05:14:34
Last:01.12.2024 10:10:27
Duration:04:55:53
</desc></wpt>
<wpt lat = "-33.62329" lon = "115.44741"><name>BVN1LS1</name><desc>Bike - 32.0 km Tuard Dr
Images:4223
First:01.12.2024 05:28:56
Last:01.12.2024 10:29:45
Duration:05:00:49
</desc></wpt>
<wpt lat = "-33.55054" lon = "115.51542"><name>BDJA1</name><desc>Bike - 42.0 km
Images:7398
First:01.12.2024 05:16:56
Last:01.12.2024 10:52:07
Duration:05:35:11
</desc></wpt>
<wpt lat = "-33.55054" lon = "115.51542"><name>BDJA1LS1</name><desc>Bike - 42.0 km
Images:4760
First:01.12.2024 05:43:19
Last:01.12.2024 10:57:56
Duration:05:14:37
</desc></wpt>
<wpt lat = "-33.64597" lon = "115.34329"><name>ATOSC1</name><desc>Bike - Transition zone
Images:6635
First:01.12.2024 04:55:24
Last:01.12.2024 08:44:51
Duration:03:49:27
</desc></wpt>
<wpt lat = "-33.64597" lon = "115.34329"><name>ATOSC5LS1</name><desc>Bike - Transition zone
Images:4358
First:30.11.2024 18:31:42
Last:01.12.2024 08:34:38
Duration:14:02:56
</desc></wpt>
<wpt lat = "-33.64597" lon = "115.34329"><name>ATOSC6LS1</name><desc>Bike - Transition zone
Images:3558
First:01.12.2024 07:03:24
Last:02.12.2024 02:08:00
Duration:19:04:36
</desc></wpt>
<wpt lat = "-33.64502" lon = "115.34473"><name>AALEV8</name><desc>Finish
Images:1298
First:01.12.2024 19:50:00
Last:01.12.2024 23:36:32
Duration:03:46:32
</desc></wpt>
<wpt lat = "-33.64502" lon = "115.34473"><name>ACLJ5</name><desc>Finish
Images:620
First:01.12.2024 19:09:20
Last:01.12.2024 20:55:28
Duration:01:46:08
</desc></wpt>
<wpt lat = "-33.64502" lon = "115.34473"><name>ACLJ6</name><desc>Finish
Images:198
First:01.12.2024 21:23:15
Last:01.12.2024 22:08:40
Duration:00:45:25
</desc></wpt>
<wpt lat = "-33.64502" lon = "115.34473"><name>AHOO3</name><desc>Finish
Images:5930
First:01.12.2024 08:07:29
Last:01.12.2024 15:18:34
Duration:07:11:05
</desc></wpt>
<wpt lat = "-33.64502" lon = "115.34473"><name>AHOO4</name><desc>Finish
Images:1812
First:01.12.2024 15:19:46
Last:01.12.2024 19:20:00
Duration:04:00:14
</desc></wpt>
<wpt lat = "-33.64502" lon = "115.34473"><name>AHOO5LS1</name><desc>Finish
Images:1654
First:01.12.2024 09:34:39
Last:01.12.2024 22:21:45
Duration:12:47:06
</desc></wpt>
<wpt lat = "-33.64502" lon = "115.34473"><name>ATOSC3</name><desc>Finish
Images:104
First:01.12.2024 13:04:47
Last:01.12.2024 15:22:16
Duration:02:17:29
</desc></wpt>
<wpt lat = "-33.64502" lon = "115.34473"><name>ATOSC4</name><desc>Finish
Images:9068
First:01.12.2024 16:09:06
Last:01.12.2024 19:07:03
Duration:02:57:57
</desc></wpt>
<wpt lat = "-33.64507" lon = "115.34468"><name>BDJA4</name><desc>Finish
Images:1025
First:01.12.2024 19:41:57
Last:01.12.2024 23:35:14
Duration:03:53:17
</desc></wpt>
<wpt lat = "-33.64507" lon = "115.34468"><name>BDJA5</name><desc>Finish
Images:209
First:01.12.2024 19:16:10
Last:01.12.2024 19:41:01
Duration:00:24:51
</desc></wpt>
<wpt lat = "-33.64507" lon = "115.34468"><name>BNIF4</name><desc>Finish
Images:325
First:01.12.2024 22:16:07
Last:01.12.2024 23:36:39
Duration:01:20:32
</desc></wpt>
<wpt lat = "-33.64507" lon = "115.34468"><name>BVN3</name><desc>Finish
Images:670
First:01.12.2024 21:07:36
Last:01.12.2024 23:36:17
Duration:02:28:41
</desc></wpt>
<wpt lat = "-33.64507" lon = "115.34468"><name>BWTE6</name><desc>Finish
Images:8294
First:01.12.2024 09:08:47
Last:01.12.2024 15:14:48
Duration:06:06:01
</desc></wpt>
<wpt lat = "-33.64475" lon = "115.34391"><name>AALEV2</name><desc>Run - 0.2 km
Images:5044
First:01.12.2024 07:00:25
Last:01.12.2024 15:28:09
Duration:08:27:44
</desc></wpt>
<wpt lat = "-33.64441" lon = "115.34580"><name>BNIF2</name><desc>Run - 0.4 km
Images:6271
First:01.12.2024 10:18:44
Last:01.12.2024 16:49:33
Duration:06:30:49
</desc></wpt>
<wpt lat = "-33.64498" lon = "115.34307"><name>AALEV4</name><desc>Run - 21.0 km
Images:256
First:01.12.2024 14:55:05
Last:01.12.2024 16:59:42
Duration:02:04:37
</desc></wpt>
<wpt lat = "-33.64440" lon = "115.34503"><name>AALEV5</name><desc>Run - 28.9 km
Images:899
First:01.12.2024 15:35:28
Last:01.12.2024 16:19:43
Duration:00:44:15
</desc></wpt>
<wpt lat = "-33.64440" lon = "115.34503"><name>AALEV6</name><desc>Run - 32.0 km
Images:92
First:01.12.2024 16:19:43
Last:01.12.2024 16:36:52
Duration:00:17:09
</desc></wpt>
<wpt lat = "-33.64473" lon = "115.34412"><name>BVN3LS1</name><desc>Run - 39.0 km
Images:271
First:01.12.2024 19:45:34
Last:01.12.2024 23:34:09
Duration:03:48:35
</desc></wpt>
<wpt lat = "-33.64531" lon = "115.34185"><name>BNIF3</name><desc>Run - 39.8 km
Images:55
First:01.12.2024 21:03:31
Last:01.12.2024 21:27:51
Duration:00:24:20
</desc></wpt>
<wpt lat = "-33.64531" lon = "115.34185"><name>BWTE4</name><desc>Run - 39.8 km
Images:618
First:01.12.2024 18:12:56
Last:01.12.2024 22:06:07
Duration:03:53:11
</desc></wpt>
<wpt lat = "-33.64498" lon = "115.34307"><name>AALEV7</name><desc>Run - 42.0 km
Images:702
First:01.12.2024 12:47:32
Last:01.12.2024 16:55:37
Duration:04:08:05
</desc></wpt>
<wpt lat = "-33.64475" lon = "115.34391"><name>AALEV3</name><desc>Run - 7.8 km
Images:76
First:01.12.2024 12:31:58
Last:01.12.2024 12:41:27
Duration:00:09:29
</desc></wpt>
<wpt lat = "-33.64594" lon = "115.34046"><name>ACLJ4</name><desc>Run - 8.0 km
Images:8717
First:01.12.2024 13:46:23
Last:01.12.2024 16:57:47
Duration:03:11:24
</desc></wpt>
<wpt lat = "-33.64531" lon = "115.34185"><name>BWTE5</name><desc>Run - 8.0 km
Images:808
First:01.12.2024 17:03:04
Last:01.12.2024 18:12:08
Duration:01:09:04
</desc></wpt>
<wpt lat = "-33.64502" lon = "115.34473"><name>ATOSC8</name><desc>Run - Impressions / Pano
Images:9
First:01.12.2024 22:59:23
Last:01.12.2024 23:24:31
Duration:00:25:08
</desc></wpt>
<wpt lat = "-33.64453" lon = "115.34503"><name>AALEV1</name><desc>Swim - Impressions / Pano
Images:393
First:01.12.2024 04:28:50
Last:01.12.2024 12:57:00
Duration:08:28:10
</desc></wpt>
<wpt lat = "-33.64418" lon = "115.34531"><name>ACLJ1</name><desc>Swim - Start
Images:3449
First:01.12.2024 03:55:35
Last:01.12.2024 05:28:23
Duration:01:32:48
</desc></wpt>
<wpt lat = "-33.64418" lon = "115.34531"><name>ACLJ2</name><desc>Swim - Start
Images:3302
First:01.12.2024 05:35:20
Last:01.12.2024 06:40:35
Duration:01:05:15
</desc></wpt>
<wpt lat = "-33.64418" lon = "115.34531"><name>AHOO1</name><desc>Swim - Start
Images:5248
First:01.12.2024 04:09:20
Last:01.12.2024 05:27:37
Duration:01:18:17
</desc></wpt>
<wpt lat = "-33.64418" lon = "115.34531"><name>AHOO2</name><desc>Swim - Start
Images:3178
First:01.12.2024 06:07:10
Last:01.12.2024 06:40:19
Duration:00:33:09
</desc></wpt>
<wpt lat = "-33.64476" lon = "115.34296"><name>BNIF5</name><desc>Swim - Transition zone
Images:2245
First:01.12.2024 07:11:10
Last:01.12.2024 08:56:40
Duration:01:45:30
</desc></wpt>
<wpt lat = "-33.64476" lon = "115.34296"><name>BNIF6</name><desc>Swim - Transition zone
Images:2465
First:01.12.2024 04:33:58
Last:01.12.2024 06:48:05
Duration:02:14:07
</desc></wpt>
<wpt lat = "-33.64476" lon = "115.34296"><name>BWTE1</name><desc>Swim - Transition zone
Images:3965
First:01.12.2024 03:53:33
Last:01.12.2024 07:00:31
Duration:03:06:58
</desc></wpt>
<wpt lat = "-33.64476" lon = "115.34296"><name>BWTE2</name><desc>Swim - Transition zone
Images:3005
First:01.12.2024 07:09:57
Last:01.12.2024 08:06:44
Duration:00:56:47
</desc></wpt>
</gpx>