<?xml version='1.0' encoding='utf-8'?>
<gpx version="1.1" creator="Infofile GPX Generator">
<wpt lat = "50.77729" lon = "3.54621"><name>NWO1</name><desc>Downhill section to Patersberg km58/73  - km115/128  - km145/159 - 224/237
Images:12503
First:30.03.2024 08:48:06
Last:30.03.2024 17:58:44
Duration:09:10:38
</desc></wpt>
<wpt lat = "50.77729" lon = "3.54621"><name>TOG1</name><desc>Downhill section to Patersberg km58/73  - km115/128  - km145/159 - 224/237
Images:16047
First:30.03.2024 06:58:56
Last:30.03.2024 17:55:28
Duration:10:56:32
</desc></wpt>
<wpt lat = "50.77729" lon = "3.54621"><name>TOG1LS1</name><desc>Downhill section to Patersberg km58/73  - km115/128  - km145/159 - 224/237
Images:8479
First:30.03.2024 07:25:31
Last:30.03.2024 17:43:42
Duration:10:18:11
</desc></wpt>
<wpt lat = "50.78309" lon = "3.54865"><name>LUGR1</name><desc>Fast after downhill Patersberg km60,5/73  - km117,5/128  - km147,5/159 - 226,5/237
Images:16417
First:30.03.2024 07:59:58
Last:30.03.2024 18:32:38
Duration:10:32:40
</desc></wpt>
<wpt lat = "50.78309" lon = "3.54865"><name>LUGR1LS1</name><desc>Fast after downhill Patersberg km60,5/73  - km117,5/128  - km147,5/159 - 226,5/237
Images:8516
First:30.03.2024 07:28:23
Last:30.03.2024 17:43:13
Duration:10:14:50
</desc></wpt>
<wpt lat = "50.78309" lon = "3.54865"><name>MBEN1</name><desc>fast downhill from Patersberg km60,5/73  - km117,5/128  - km147,5/159 - 226,5/242
Images:19220
First:30.03.2024 07:49:12
Last:30.03.2024 18:11:08
Duration:10:21:56
</desc></wpt>
<wpt lat = "50.81913" lon = "3.59822"><name>DRI1</name><desc>Fast downhill section after Koppenberg km24/73 - km80/128 - km111/159 - km189/237
Images:44986
First:30.03.2024 07:15:26
Last:30.03.2024 16:21:30
Duration:09:06:04
</desc></wpt>
<wpt lat = "50.81913" lon = "3.59822"><name>DRI1LS1</name><desc>Fast downhill section after Koppenberg km24/73 - km80/128 - km111/159 - km189/237
Images:9042
First:30.03.2024 06:34:54
Last:30.03.2024 16:06:48
Duration:09:31:54
</desc></wpt>
<wpt lat = "50.81913" lon = "3.59822"><name>DRI1LS2</name><desc>Fast downhill section after Koppenberg km24/73 - km80/128 - km111/159 - km189/237
Images:7189
First:30.03.2024 06:39:19
Last:30.03.2024 16:06:52
Duration:09:27:33
</desc></wpt>
<wpt lat = "50.81913" lon = "3.59822"><name>TLA1</name><desc>Fast downhill section after Koppenberg km24/73 - km80/128 - km111/159 - km189/237
Images:21086
First:30.03.2024 06:14:27
Last:30.03.2024 16:04:55
Duration:09:50:28
</desc></wpt>
<wpt lat = "50.7766" lon = "3.5459"><name>MW1</name><desc>Fast downhill section to Patersberg km58/73  - km115/128  - km145/159 - 224/242
Images:11806
First:30.03.2024 06:57:52
Last:30.03.2024 17:54:15
Duration:10:56:23
</desc></wpt>
<wpt lat = "50.84029" lon = "3.59126"><name>PBO1</name><desc>Finish
Images:13830
First:30.03.2024 07:38:46
Last:30.03.2024 19:05:45
Duration:11:26:59
</desc></wpt>
<wpt lat = "50.84029" lon = "3.59126"><name>TB1</name><desc>Finish
Images:18781
First:30.03.2024 08:23:16
Last:30.03.2024 19:04:53
Duration:10:41:37
</desc></wpt>
<wpt lat = "50.84549" lon = "3.78686"><name>LV1</name><desc>Gorikstraat km34/128+159 - km112/237
Images:21125
First:30.03.2024 06:50:05
Last:30.03.2024 11:58:22
Duration:05:08:17
</desc></wpt>
<wpt lat = "50.84549" lon = "3.78686"><name>LV1LS1</name><desc>Gorikstraat km34/128+159 - km112/237
Images:5189
First:28.03.2024 08:02:13
Last:30.03.2024 10:36:54
Duration:2.02:34:41
</desc></wpt>
<wpt lat = "50.84549" lon = "3.78686"><name>MK1</name><desc>Gorikstraat km34/128+159 - km112/237
Images:16877
First:30.03.2024 07:53:54
Last:30.03.2024 11:56:26
Duration:04:02:32
</desc></wpt>
<wpt lat = "50.84549" lon = "3.78686"><name>MK1LS1</name><desc>Gorikstraat km34/128+159 - km112/237
Images:8093
First:30.03.2024 07:00:58
Last:30.03.2024 11:28:55
Duration:04:27:57
</desc></wpt>
<wpt lat = "50.84549" lon = "3.78686"><name>MK1LS2</name><desc>Gorikstraat km34/128+159 - km112/237
Images:6258
First:30.03.2024 07:09:01
Last:30.03.2024 11:22:05
Duration:04:13:04
</desc></wpt>
<wpt lat = "50.84549" lon = "3.78686"><name>TOG1LS2</name><desc>Gorikstraat km34/128+159 - km112/237
Images:8603
First:30.03.2024 06:43:02
Last:30.03.2024 17:43:43
Duration:11:00:41
</desc></wpt>
<wpt lat = "50.81913" lon = "3.59822"><name>DRI1DRONE1</name><desc>Impressions / Pano
Images:20
First:30.03.2024 12:50:12
Last:30.03.2024 12:59:36
Duration:00:09:24
</desc></wpt>
<wpt lat = "50.7723" lon = "3.89046"><name>MK2DRONE1</name><desc>Impressions / Pano
Images:83
First:30.03.2024 15:56:25
Last:30.03.2024 16:11:12
Duration:00:14:47
</desc></wpt>
<wpt lat = "50.75718" lon = "3.53881"><name>IWI1</name><desc>Karnemelkbeekstraat climb km50/73 - km102/128 - km134/159 - km212/237
Images:19363
First:30.03.2024 06:48:39
Last:30.03.2024 17:13:52
Duration:10:25:13
</desc></wpt>
<wpt lat = "50.81101" lon = "3.579"><name>BENL1</name><desc>Koppenberg top km22/73 - km79/128 - km 110/159 - km 188/237
Images:10622
First:30.03.2024 06:53:05
Last:30.03.2024 15:19:40
Duration:08:26:35
</desc></wpt>
<wpt lat = "50.81101" lon = "3.579"><name>KSA1</name><desc>Koppenberg top km22/73 - km79/128 - km 110/159 - km 188/237
Images:11387
First:30.03.2024 06:51:54
Last:30.03.2024 15:51:01
Duration:08:59:07
</desc></wpt>
<wpt lat = "50.81101" lon = "3.579"><name>RA1</name><desc>Koppenberg top km22/73 - km79/128 - km 110/159 - km 188/237
Images:22588
First:30.03.2024 06:52:59
Last:30.03.2024 15:46:57
Duration:08:53:58
</desc></wpt>
<wpt lat = "50.81101" lon = "3.579"><name>RA1LS1</name><desc>Koppenberg top km22/73 - km79/128 - km 110/159 - km 188/237
Images:7840
First:30.03.2024 06:34:07
Last:30.03.2024 15:13:46
Duration:08:39:39
</desc></wpt>
<wpt lat = "50.81101" lon = "3.579"><name>RA1LS2</name><desc>Koppenberg top km22/73 - km79/128 - km 110/159 - km 188/237
Images:9308
First:30.03.2024 06:29:11
Last:30.03.2024 12:15:33
Duration:05:46:22
</desc></wpt>
<wpt lat = "50.78195" lon = "3.54393"><name>ALN1</name><desc>Last flat before Patersberg km59/73  - km116/128  - km146/159 - 225/242
Images:36955
First:30.03.2024 08:41:59
Last:30.03.2024 18:15:36
Duration:09:33:37
</desc></wpt>
<wpt lat = "50.78195" lon = "3.54393"><name>ALN1LS1</name><desc>Last flat before Patersberg km59/73  - km116/128  - km146/159 - 225/242
Images:8235
First:30.03.2024 08:20:04
Last:30.03.2024 18:12:32
Duration:09:52:28
</desc></wpt>
<wpt lat = "50.78195" lon = "3.54393"><name>ALN1LS2</name><desc>Last flat before Patersberg km59/73  - km116/128  - km146/159 - 225/242
Images:7980
First:30.03.2024 08:14:36
Last:30.03.2024 18:15:40
Duration:10:01:04
</desc></wpt>
<wpt lat = "50.78195" lon = "3.54393"><name>ALN2LS1</name><desc>Last flat before Patersberg km59/73  - km116/128  - km146/159 - 225/242
Images:8138
First:30.03.2024 08:10:52
Last:30.03.2024 18:21:58
Duration:10:11:06
</desc></wpt>
<wpt lat = "50.7723" lon = "3.89046"><name>DAH1</name><desc>Muur van Geraardsbergen 68km/159 - 146km/237
Images:11933
First:30.03.2024 08:14:31
Last:30.03.2024 13:09:44
Duration:04:55:13
</desc></wpt>
<wpt lat = "50.7723" lon = "3.89046"><name>DAH1LS1</name><desc>Muur van Geraardsbergen 68km/159 - 146km/237
Images:7051
First:30.03.2024 08:12:56
Last:30.03.2024 12:57:28
Duration:04:44:32
</desc></wpt>
<wpt lat = "50.7723" lon = "3.89046"><name>DAH1LS2</name><desc>Muur van Geraardsbergen 68km/159 - 146km/237
Images:5897
First:30.03.2024 08:14:31
Last:30.03.2024 12:57:52
Duration:04:43:21
</desc></wpt>
<wpt lat = "50.7723" lon = "3.89046"><name>LV2</name><desc>Muur van Geraardsbergen 68km/159 - 146km/237
Images:265
First:30.03.2024 12:46:01
Last:30.03.2024 13:19:32
Duration:00:33:31
</desc></wpt>
<wpt lat = "50.7723" lon = "3.89046"><name>MK2</name><desc>Muur van Geraardsbergen 68km/159 - 146km/237
Images:500
First:30.03.2024 12:44:44
Last:30.03.2024 13:15:22
Duration:00:30:38
</desc></wpt>
<wpt lat = "50.77897" lon = "3.52554"><name>MSC1</name><desc>Oude Kwaremont botom   km53/73 - km109/128 - km140/159 - km217/237
Images:10662
First:30.03.2024 07:24:41
Last:30.03.2024 17:29:53
Duration:10:05:12
</desc></wpt>
<wpt lat = "50.77897" lon = "3.52554"><name>OT1</name><desc>Oude Kwaremont bottom km53/73 - km109/128 - km140/159 - km217/237
Images:18830
First:30.03.2024 07:14:55
Last:30.03.2024 17:33:06
Duration:10:18:11
</desc></wpt>
<wpt lat = "50.77034" lon = "3.52974"><name>GAC1</name><desc>Oude Kwaremont Top  km54/73 - km110/128 - km141/159 - km218/237
Images:20587
First:30.03.2024 07:30:03
Last:30.03.2024 17:47:06
Duration:10:17:03
</desc></wpt>
<wpt lat = "50.77034" lon = "3.52974"><name>DAV2</name><desc>Oude Kwaremont Top km54/73 - km110/128 - km141/159 - km218/237
Images:8789
First:30.03.2024 08:51:52
Last:30.03.2024 17:38:04
Duration:08:46:12
</desc></wpt>
<wpt lat = "50.77034" lon = "3.52974"><name>DAV2LS1</name><desc>Oude Kwaremont Top km54/73 - km110/128 - km141/159 - km218/237
Images:9416
First:30.03.2024 08:40:52
Last:30.03.2024 17:45:24
Duration:09:04:32
</desc></wpt>
<wpt lat = "50.78213" lon = "3.54765"><name>OP1</name><desc>Paterberg Top km60/73  - km117/128  - km147/159 - 226/242
Images:7895
First:30.03.2024 08:04:01
Last:30.03.2024 17:39:05
Duration:09:35:04
</desc></wpt>
<wpt lat = "50.78213" lon = "3.54765"><name>ST1</name><desc>Paterberg Top km60/73  - km117/128  - km147/159 - 226/242
Images:9091
First:30.03.2024 08:18:32
Last:30.03.2024 18:15:34
Duration:09:57:02
</desc></wpt>
<wpt lat = "50.78213" lon = "3.54765"><name>ST1LS1</name><desc>Paterberg Top km60/73  - km117/128  - km147/159 - 226/242
Images:4612
First:30.03.2024 07:54:07
Last:30.03.2024 17:16:29
Duration:09:22:22
</desc></wpt>
<wpt lat = "50.78213" lon = "3.54765"><name>ST1LS2</name><desc>Paterberg Top km60/73  - km117/128  - km147/159 - 226/242
Images:19996
First:28.03.2013 06:59:09
Last:28.03.2013 17:32:45
Duration:10:33:36
</desc></wpt>
<wpt lat = "51.21920" lon = "4.39573"><name>DAV1</name><desc>Start long distance Antwerpen
Images:41
First:30.03.2024 05:49:39
Last:30.03.2024 06:24:38
Duration:00:34:59
</desc></wpt>
<wpt lat = "50.80112" lon = "3.61878"><name>NKR1</name><desc>Stationsberg coblestone downhil km25/73 - km80/128 - km112/159 - km192/237
Images:16249
First:30.03.2024 04:42:59
Last:30.03.2024 16:03:40
Duration:11:20:41
</desc></wpt>
<wpt lat = "50.80112" lon = "3.61878"><name>LV3</name><desc>Stationsberg coblestone downhill km25/73 - km80/128 - km112/159 - km192/237
Images:3530
First:30.03.2024 14:07:41
Last:30.03.2024 16:14:50
Duration:02:07:09
</desc></wpt>
<wpt lat = "50.80112" lon = "3.61878"><name>MK3LS1</name><desc>Stationsberg coblestone downhill km25/73 - km80/128 - km112/159 - km192/237
Images:783
First:30.03.2024 14:15:49
Last:30.03.2024 16:20:18
Duration:02:04:29
</desc></wpt>
<wpt lat = "50.80112" lon = "3.61878"><name>MK3LS2</name><desc>Stationsberg coblestone downhill km25/73 - km80/128 - km112/159 - km192/237
Images:2584
First:30.03.2024 14:40:21
Last:30.03.2024 16:11:19
Duration:01:30:58
</desc></wpt>
<wpt lat = "50.80112" lon = "3.61878"><name>THL1</name><desc>Stationsberg coblestone downhill km25/73 - km80/128 - km112/159 - km192/237
Images:17415
First:29.03.2024 18:50:00
Last:30.03.2024 16:15:16
Duration:21:25:16
</desc></wpt>
<wpt lat = "50.80112" lon = "3.61878"><name>THL1LS1</name><desc>Stationsberg coblestone downhill km25/73 - km80/128 - km112/159 - km192/237
Images:8850
First:29.03.2024 18:53:53
Last:30.03.2024 16:11:26
Duration:21:17:33
</desc></wpt>
<wpt lat = "50.80112" lon = "3.61878"><name>THL1LS2</name><desc>Stationsberg coblestone downhill km25/73 - km80/128 - km112/159 - km192/237
Images:8053
First:29.03.2024 18:55:40
Last:30.03.2024 15:47:04
Duration:20:51:24
</desc></wpt>
</gpx>