<?xml version='1.0' encoding='utf-8'?>
<gpx version="1.1" creator="Infofile GPX Generator">
<wpt lat = "50.99607" lon = "4.26870"><name>ACD1</name><desc>10,5 km Palm Brewery
Images:13294
First:05.05.2024 09:45:46
Last:05.05.2024 14:39:07
Duration:04:53:21
</desc></wpt>
<wpt lat = "50.99607" lon = "4.26870"><name>ACD1DRONE1</name><desc>10,5 km Palm Brewery
Images:20
First:05.05.2024 11:19:20
Last:05.05.2024 15:44:25
Duration:04:25:05
</desc></wpt>
<wpt lat = "50.99607" lon = "4.26870"><name>ACD1LS1</name><desc>10,5 km Palm Brewery
Images:3606
First:05.05.2024 09:15:08
Last:05.05.2024 14:40:03
Duration:05:24:55
</desc></wpt>
<wpt lat = "50.99607" lon = "4.26870"><name>ACD1LS2</name><desc>10,5 km Palm Brewery
Images:3606
First:05.05.2024 09:18:58
Last:05.05.2024 14:46:43
Duration:05:27:45
</desc></wpt>
<wpt lat = "51.04221" lon = "4.32842"><name>BDAH1</name><desc>300,0 m Before FInish
Images:11637
First:05.05.2024 10:12:34
Last:05.05.2024 16:48:13
Duration:06:35:39
</desc></wpt>
<wpt lat = "51.04221" lon = "4.32842"><name>BDAH1LS1</name><desc>300,0 m Before FInish
Images:2898
First:05.05.2024 10:28:13
Last:05.05.2024 16:57:59
Duration:06:29:46
</desc></wpt>
<wpt lat = "51.04221" lon = "4.32842"><name>BDAH1LS2</name><desc>300,0 m Before FInish
Images:2798
First:05.05.2024 10:28:42
Last:05.05.2024 16:51:01
Duration:06:22:19
</desc></wpt>
<wpt lat = "51.01674" lon = "4.29889"><name>ATHL1</name><desc>6,0 km
Images:17299
First:04.05.2024 16:36:00
Last:05.05.2024 13:27:31
Duration:20:51:31
</desc></wpt>
<wpt lat = "51.01674" lon = "4.29889"><name>ATHL1LS1</name><desc>6,0 km
Images:3038
First:04.05.2024 16:42:35
Last:05.05.2024 13:31:00
Duration:20:48:25
</desc></wpt>
<wpt lat = "51.01674" lon = "4.29889"><name>ATHL1LS2</name><desc>6,0 km
Images:3052
First:04.05.2024 16:41:00
Last:05.05.2024 13:37:01
Duration:20:56:01
</desc></wpt>
<wpt lat = "51.00050" lon = "4.27127"><name>AHM1</name><desc>9,5 km Kasteel Diepensteyn
Images:7418
First:04.05.2024 17:46:29
Last:05.05.2024 14:23:26
Duration:20:36:57
</desc></wpt>
<wpt lat = "51.00050" lon = "4.27127"><name>AHM1DRONE2</name><desc>9,5 km Kasteel Diepensteyn
Images:4
First:05.05.2024 09:48:55
Last:05.05.2024 09:49:42
Duration:00:00:47
</desc></wpt>
<wpt lat = "51.00050" lon = "4.27127"><name>AHM1LS1</name><desc>9,5 km Kasteel Diepensteyn
Images:3725
First:05.05.2024 09:05:59
Last:05.05.2024 14:12:21
Duration:05:06:22
</desc></wpt>
<wpt lat = "51.00050" lon = "4.27127"><name>AHM1LS2</name><desc>9,5 km Kasteel Diepensteyn
Images:3723
First:05.05.2024 09:07:35
Last:05.05.2024 14:12:21
Duration:05:04:46
</desc></wpt>
<wpt lat = "51.00009" lon = "4.27121"><name>AANR1</name><desc>9,6 km Kasteel Diepensteyn
Images:10942
First:05.05.2024 09:33:51
Last:05.05.2024 14:33:50
Duration:04:59:59
</desc></wpt>
<wpt lat = "51.04154" lon = "4.32868"><name>BDAH2</name><desc>Finish
Images:3040
First:05.05.2024 16:50:18
Last:05.05.2024 19:05:50
Duration:02:15:32
</desc></wpt>
<wpt lat = "51.04154" lon = "4.32868"><name>BDAH2LS1</name><desc>Finish
Images:1820
First:05.05.2024 16:58:07
Last:05.05.2024 18:45:18
Duration:01:47:11
</desc></wpt>
<wpt lat = "51.04154" lon = "4.32868"><name>BDAH2LS2</name><desc>Finish
Images:1640
First:05.05.2024 16:58:14
Last:05.05.2024 18:47:46
Duration:01:49:32
</desc></wpt>
<wpt lat = "51.04154" lon = "4.32868"><name>BFVE1</name><desc>Finish
Images:5658
First:05.05.2024 10:17:12
Last:05.05.2024 16:42:13
Duration:06:25:01
</desc></wpt>
<wpt lat = "51.04154" lon = "4.32868"><name>BGVDL1</name><desc>Finish
Images:12454
First:05.05.2024 10:15:25
Last:05.05.2024 18:26:50
Duration:08:11:25
</desc></wpt>
</gpx>