<?xml version='1.0' encoding='utf-8'?>
<gpx version="1.1" creator="Infofile GPX Generator">
<wpt lat = "49.16303" lon = "12.99167"><name>KG1</name><desc>Start
Images:70
First:05.07.2025 07:34:35
Last:05.07.2025 08:01:53
Duration:00:27:18
</desc></wpt>
<wpt lat = "49.16303" lon = "12.99167"><name>KG2</name><desc>Start
Images:56
First:05.07.2025 08:11:53
Last:05.07.2025 08:16:10
Duration:00:04:17
</desc></wpt>
<wpt lat = "49.16303" lon = "12.99167"><name>KG3</name><desc>Start
Images:99
First:05.07.2025 11:50:17
Last:05.07.2025 12:02:21
Duration:00:12:04
</desc></wpt>
<wpt lat = "49.19884" lon = "13.04851"><name>MBRE1</name><desc>Start
Images:109
First:05.07.2025 07:24:14
Last:05.07.2025 08:02:35
Duration:00:38:21
</desc></wpt>
<wpt lat = "49.20401" lon = "13.05189"><name>MBRE2</name><desc>Start
Images:193
First:05.07.2025 08:19:00
Last:05.07.2025 09:58:10
Duration:01:39:10
</desc></wpt>
<wpt lat = "49.19884" lon = "13.04851"><name>MHIR1</name><desc>Start
Images:149
First:05.07.2025 07:22:52
Last:05.07.2025 08:01:41
Duration:00:38:49
</desc></wpt>
<wpt lat = "49.19754" lon = "13.04589"><name>NJO1</name><desc>Start
Images:267
First:05.07.2025 07:24:07
Last:05.07.2025 08:04:57
Duration:00:40:50
</desc></wpt>
<wpt lat = "49.19754" lon = "13.04589"><name>NJO1LS1</name><desc>Start
Images:110
First:05.07.2025 08:02:21
Last:05.07.2025 08:04:10
Duration:00:01:49
</desc></wpt>
<wpt lat = "49.19884" lon = "13.04851"><name>NJO2</name><desc>Start
Images:174
First:05.07.2025 08:15:55
Last:05.07.2025 08:17:12
Duration:00:01:17
</desc></wpt>
<wpt lat = "49.19884" lon = "13.04851"><name>RSJ1</name><desc>Start
Images:142
First:05.07.2025 08:01:25
Last:05.07.2025 08:02:09
Duration:00:00:44
</desc></wpt>
<wpt lat = "49.16303" lon = "12.99167"><name>KG4</name><desc>Finish
Images:3883
First:05.07.2025 09:11:51
Last:05.07.2025 19:02:24
Duration:09:50:33
</desc></wpt>
<wpt lat = "49.16303" lon = "12.99167"><name>KG4LS1</name><desc>Finish
Images:2766
First:05.07.2025 07:22:14
Last:05.07.2025 17:24:01
Duration:10:01:47
</desc></wpt>
<wpt lat = "49.11156" lon = "13.13358"><name>MBRE3</name><desc>Großer Arber
Images:1467
First:05.07.2025 10:18:43
Last:05.07.2025 12:40:10
Duration:02:21:27
</desc></wpt>
<wpt lat = "49.11156" lon = "13.13358"><name>NJO3</name><desc>Großer Arber
Images:2273
First:05.07.2025 10:16:40
Last:05.07.2025 12:24:29
Duration:02:07:49
</desc></wpt>
<wpt lat = "49.11062" lon = "13.13536"><name>NJO3LS1</name><desc>Großer Arber
Images:873
First:05.07.2025 10:19:42
Last:05.07.2025 12:25:42
Duration:02:06:00
</desc></wpt>
<wpt lat = "49.11148" lon = "13.13397"><name>NJO3LS2</name><desc>Großer Arber
Images:775
First:05.07.2025 10:04:27
Last:05.07.2025 12:35:39
Duration:02:31:12
</desc></wpt>
<wpt lat = "49.20740" lon = "13.08431"><name>MBRE4</name><desc>Tromsø Felsen
Images:2087
First:05.07.2025 13:32:55
Last:05.07.2025 17:32:15
Duration:03:59:20
</desc></wpt>
<wpt lat = "49.20740" lon = "13.08431"><name>MBRE4LS1</name><desc>Tromsø Felsen
Images:941
First:05.07.2025 13:39:18
Last:05.07.2025 16:28:25
Duration:02:49:07
</desc></wpt>
<wpt lat = "49.20735" lon = "13.08621"><name>NJO4</name><desc>Tromsø Felsen
Images:2363
First:05.07.2025 13:38:21
Last:05.07.2025 17:27:30
Duration:03:49:09
</desc></wpt>
<wpt lat = "49.20735" lon = "13.08621"><name>NJO4LS1</name><desc>Tromsø Felsen
Images:1213
First:05.07.2025 13:40:01
Last:05.07.2025 17:29:14
Duration:03:49:13
</desc></wpt>
<wpt lat = "49.1633" lon = "12.99136"><name>MHIR2</name><desc>Eck
Images:1943
First:05.07.2025 08:18:49
Last:05.07.2025 09:27:07
Duration:01:08:18
</desc></wpt>
<wpt lat = "49.1633" lon = "12.99136"><name>RSJ2</name><desc>Eck
Images:1145
First:05.07.2025 08:39:07
Last:05.07.2025 09:23:58
Duration:00:44:51
</desc></wpt>
<wpt lat = "49.1633" lon = "12.99136"><name>RSJ2LS1</name><desc>Eck
Images:345
First:05.07.2025 08:23:31
Last:05.07.2025 09:29:54
Duration:01:06:23
</desc></wpt>
<wpt lat = "49.20441" lon = "13.09922"><name>MHIR3</name><desc>Osser Sattel
Images:8206
First:05.07.2025 11:03:03
Last:05.07.2025 17:11:47
Duration:06:08:44
</desc></wpt>
<wpt lat = "49.19754" lon = "13.04589"><name>NJO1DRONE1</name><desc>Impressions / Pano
Images:26
First:05.07.2025 07:19:23
Last:05.07.2025 15:40:34
Duration:08:21:11
</desc></wpt>
<wpt lat = "49.20206" lon = "13.10313"><name>RSJ3</name><desc>Osser Downhill
Images:1982
First:05.07.2025 11:59:12
Last:05.07.2025 16:43:18
Duration:04:44:06
</desc></wpt>
<wpt lat = "49.20206" lon = "13.10313"><name>RSJ3LS1</name><desc>Osser Downhill
Images:647
First:05.07.2025 11:23:29
Last:05.07.2025 16:40:42
Duration:05:17:13
</desc></wpt>
</gpx>