<?xml version='1.0' encoding='utf-8'?>
<gpx version="1.1" creator="Infofile GPX Generator">
<wpt lat = "47.61522" lon = "10.47319"><name>S0SVL2HAND1N2236</name><desc>Alten Reiochenbachweg
Images:3055
First:25.05.2024 12:09:36
Last:25.05.2024 16:44:51
Duration:04:35:15
</desc></wpt>
<wpt lat = "47.61522" lon = "10.47319"><name>S0SVL2LS1N2236</name><desc>Alten Reiochenbachweg
Images:1450
First:25.05.2024 11:58:24
Last:25.05.2024 16:33:10
Duration:04:34:46
</desc></wpt>
<wpt lat = "47.61522" lon = "10.47319"><name>S0SVL2LS2N2236</name><desc>Alten Reiochenbachweg
Images:683
First:25.05.2024 12:03:22
Last:25.05.2024 15:29:41
Duration:03:26:19
</desc></wpt>
<wpt lat = "47.61458" lon = "10.49273"><name>S0LENK1HAND1N2236</name><desc>Bayernstetten
Images:1952
First:25.05.2024 08:45:25
Last:25.05.2024 11:19:58
Duration:02:34:33
</desc></wpt>
<wpt lat = "47.61495" lon = "10.51402"><name>S0IH2HAND1N2236</name><desc>Finish
Images:6624
First:25.05.2024 11:04:30
Last:25.05.2024 17:31:46
Duration:06:27:16
</desc></wpt>
<wpt lat = "47.59869" lon = "10.50321"><name>S0SVL1DRONE1N2236</name><desc>Gipfelkreuz
Images:46
First:25.05.2024 10:39:07
Last:25.05.2024 10:49:22
Duration:00:10:15
</desc></wpt>
<wpt lat = "47.61662" lon = "10.50414"><name>S0ADN2HAND1N2236</name><desc>Maria-Trost-Allee
Images:2595
First:25.05.2024 11:54:25
Last:25.05.2024 16:12:18
Duration:04:17:53
</desc></wpt>
<wpt lat = "47.59665" lon = "10.50001"><name>S0LENK2HAND1N2236</name><desc>Oberhalb von Sportheim Böck
Images:1433
First:25.05.2024 11:21:41
Last:25.05.2024 16:56:30
Duration:05:34:49
</desc></wpt>
<wpt lat = "47.59024" lon = "10.45989"><name>S0DASA1HAND1N2236</name><desc>Reuterwanne
Images:3442
First:25.05.2024 09:26:27
Last:25.05.2024 15:28:53
Duration:06:02:26
</desc></wpt>
<wpt lat = "47.59869" lon = "10.50321"><name>S0SVL1LS1N2236</name><desc>Sportheim Bock
Images:2902
First:25.05.2024 08:53:59
Last:25.05.2024 10:50:27
Duration:01:56:28
</desc></wpt>
<wpt lat = "47.59869" lon = "10.50321"><name>S0SVL1LS2N2236</name><desc>Sportheim Bock
Images:2544
First:25.05.2024 08:41:29
Last:25.05.2024 10:54:22
Duration:02:12:53
</desc></wpt>
<wpt lat = "47.61495" lon = "10.51402"><name>S0IH1HAND1N2236</name><desc>Start
Images:2112
First:25.05.2024 07:27:44
Last:25.05.2024 11:02:42
Duration:03:34:58
</desc></wpt>
<wpt lat = "47.61430" lon = "10.50243"><name>S0ADN1HAND1N2236</name><desc>Wasserfallweg
Images:4977
First:25.05.2024 07:48:00
Last:25.05.2024 17:20:24
Duration:09:32:24
</desc></wpt>
<wpt lat = "47.59912" lon = "10.50310"><name>S0SVL1HAND1N2236</name><desc>Wurzelweg
Images:3563
First:25.05.2024 08:59:41
Last:25.05.2024 10:59:35
Duration:01:59:54
</desc></wpt>
</gpx>