<?xml version='1.0' encoding='utf-8'?>
<gpx version="1.1" creator="Infofile GPX Generator">
<wpt lat = "47.99818" lon = "7.81860"><name>ATNR2</name><desc>AOK km5.3
Images:2125
First:07.04.2024 12:13:46
Last:07.04.2024 13:09:47
Duration:00:56:01
</desc></wpt>
<wpt lat = "47.99818" lon = "7.82039"><name>ATNR2LS1</name><desc>AOK km5.3
Images:944
First:07.04.2024 11:32:35
Last:07.04.2024 12:35:55
Duration:01:03:20
</desc></wpt>
<wpt lat = "47.99818" lon = "7.82039"><name>ATNR2LS2</name><desc>AOK km5.3
Images:1178
First:07.04.2024 11:37:10
Last:07.04.2024 13:06:31
Duration:01:29:21
</desc></wpt>
<wpt lat = "48.01448" lon = "7.83995"><name>BISA2</name><desc>Finish
Images:385
First:07.04.2024 14:06:08
Last:07.04.2024 16:02:22
Duration:01:56:14
</desc></wpt>
<wpt lat = "48.01448" lon = "7.83995"><name>BJOM2</name><desc>Finish
Images:17211
First:07.04.2024 10:19:19
Last:07.04.2024 16:02:24
Duration:05:43:05
</desc></wpt>
<wpt lat = "48.01448" lon = "7.83995"><name>BJOM2LS1</name><desc>Finish
Images:7055
First:07.04.2024 10:46:23
Last:07.04.2024 16:03:05
Duration:05:16:42
</desc></wpt>
<wpt lat = "48.01448" lon = "7.83995"><name>BLUJ2</name><desc>Finish
Images:3804
First:07.04.2024 10:46:20
Last:07.04.2024 16:02:27
Duration:05:16:07
</desc></wpt>
<wpt lat = "48.01448" lon = "7.83995"><name>BMAWI1LS1</name><desc>Finish
Images:6583
First:07.04.2024 10:18:58
Last:07.04.2024 16:03:18
Duration:05:44:20
</desc></wpt>
<wpt lat = "48.01448" lon = "7.83995"><name>BEVL2</name><desc>Finisher Wall
Images:25
First:07.04.2024 14:36:17
Last:07.04.2024 14:55:24
Duration:00:19:07
</desc></wpt>
<wpt lat = "48.01448" lon = "7.83995"><name>BMAWI1</name><desc>Finisher Wall
Images:2391
First:07.04.2024 10:58:50
Last:07.04.2024 16:07:51
Duration:05:09:01
</desc></wpt>
<wpt lat = "47.98508" lon = "7.85402"><name>AMOG1DRONE1</name><desc>Impressions / Pano
Images:28
First:07.04.2024 09:54:21
Last:07.04.2024 12:35:40
Duration:02:41:19
</desc></wpt>
<wpt lat = "48.01448" lon = "7.83995"><name>BTE1</name><desc>Impressions / Pano
Images:120
First:07.04.2024 08:17:11
Last:07.04.2024 09:16:31
Duration:00:59:20
</desc></wpt>
<wpt lat = "47.98508" lon = "7.85402"><name>AMOG1</name><desc>km12.3
Images:5605
First:07.04.2024 08:28:36
Last:07.04.2024 14:47:27
Duration:06:18:51
</desc></wpt>
<wpt lat = "47.98508" lon = "7.85402"><name>AMOG1LS1</name><desc>km12.3
Images:7515
First:07.04.2024 09:35:22
Last:07.04.2024 14:48:44
Duration:05:13:22
</desc></wpt>
<wpt lat = "47.98501" lon = "7.85405"><name>AMOG1LS2</name><desc>km12.3
Images:8012
First:11.03.2024 11:57:28
Last:07.04.2024 14:48:59
Duration:27.02:51:31
</desc></wpt>
<wpt lat = "47.98814" lon = "7.87391"><name>AHS1</name><desc>km14.0
Images:5519
First:07.04.2024 09:17:46
Last:07.04.2024 14:58:30
Duration:05:40:44
</desc></wpt>
<wpt lat = "47.98814" lon = "7.87391"><name>AHS1LS1</name><desc>km14.0
Images:8101
First:07.04.2024 08:41:52
Last:07.04.2024 14:59:50
Duration:06:17:58
</desc></wpt>
<wpt lat = "47.98814" lon = "7.87391"><name>AHS1LS2</name><desc>km14.0
Images:7317
First:07.04.2024 10:43:45
Last:07.04.2024 14:58:42
Duration:04:14:57
</desc></wpt>
<wpt lat = "47.99091" lon = "7.85875"><name>AJOMA1</name><desc>km15.3
Images:6621
First:07.04.2024 08:17:25
Last:07.04.2024 15:10:24
Duration:06:52:59
</desc></wpt>
<wpt lat = "47.99088" lon = "7.85673"><name>AJOMA1LS1</name><desc>km15.3
Images:5901
First:07.04.2024 10:26:59
Last:07.04.2024 12:58:07
Duration:02:31:08
</desc></wpt>
<wpt lat = "47.99088" lon = "7.85673"><name>AJOMA1LS2</name><desc>km15.3
Images:6823
First:07.04.2024 10:26:02
Last:07.04.2024 15:11:51
Duration:04:45:49
</desc></wpt>
<wpt lat = "47.99378" lon = "7.85373"><name>AKD1</name><desc>km16.1
Images:8066
First:07.04.2024 08:43:32
Last:07.04.2024 14:14:49
Duration:05:31:17
</desc></wpt>
<wpt lat = "47.99378" lon = "7.85373"><name>AKD1LS1</name><desc>km16.1
Images:6495
First:07.04.2024 08:07:42
Last:07.04.2024 13:44:53
Duration:05:37:11
</desc></wpt>
<wpt lat = "47.99378" lon = "7.85373"><name>AKD1LS2</name><desc>km16.1
Images:6413
First:07.04.2024 09:08:53
Last:07.04.2024 13:34:50
Duration:04:25:57
</desc></wpt>
<wpt lat = "47.99460" lon = "7.84564"><name>ARONS1</name><desc>km16.8
Images:8077
First:08.04.2024 08:54:37
Last:08.04.2024 15:20:47
Duration:06:26:10
</desc></wpt>
<wpt lat = "47.99652" lon = "7.83940"><name>ABP1</name><desc>km17.6
Images:8823
First:07.04.2024 09:59:38
Last:07.04.2024 13:51:59
Duration:03:52:21
</desc></wpt>
<wpt lat = "47.99652" lon = "7.83940"><name>ABP1LS1</name><desc>km17.6
Images:7356
First:07.04.2024 09:09:25
Last:07.04.2024 15:43:07
Duration:06:33:42
</desc></wpt>
<wpt lat = "47.99652" lon = "7.83940"><name>ABP1LS2</name><desc>km17.6
Images:7611
First:07.04.2024 09:31:58
Last:07.04.2024 15:49:03
Duration:06:17:05
</desc></wpt>
<wpt lat = "47.99652" lon = "7.83940"><name>ATNR3</name><desc>km17.6
Images:1463
First:07.04.2024 13:52:11
Last:07.04.2024 15:36:20
Duration:01:44:09
</desc></wpt>
<wpt lat = "47.99764" lon = "7.83775"><name>ADABI1</name><desc>km18.0 / AOK km7.3
Images:10880
First:08.04.2024 08:00:55
Last:08.04.2024 14:25:32
Duration:06:24:37
</desc></wpt>
<wpt lat = "48.01367" lon = "7.81693"><name>BISA1</name><desc>km2.1 / AOK km2.1
Images:2957
First:07.04.2024 08:24:13
Last:07.04.2024 13:28:43
Duration:05:04:30
</desc></wpt>
<wpt lat = "48.01316" lon = "7.84160"><name>BTE2</name><desc>km20.8 / AOK km9.8
Images:12836
First:07.04.2024 10:22:46
Last:07.04.2024 16:01:08
Duration:05:38:22
</desc></wpt>
<wpt lat = "48.01316" lon = "7.84160"><name>BTE2LS1</name><desc>km20.8 / AOK km9.8
Images:3314
First:07.04.2024 12:24:22
Last:07.04.2024 16:01:18
Duration:03:36:56
</desc></wpt>
<wpt lat = "48.01316" lon = "7.84160"><name>BTE2LS2</name><desc>km20.8 / AOK km9.8
Images:11071
First:07.04.2024 09:31:14
Last:07.04.2024 16:01:37
Duration:06:30:23
</desc></wpt>
<wpt lat = "48.00790" lon = "7.80447"><name>BEVL1</name><desc>km3.8 / AOK km3.8
Images:7436
First:07.04.2024 08:14:12
Last:07.04.2024 13:47:44
Duration:05:33:32
</desc></wpt>
<wpt lat = "48.00790" lon = "7.80447"><name>BEVL1LS1</name><desc>km3.8 / AOK km3.8
Images:5430
First:07.04.2024 09:13:02
Last:07.04.2024 13:47:33
Duration:04:34:31
</desc></wpt>
<wpt lat = "48.00825" lon = "7.80223"><name>BEVL1LS2</name><desc>km3.8 / AOK km3.8
Images:7908
First:07.04.2024 08:59:25
Last:07.04.2024 13:47:58
Duration:04:48:33
</desc></wpt>
<wpt lat = "47.99441" lon = "7.81656"><name>ATNR1</name><desc>km6.6
Images:4015
First:07.04.2024 09:37:57
Last:07.04.2024 11:12:25
Duration:01:34:28
</desc></wpt>
<wpt lat = "47.99441" lon = "7.81656"><name>ATNR1LS1</name><desc>km6.6
Images:4093
First:07.04.2024 09:30:46
Last:07.04.2024 11:13:55
Duration:01:43:09
</desc></wpt>
<wpt lat = "47.99441" lon = "7.81656"><name>ATNR1LS2</name><desc>km6.6
Images:3586
First:07.04.2024 08:47:04
Last:07.04.2024 11:15:45
Duration:02:28:41
</desc></wpt>
<wpt lat = "47.98922" lon = "7.81363"><name>ATD1</name><desc>km7.4
Images:8702
First:07.04.2024 10:00:18
Last:07.04.2024 14:06:16
Duration:04:05:58
</desc></wpt>
<wpt lat = "48.01205" lon = "7.83882"><name>BJOM3</name><desc>Start
Images:2288
First:07.04.2024 08:13:07
Last:07.04.2024 10:08:16
Duration:01:55:09
</desc></wpt>
<wpt lat = "48.01205" lon = "7.83882"><name>BLUJ1</name><desc>Start
Images:1775
First:07.04.2024 08:48:13
Last:07.04.2024 12:00:36
Duration:03:12:23
</desc></wpt>
</gpx>