<?xml version='1.0' encoding='utf-8'?>
<gpx version="1.1" creator="Infofile GPX Generator">
<wpt lat = "51.48237" lon = "-0.00991"><name>BSHP1</name><desc>100m before Finish
Images:17890
First:01.09.2024 07:47:14
Last:01.09.2024 14:30:44
Duration:06:43:30
</desc></wpt>
<wpt lat = "51.48237" lon = "-0.00991"><name>BSHP1LS1</name><desc>100m before Finish
Images:4899
First:01.09.2024 08:09:57
Last:01.09.2024 13:53:13
Duration:05:43:16
</desc></wpt>
<wpt lat = "51.50476" lon = "-0.01704"><name>AAH1</name><desc>Canary Wharf - Km 5.5
Images:12846
First:01.09.2024 08:37:31
Last:01.09.2024 11:11:32
Duration:02:34:01
</desc></wpt>
<wpt lat = "51.50476" lon = "-0.01704"><name>AGF1</name><desc>Canary Wharf - Km 5.5
Images:6700
First:01.09.2024 08:16:47
Last:01.09.2024 11:18:04
Duration:03:01:17
</desc></wpt>
<wpt lat = "51.48179" lon = "-0.01002"><name>ACMS1</name><desc>Church St - Km 21.1
Images:14639
First:01.09.2024 08:42:38
Last:01.09.2024 14:06:10
Duration:05:23:32
</desc></wpt>
<wpt lat = "51.48179" lon = "-0.01002"><name>ACMS1LS1</name><desc>Church St - Km 21.1
Images:5628
First:01.09.2024 08:42:13
Last:01.09.2024 12:52:33
Duration:04:10:20
</desc></wpt>
<wpt lat = "51.48179" lon = "-0.01002"><name>AWIN1</name><desc>Church St - Km 21.1
Images:21530
First:01.09.2024 09:06:37
Last:01.09.2024 14:25:31
Duration:05:18:54
</desc></wpt>
<wpt lat = "51.48179" lon = "-0.01002"><name>AWIN1LS1</name><desc>Church St - Km 21.1
Images:7547
First:01.09.2024 09:39:45
Last:01.09.2024 13:52:28
Duration:04:12:43
</desc></wpt>
<wpt lat = "51.48273" lon = "-0.00986"><name>AAH2</name><desc>Finish
Images:2185
First:01.09.2024 12:42:44
Last:01.09.2024 13:31:00
Duration:00:48:16
</desc></wpt>
<wpt lat = "51.48273" lon = "-0.00986"><name>AGF2</name><desc>Finish
Images:1306
First:01.09.2024 12:44:06
Last:01.09.2024 13:31:13
Duration:00:47:07
</desc></wpt>
<wpt lat = "51.48273" lon = "-0.00986"><name>AGU1</name><desc>Finish
Images:14617
First:01.09.2024 06:48:02
Last:01.09.2024 14:31:05
Duration:07:43:03
</desc></wpt>
<wpt lat = "51.48273" lon = "-0.00986"><name>APARO1</name><desc>Finish
Images:10344
First:01.09.2024 09:39:14
Last:01.09.2024 12:44:07
Duration:03:04:53
</desc></wpt>
<wpt lat = "51.48273" lon = "-0.00986"><name>APARO1LS1</name><desc>Finish
Images:12788
First:01.09.2024 07:44:02
Last:01.09.2024 13:51:54
Duration:06:07:52
</desc></wpt>
<wpt lat = "51.48273" lon = "-0.00986"><name>APARO1LS2</name><desc>Finish
Images:13692
First:01.09.2024 07:45:39
Last:01.09.2024 13:55:13
Duration:06:09:34
</desc></wpt>
<wpt lat = "51.48273" lon = "-0.00986"><name>APARO1LS3</name><desc>Finish
Images:15459
First:01.09.2024 09:37:09
Last:01.09.2024 14:08:36
Duration:04:31:27
</desc></wpt>
<wpt lat = "51.48273" lon = "-0.00986"><name>ASHAK2</name><desc>Finish
Images:56
First:01.09.2024 13:55:02
Last:01.09.2024 14:31:29
Duration:00:36:27
</desc></wpt>
<wpt lat = "51.48273" lon = "-0.00986"><name>ASTEM2</name><desc>Finish
Images:117
First:01.09.2024 13:54:53
Last:01.09.2024 14:24:35
Duration:00:29:42
</desc></wpt>
<wpt lat = "51.48273" lon = "-0.00986"><name>BJOEM1</name><desc>Finish
Images:12655
First:01.09.2024 09:12:35
Last:01.09.2024 14:31:01
Duration:05:18:26
</desc></wpt>
<wpt lat = "51.49835" lon = "-0.06882"><name>ACMU1</name><desc>Jamaica Rd - Km 13.1
Images:10787
First:01.09.2024 07:20:52
Last:01.09.2024 12:43:20
Duration:05:22:28
</desc></wpt>
<wpt lat = "51.49835" lon = "-0.06882"><name>ACMU1LS1</name><desc>Jamaica Rd - Km 13.1
Images:4982
First:01.09.2024 09:08:16
Last:01.09.2024 11:58:57
Duration:02:50:41
</desc></wpt>
<wpt lat = "51.49835" lon = "-0.06882"><name>ADEPE1</name><desc>Jamaica Rd - Km 13.1
Images:9710
First:01.09.2024 08:53:18
Last:01.09.2024 12:43:16
Duration:03:49:58
</desc></wpt>
<wpt lat = "51.48273" lon = "-0.00985"><name>BMADO1</name><desc>Just before Finish
Images:30913
First:01.09.2024 08:28:59
Last:01.09.2024 14:30:30
Duration:06:01:31
</desc></wpt>
<wpt lat = "51.48273" lon = "-0.00985"><name>BQVT1</name><desc>Just before Finish
Images:19782
First:01.09.2024 09:14:52
Last:01.09.2024 14:26:31
Duration:05:11:39
</desc></wpt>
<wpt lat = "51.48273" lon = "-0.00985"><name>BTOMY2</name><desc>Just before Finish
Images:593
First:01.09.2024 13:33:09
Last:01.09.2024 14:30:26
Duration:00:57:17
</desc></wpt>
<wpt lat = "51.4828" lon = "-0.00919"><name>AAMK1</name><desc>Medals
Images:6542
First:01.09.2024 09:03:30
Last:01.09.2024 14:36:15
Duration:05:32:45
</desc></wpt>
<wpt lat = "51.4828" lon = "-0.00919"><name>ALRE1</name><desc>Medals
Images:5022
First:01.09.2024 07:51:10
Last:01.09.2024 14:30:20
Duration:06:39:10
</desc></wpt>
<wpt lat = "51.4828" lon = "-0.00919"><name>ASESA1</name><desc>Medals
Images:16436
First:01.09.2024 08:28:38
Last:01.09.2024 14:08:36
Duration:05:39:58
</desc></wpt>
<wpt lat = "51.4828" lon = "-0.00919"><name>ASTN1</name><desc>Medals
Images:20187
First:01.09.2024 08:34:48
Last:01.09.2024 14:09:52
Duration:05:35:04
</desc></wpt>
<wpt lat = "51.50529" lon = "-0.07554"><name>BBKO1</name><desc>Tower Bridge - Km 12
Images:21877
First:01.09.2024 08:28:05
Last:01.09.2024 12:08:57
Duration:03:40:52
</desc></wpt>
<wpt lat = "51.50529" lon = "-0.07554"><name>BBKO1DRONE1</name><desc>Tower Bridge - Km 12
Images:13
First:01.09.2024 06:37:50
Last:01.09.2024 06:45:04
Duration:00:07:14
</desc></wpt>
<wpt lat = "51.50529" lon = "-0.07554"><name>BBKO1LS1</name><desc>Tower Bridge - Km 12
Images:3142
First:01.09.2024 08:46:25
Last:01.09.2024 11:54:09
Duration:03:07:44
</desc></wpt>
<wpt lat = "51.50529" lon = "-0.07554"><name>BBKO1LS2</name><desc>Tower Bridge - Km 12
Images:4718
First:01.09.2024 09:14:26
Last:01.09.2024 11:54:14
Duration:02:39:48
</desc></wpt>
<wpt lat = "51.50529" lon = "-0.07554"><name>BCH1</name><desc>Tower Bridge - Km 12
Images:35654
First:01.09.2024 07:50:14
Last:01.09.2024 12:13:38
Duration:04:23:24
</desc></wpt>
<wpt lat = "51.50529" lon = "-0.07554"><name>BCH1LS1</name><desc>Tower Bridge - Km 12
Images:4634
First:01.09.2024 09:12:36
Last:01.09.2024 11:47:02
Duration:02:34:26
</desc></wpt>
<wpt lat = "51.50529" lon = "-0.07554"><name>BJIHI1</name><desc>Tower Bridge - Km 12
Images:9220
First:01.09.2024 07:55:07
Last:01.09.2024 12:29:13
Duration:04:34:06
</desc></wpt>
<wpt lat = "51.50529" lon = "-0.07554"><name>BJIHI1LS1</name><desc>Tower Bridge - Km 12
Images:8192
First:01.09.2024 09:16:46
Last:01.09.2024 11:39:17
Duration:02:22:31
</desc></wpt>
<wpt lat = "51.50529" lon = "-0.07554"><name>BKMIN1</name><desc>Tower Bridge - Km 12
Images:2785
First:01.09.2024 08:34:19
Last:01.09.2024 12:16:48
Duration:03:42:29
</desc></wpt>
<wpt lat = "51.50529" lon = "-0.07554"><name>BSALA1</name><desc>Tower Bridge - Km 12
Images:22477
First:01.09.2024 07:59:02
Last:01.09.2024 12:31:20
Duration:04:32:18
</desc></wpt>
<wpt lat = "51.50529" lon = "-0.07554"><name>BSALA1LS1</name><desc>Tower Bridge - Km 12
Images:4617
First:01.09.2024 09:01:57
Last:01.09.2024 11:54:47
Duration:02:52:50
</desc></wpt>
<wpt lat = "51.50529" lon = "-0.07554"><name>BTOMY1</name><desc>Tower Bridge - Km 12
Images:29071
First:01.09.2024 08:08:32
Last:01.09.2024 12:30:35
Duration:04:22:03
</desc></wpt>
<wpt lat = "51.50529" lon = "-0.07554"><name>BTOMY1LS1</name><desc>Tower Bridge - Km 12
Images:9414
First:01.09.2024 08:01:41
Last:01.09.2024 11:51:52
Duration:03:50:11
</desc></wpt>
<wpt lat = "51.50725" lon = "-0.07425"><name>ASHAK1</name><desc>Tower of London - Km 11.7
Images:4620
First:01.09.2024 08:14:36
Last:01.09.2024 12:15:26
Duration:04:00:50
</desc></wpt>
<wpt lat = "51.50725" lon = "-0.07425"><name>ASTEM1</name><desc>Tower of London - Km 11.7
Images:19323
First:01.09.2024 08:05:45
Last:01.09.2024 12:39:22
Duration:04:33:37
</desc></wpt>
<wpt lat = "51.50725" lon = "-0.07425"><name>ASTEM1LS1</name><desc>Tower of London - Km 11.7
Images:4779
First:01.09.2024 08:07:31
Last:01.09.2024 11:52:53
Duration:03:45:22
</desc></wpt>
</gpx>