<?xml version='1.0' encoding='utf-8'?>
<gpx version="1.1" creator="Infofile GPX Generator">
<wpt lat = "50.47285" lon = "5.63288"><name>BOT1</name><desc>15.0 km
Images:3377
First:19.04.2024 15:56:10
Last:20.04.2024 11:30:35
Duration:19:34:25
</desc></wpt>
<wpt lat = "50.47605" lon = "5.63472"><name>BMB1</name><desc>16.0 km
Images:2433
First:20.04.2024 06:05:31
Last:20.04.2024 11:16:18
Duration:05:10:47
</desc></wpt>
<wpt lat = "50.47369" lon = "5.63221"><name>BMW1</name><desc>17.0 km
Images:1591
First:20.04.2024 04:46:31
Last:20.04.2024 10:25:50
Duration:05:39:19
</desc></wpt>
<wpt lat = "50.45989" lon = "5.67738"><name>ATID1</name><desc>24.0 km /99km/199km -Niaster
Images:12675
First:20.04.2024 08:44:28
Last:20.04.2024 17:26:07
Duration:08:41:39
</desc></wpt>
<wpt lat = "50.45989" lon = "5.67738"><name>ATID1LS1</name><desc>24.0 km /99km/199km -Niaster
Images:10905
First:20.04.2024 08:31:50
Last:20.04.2024 17:34:40
Duration:09:02:50
</desc></wpt>
<wpt lat = "50.45531" lon = "5.6769"><name>AACCA1</name><desc>25.0 km /100km/200km -Niaster
Images:15573
First:20.04.2024 09:05:02
Last:20.04.2024 17:31:22
Duration:08:26:20
</desc></wpt>
<wpt lat = "50.45309" lon = "5.68027"><name>APBO1</name><desc>25.0 km /100km/200km -Niaster
Images:9471
First:19.04.2024 17:03:07
Last:20.04.2024 17:34:29
Duration:1.00:31:22
</desc></wpt>
<wpt lat = "50.45371" lon = "5.68537"><name>AYT1</name><desc>26.0 km /101km/201km -Niaster
Images:27268
First:20.04.2024 10:13:15
Last:20.04.2024 17:41:58
Duration:07:28:43
</desc></wpt>
<wpt lat = "50.45371" lon = "5.68537"><name>AYT1LS1</name><desc>26.0 km /101km/201km -Niaster
Images:5879
First:20.04.2024 10:03:59
Last:20.04.2024 16:17:25
Duration:06:13:26
</desc></wpt>
<wpt lat = "50.45371" lon = "5.68537"><name>AYT1LS2</name><desc>26.0 km /101km/201km -Niaster
Images:6817
First:20.04.2024 10:07:33
Last:20.04.2024 17:40:35
Duration:07:33:02
</desc></wpt>
<wpt lat = "50.45551" lon = "5.69370"><name>ACD1</name><desc>27.0 km /102km/202km -Niaster
Images:21782
First:20.04.2024 10:35:57
Last:20.04.2024 17:33:03
Duration:06:57:06
</desc></wpt>
<wpt lat = "50.45551" lon = "5.69370"><name>ACD1LS1</name><desc>27.0 km /102km/202km -Niaster
Images:5863
First:20.04.2024 10:30:33
Last:20.04.2024 16:52:15
Duration:06:21:42
</desc></wpt>
<wpt lat = "50.45551" lon = "5.69370"><name>ACD1LS2</name><desc>27.0 km /102km/202km -Niaster
Images:6245
First:20.04.2024 10:22:15
Last:20.04.2024 17:35:41
Duration:07:13:26
</desc></wpt>
<wpt lat = "50.49147" lon = "5.70166"><name>BSJA1LS1</name><desc>39.5 km /105.5km/213.5km Cote de la Redout
Images:11447
First:24.04.2024 09:47:16
Last:24.04.2024 18:33:09
Duration:08:45:53
</desc></wpt>
<wpt lat = "50.49147" lon = "5.70166"><name>BSJA1LS2</name><desc>39.5 km /105.5km/213.5km Cote de la Redout
Images:7929
First:01.01.0001 23:00:00
Last:20.04.2024 18:11:12
Duration:738994.19:11:12
</desc></wpt>
<wpt lat = "50.49096" lon = "5.70361"><name>BSJA1</name><desc>39.5 km /105km/213km Cote de la Redout
Images:24936
First:20.04.2024 08:34:58
Last:20.04.2024 18:44:20
Duration:10:09:22
</desc></wpt>
<wpt lat = "50.49224" lon = "5.70027"><name>BHM1</name><desc>40.0 km /105km/213km Cote de la Redout
Images:15151
First:19.04.2024 18:01:25
Last:20.04.2024 18:52:43
Duration:1.00:51:18
</desc></wpt>
<wpt lat = "50.49224" lon = "5.70027"><name>BHM1LS1</name><desc>40.0 km /105km/213km Cote de la Redout
Images:9389
First:20.04.2024 08:56:11
Last:20.04.2024 17:09:44
Duration:08:13:33
</desc></wpt>
<wpt lat = "50.49224" lon = "5.70027"><name>BHM1LS2</name><desc>40.0 km /105km/213km Cote de la Redout
Images:10587
First:20.04.2024 08:51:15
Last:20.04.2024 18:30:13
Duration:09:38:58
</desc></wpt>
<wpt lat = "50.49413" lon = "5.70196"><name>BANR1</name><desc>40.5 km /105km/213km Cote de la Redout
Images:30998
First:20.04.2024 08:43:16
Last:20.04.2024 18:53:32
Duration:10:10:16
</desc></wpt>
<wpt lat = "50.28745" lon = "5.48859"><name>CDRI1</name><desc>50,0 km
Images:8796
First:20.04.2024 08:55:39
Last:20.04.2024 10:49:48
Duration:01:54:09
</desc></wpt>
<wpt lat = "50.28745" lon = "5.48859"><name>CDRI1LS1</name><desc>50,0 km
Images:3085
First:20.04.2024 08:20:57
Last:20.04.2024 12:25:24
Duration:04:04:27
</desc></wpt>
<wpt lat = "50.28745" lon = "5.48859"><name>CDRI1LS3</name><desc>50,0 km
Images:5893
First:20.04.2024 08:43:34
Last:20.04.2024 10:56:15
Duration:02:12:41
</desc></wpt>
<wpt lat = "50.28737" lon = "5.49224"><name>CMAW1</name><desc>51,0 km
Images:9315
First:20.04.2024 08:47:01
Last:20.04.2024 11:01:20
Duration:02:14:19
</desc></wpt>
<wpt lat = "50.28737" lon = "5.49224"><name>CMAW1DRONE1</name><desc>51,0 km
Images:104
First:20.04.2024 09:44:11
Last:20.04.2024 16:25:25
Duration:06:41:14
</desc></wpt>
<wpt lat = "50.28737" lon = "5.49224"><name>CMAW1LS1</name><desc>51,0 km
Images:4143
First:20.04.2024 08:15:02
Last:20.04.2024 11:07:57
Duration:02:52:55
</desc></wpt>
<wpt lat = "50.28737" lon = "5.49224"><name>CMAW1LS2</name><desc>51,0 km
Images:3309
First:20.04.2024 08:24:29
Last:20.04.2024 11:08:13
Duration:02:43:44
</desc></wpt>
<wpt lat = "50.28801" lon = "5.49627"><name>CNWO1</name><desc>52,0 km
Images:4892
First:20.04.2024 08:55:49
Last:20.04.2024 10:54:51
Duration:01:59:02
</desc></wpt>
<wpt lat = "50.28801" lon = "5.49627"><name>CNWO1LS1</name><desc>52,0 km
Images:1647
First:20.04.2024 08:37:51
Last:20.04.2024 12:39:59
Duration:04:02:08
</desc></wpt>
<wpt lat = "50.28801" lon = "5.49627"><name>CNWO1LS2</name><desc>52,0 km
Images:3839
First:20.04.2024 08:42:27
Last:20.04.2024 11:01:24
Duration:02:18:57
</desc></wpt>
<wpt lat = "50.55031" lon = "5.57382"><name>BOT2</name><desc>54.0 km /129km/229km Cote de la Roche aux faucons
Images:20484
First:20.04.2024 11:17:12
Last:20.04.2024 19:13:44
Duration:07:56:32
</desc></wpt>
<wpt lat = "50.55362" lon = "5.55842"><name>BMW2</name><desc>55.0 km /130km/230km Cote de la Roche aux faucons
Images:11725
First:20.04.2024 10:36:51
Last:20.04.2024 19:18:14
Duration:08:41:23
</desc></wpt>
<wpt lat = "50.55287" lon = "5.56933"><name>BMB2</name><desc>56.0 km /131km/231km Cote de la Roche aux faucons
Images:7975
First:20.04.2024 11:19:14
Last:20.04.2024 18:17:14
Duration:06:58:00
</desc></wpt>
<wpt lat = "50.53533" lon = "5.70923"><name>CMAW2</name><desc>75,0 km A la Basse Goblet /81 141/147 249/255
Images:10808
First:20.04.2024 13:03:13
Last:20.04.2024 19:25:41
Duration:06:22:28
</desc></wpt>
<wpt lat = "50.53533" lon = "5.70923"><name>CMAW2LS1</name><desc>75,0 km A la Basse Goblet /81 141/147 249/255
Images:11591
First:20.04.2024 12:18:49
Last:20.04.2024 18:42:17
Duration:06:23:28
</desc></wpt>
<wpt lat = "50.53533" lon = "5.70923"><name>CMAW2LS2</name><desc>75,0 km A la Basse Goblet /81 141/147 249/255
Images:7488
First:20.04.2024 12:28:44
Last:20.04.2024 19:28:01
Duration:06:59:17
</desc></wpt>
<wpt lat = "50.53194" lon = "5.70649"><name>CNWO2</name><desc>77,0 km A la Basse Goblet /81 143/147 251/255
Images:10370
First:20.04.2024 13:27:06
Last:20.04.2024 19:31:47
Duration:06:04:41
</desc></wpt>
<wpt lat = "50.54372" lon = "5.68547"><name>CDRI2</name><desc>78,0 km A la Basse Goblet /80 148/150 248/250
Images:17852
First:20.04.2024 13:36:42
Last:20.04.2024 18:40:41
Duration:05:03:59
</desc></wpt>
<wpt lat = "50.54372" lon = "5.68547"><name>CDRI2LS1</name><desc>78,0 km A la Basse Goblet /80 148/150 248/250
Images:9095
First:20.04.2024 12:25:48
Last:20.04.2024 18:52:49
Duration:06:27:01
</desc></wpt>
<wpt lat = "50.54372" lon = "5.68547"><name>CDRI2LS2</name><desc>78,0 km A la Basse Goblet /80 148/150 248/250
Images:19429
First:20.04.2024 12:21:58
Last:20.04.2024 19:26:43
Duration:07:04:45
</desc></wpt>
<wpt lat = "50.53963" lon = "5.74541"><name>CBAR2</name><desc>Finish
Images:6360
First:20.04.2024 14:16:38
Last:20.04.2024 20:05:36
Duration:05:48:58
</desc></wpt>
<wpt lat = "50.49224" lon = "5.70027"><name>BHM1DRONE1</name><desc>Impressions / Pano
Images:5
First:20.04.2024 12:15:23
Last:20.04.2024 12:16:16
Duration:00:00:53
</desc></wpt>
<wpt lat = "50.53963" lon = "5.74541"><name>CBAR1</name><desc>Start
Images:6632
First:19.04.2024 18:21:34
Last:20.04.2024 14:16:37
Duration:19:55:03
</desc></wpt>
</gpx>