<?xml version='1.0' encoding='utf-8'?>
<gpx version="1.1" creator="Infofile GPX Generator">
<wpt lat = "52.51425" lon = "13.34606"><name>BDAR1</name><desc>0,9 km Siegessäule
Images:10642
First:29.09.2024 08:57:55
Last:29.09.2024 11:04:15
Duration:02:06:20
</desc></wpt>
<wpt lat = "52.51425" lon = "13.34606"><name>BDAR1LS1</name><desc>0,9 km Siegessäule
Images:4951
First:29.09.2024 08:38:40
Last:29.09.2024 11:05:49
Duration:02:27:09
</desc></wpt>
<wpt lat = "52.51425" lon = "13.34606"><name>DAGA1</name><desc>0,9 km Siegessäule
Images:12846
First:29.09.2024 08:50:15
Last:29.09.2024 11:04:58
Duration:02:14:43
</desc></wpt>
<wpt lat = "52.51425" lon = "13.34606"><name>DAGA1LS1</name><desc>0,9 km Siegessäule
Images:4764
First:29.09.2024 08:10:48
Last:29.09.2024 11:05:48
Duration:02:55:00
</desc></wpt>
<wpt lat = "52.51425" lon = "13.34606"><name>DAGA1LS2</name><desc>0,9 km Siegessäule
Images:2526
First:29.09.2024 08:42:25
Last:29.09.2024 11:05:48
Duration:02:23:23
</desc></wpt>
<wpt lat = "52.51425" lon = "13.34606"><name>ECF1</name><desc>0,9 km Siegessäule
Images:14394
First:29.09.2024 08:39:25
Last:29.09.2024 18:10:41
Duration:09:31:16
</desc></wpt>
<wpt lat = "52.51813" lon = "13.42799"><name>AFDC1</name><desc>12,1 km Strausberger Platz
Images:19220
First:29.09.2024 08:57:43
Last:29.09.2024 12:48:38
Duration:03:50:55
</desc></wpt>
<wpt lat = "52.51813" lon = "13.42799"><name>DCRIC1</name><desc>12,1 km Strausberger Platz
Images:11811
First:29.09.2024 14:14:01
Last:29.09.2024 18:07:35
Duration:03:53:34
</desc></wpt>
<wpt lat = "52.48421" lon = "13.34502"><name>BGEG1</name><desc>23,3 km Townhall Schöneberg / Kennedy's balcony
Images:28511
First:29.09.2024 08:18:36
Last:29.09.2024 14:42:23
Duration:06:23:47
</desc></wpt>
<wpt lat = "52.48421" lon = "13.34502"><name>BMAXW1</name><desc>23,3 km Townhall Schöneberg / Kennedy's balcony
Images:11694
First:29.09.2024 09:12:52
Last:29.09.2024 14:20:55
Duration:05:08:03
</desc></wpt>
<wpt lat = "52.49322" lon = "13.36824"><name>ABL1</name><desc>29,0 km Graffiti bridges
Images:11630
First:29.09.2024 08:29:50
Last:29.09.2024 14:13:16
Duration:05:43:26
</desc></wpt>
<wpt lat = "52.49322" lon = "13.36824"><name>ALUKS1</name><desc>29,0 km Graffiti bridges
Images:9354
First:29.09.2024 08:49:27
Last:29.09.2024 14:13:21
Duration:05:23:54
</desc></wpt>
<wpt lat = "52.50369" lon = "13.33127"><name>EGJKD1</name><desc>34,7 km Drone Kurfürstendamm/Café Kranzler
Images:6463
First:29.09.2024 11:00:05
Last:29.09.2024 16:23:11
Duration:05:23:06
</desc></wpt>
<wpt lat = "52.50369" lon = "13.33127"><name>EDAB1</name><desc>34,7 km Kurfürstendamm / Cafe Kranzler
Images:4401
First:29.09.2024 09:27:08
Last:29.09.2024 16:12:30
Duration:06:45:22
</desc></wpt>
<wpt lat = "52.50369" lon = "13.33127"><name>CYTS1</name><desc>34,7 km Kurfürstendamm/Café Kranzler
Images:21966
First:29.09.2024 08:29:04
Last:29.09.2024 16:38:01
Duration:08:08:57
</desc></wpt>
<wpt lat = "52.50395" lon = "13.33696"><name>EGJGK1</name><desc>35,2 km Drone Kaiser-Wilhelm-Gedächtniskirche
Images:6699
First:29.09.2024 10:40:55
Last:29.09.2024 16:30:12
Duration:05:49:17
</desc></wpt>
<wpt lat = "52.50395" lon = "13.33696"><name>CMPU1</name><desc>35,2 km Kaiser-Wilhelm-Gedächtniskirche
Images:16792
First:27.09.2024 10:54:14
Last:29.09.2024 16:45:29
Duration:2.05:51:15
</desc></wpt>
<wpt lat = "52.4992" lon = "13.35621"><name>ARET1</name><desc>36,5 km  Nollendorf Platz
Images:20331
First:29.09.2024 08:35:58
Last:29.09.2024 16:48:29
Duration:08:12:31
</desc></wpt>
<wpt lat = "52.5096" lon = "13.37866"><name>CFAW1</name><desc>38,8 km Potsdamer Platz
Images:11804
First:29.09.2024 07:50:20
Last:29.09.2024 17:28:34
Duration:09:38:14
</desc></wpt>
<wpt lat = "52.5096" lon = "13.37866"><name>CJOWE1</name><desc>38,8 km Potsdamer Platz
Images:25581
First:29.09.2024 09:07:37
Last:29.09.2024 17:29:14
Duration:08:21:37
</desc></wpt>
<wpt lat = "52.5096" lon = "13.37866"><name>CRJ1</name><desc>38,8 km Potsdamer Platz
Images:38208
First:29.09.2024 09:50:25
Last:29.09.2024 17:26:57
Duration:07:36:32
</desc></wpt>
<wpt lat = "52.5096" lon = "13.37866"><name>CRJ1LS1</name><desc>38,8 km Potsdamer Platz
Images:5015
First:29.09.2024 11:08:12
Last:29.09.2024 17:09:58
Duration:06:01:46
</desc></wpt>
<wpt lat = "52.50984" lon = "13.38172"><name>BPHI1</name><desc>39,2 km  Bundesrat
Images:4375
First:29.09.2024 12:37:26
Last:29.09.2024 17:27:04
Duration:04:49:38
</desc></wpt>
<wpt lat = "52.50984" lon = "13.38172"><name>CARTA2</name><desc>39,2 km Bundesrat
Images:8609
First:29.09.2024 12:52:40
Last:29.09.2024 17:28:28
Duration:04:35:48
</desc></wpt>
<wpt lat = "52.50984" lon = "13.38172"><name>EOAD1</name><desc>39,2 km Bundesrat
Images:24786
First:29.09.2024 09:20:28
Last:29.09.2024 17:28:54
Duration:08:08:26
</desc></wpt>
<wpt lat = "52.5096" lon = "13.37866"><name>AJMAR1</name><desc>40,4 km  Potsdamer Platz
Images:13927
First:29.09.2024 09:11:32
Last:29.09.2024 17:27:31
Duration:08:15:59
</desc></wpt>
<wpt lat = "52.5096" lon = "13.37866"><name>EADRE2</name><desc>40,4 km Deutscher Dom
Images:16323
First:29.09.2024 12:28:19
Last:29.09.2024 17:52:15
Duration:05:23:56
</desc></wpt>
<wpt lat = "52.51302" lon = "13.39338"><name>EDABT1</name><desc>40,4 km Deutscher Dom
Images:11613
First:29.09.2024 09:23:05
Last:29.09.2024 17:51:59
Duration:08:28:54
</desc></wpt>
<wpt lat = "52.51302" lon = "13.39338"><name>EDDT1</name><desc>40,4 km Deutscher Dom
Images:29012
First:29.09.2024 09:24:00
Last:29.09.2024 17:51:59
Duration:08:27:59
</desc></wpt>
<wpt lat = "52.51406" lon = "13.39318"><name>ADV1</name><desc>40,6 km Konzerthaus Berlin/Gendarmenmarkt
Images:15943
First:29.09.2024 09:23:29
Last:29.09.2024 17:28:05
Duration:08:04:36
</desc></wpt>
<wpt lat = "52.51406" lon = "13.39318"><name>BBL2</name><desc>40,6 km Konzerthaus Berlin/Gendarmenmarkt
Images:8216
First:29.09.2024 12:49:06
Last:29.09.2024 17:53:51
Duration:05:04:45
</desc></wpt>
<wpt lat = "52.51406" lon = "13.39318"><name>BBL2LS1</name><desc>40,6 km Konzerthaus Berlin/Gendarmenmarkt
Images:5143
First:29.09.2024 12:46:36
Last:29.09.2024 17:06:36
Duration:04:20:00
</desc></wpt>
<wpt lat = "52.51406" lon = "13.39318"><name>BJKM1</name><desc>40,6 km Konzerthaus Berlin/Gendarmenmarkt
Images:36174
First:29.09.2024 10:44:22
Last:29.09.2024 15:57:24
Duration:05:13:02
</desc></wpt>
<wpt lat = "52.51406" lon = "13.39318"><name>CTHS1</name><desc>40,6 km Konzerthaus Berlin/Gendarmenmarkt
Images:128665
First:29.09.2024 10:00:51
Last:29.09.2024 17:53:04
Duration:07:52:13
</desc></wpt>
<wpt lat = "52.51406" lon = "13.39318"><name>DLIZ1</name><desc>40,6 km Konzerthaus Berlin/Gendarmenmarkt
Images:18251
First:29.09.2024 09:46:02
Last:29.09.2024 17:53:08
Duration:08:07:06
</desc></wpt>
<wpt lat = "52.51406" lon = "13.39318"><name>DLIZ1LS1</name><desc>40,6 km Konzerthaus Berlin/Gendarmenmarkt
Images:24001
First:29.09.2024 08:16:37
Last:29.09.2024 18:09:56
Duration:09:53:19
</desc></wpt>
<wpt lat = "52.51406" lon = "13.39318"><name>EMLO1</name><desc>40,6 km Konzerthaus Berlin/Gendarmenmarkt
Images:5918
First:29.09.2024 08:37:46
Last:29.09.2024 17:53:41
Duration:09:15:55
</desc></wpt>
<wpt lat = "52.51406" lon = "13.39318"><name>FTHS1LS1</name><desc>40,6 km Konzerthaus Berlin/Gendarmenmarkt
Images:12353
First:29.09.2024 09:52:42
Last:29.09.2024 17:55:11
Duration:08:02:29
</desc></wpt>
<wpt lat = "52.51406" lon = "13.39318"><name>FTHS1LS2</name><desc>40,6 km Konzerthaus Berlin/Gendarmenmarkt
Images:8088
First:29.09.2024 09:54:30
Last:29.09.2024 17:55:12
Duration:08:00:42
</desc></wpt>
<wpt lat = "52.51494" lon = "13.39293"><name>ABAK2</name><desc>40,8 km Französischer Dom
Images:1985
First:29.09.2024 12:49:58
Last:29.09.2024 17:48:30
Duration:04:58:32
</desc></wpt>
<wpt lat = "52.51494" lon = "13.39293"><name>EDES1</name><desc>40,8 km Französischer Dom
Images:7579
First:29.09.2024 10:03:25
Last:29.09.2024 17:55:51
Duration:07:52:26
</desc></wpt>
<wpt lat = "52.51494" lon = "13.39293"><name>EEPF1</name><desc>40,8 km Französischer Dom
Images:8832
First:29.09.2024 08:28:30
Last:29.09.2024 17:29:00
Duration:09:00:30
</desc></wpt>
<wpt lat = "52.51652" lon = "13.3839"><name>ABIL1</name><desc>41,4 km Unter den Linden
Images:8133
First:29.09.2024 09:37:41
Last:29.09.2024 18:05:46
Duration:08:28:05
</desc></wpt>
<wpt lat = "52.51652" lon = "13.3839"><name>AFDC2</name><desc>41,4 km Unter den Linden
Images:3287
First:29.09.2024 13:47:55
Last:29.09.2024 17:08:09
Duration:03:20:14
</desc></wpt>
<wpt lat = "52.51652" lon = "13.3839"><name>AHV1</name><desc>41,4 km Unter den Linden
Images:19740
First:29.09.2024 09:07:25
Last:29.09.2024 18:11:18
Duration:09:03:53
</desc></wpt>
<wpt lat = "52.51652" lon = "13.3839"><name>AJZE1</name><desc>41,4 km Unter den Linden
Images:16542
First:29.09.2024 07:49:13
Last:29.09.2024 18:02:37
Duration:10:13:24
</desc></wpt>
<wpt lat = "52.51652" lon = "13.3839"><name>AJZE1LS1</name><desc>41,4 km Unter den Linden
Images:8016
First:29.09.2024 09:54:12
Last:29.09.2024 17:26:59
Duration:07:32:47
</desc></wpt>
<wpt lat = "52.51629" lon = "13.37836"><name>AREM1</name><desc>41,8 km Pariser Platz/Hotel Adlon
Images:35451
First:29.09.2024 09:46:52
Last:29.09.2024 18:10:04
Duration:08:23:12
</desc></wpt>
<wpt lat = "52.51629" lon = "13.37836"><name>AREM1LS1</name><desc>41,8 km Pariser Platz/Hotel Adlon
Images:1008
First:27.09.2024 20:15:03
Last:29.09.2024 12:32:12
Duration:1.16:17:09
</desc></wpt>
<wpt lat = "52.51629" lon = "13.37836"><name>AREM1LS2</name><desc>41,8 km Pariser Platz/Hotel Adlon
Images:5588
First:29.09.2024 09:25:36
Last:29.09.2024 16:16:18
Duration:06:50:42
</desc></wpt>
<wpt lat = "52.51629" lon = "13.37836"><name>BNU1</name><desc>41,8 km Pariser Platz/Hotel Adlon
Images:26751
First:29.09.2024 09:25:08
Last:29.09.2024 17:57:04
Duration:08:31:56
</desc></wpt>
<wpt lat = "52.51629" lon = "13.37836"><name>BNU1LS1</name><desc>41,8 km Pariser Platz/Hotel Adlon
Images:6204
First:29.09.2024 11:17:16
Last:29.09.2024 17:59:05
Duration:06:41:49
</desc></wpt>
<wpt lat = "52.51629" lon = "13.37836"><name>DAGA2</name><desc>41,8 km Pariser Platz/Hotel Adlon
Images:23842
First:29.09.2024 12:44:22
Last:29.09.2024 18:10:11
Duration:05:25:49
</desc></wpt>
<wpt lat = "52.51629" lon = "13.37836"><name>DAGA2LS1</name><desc>41,8 km Pariser Platz/Hotel Adlon
Images:17856
First:29.09.2024 12:36:31
Last:29.09.2024 18:09:16
Duration:05:32:45
</desc></wpt>
<wpt lat = "52.51629" lon = "13.37836"><name>DAGA2LS2</name><desc>41,8 km Pariser Platz/Hotel Adlon
Images:5522
First:29.09.2024 12:37:18
Last:29.09.2024 17:04:09
Duration:04:26:51
</desc></wpt>
<wpt lat = "52.51629" lon = "13.37836"><name>ECF2</name><desc>41,8 km Pariser Platz/Hotel Adlon
Images:10198
First:29.09.2024 11:18:16
Last:29.09.2024 15:26:12
Duration:04:07:56
</desc></wpt>
<wpt lat = "52.51627" lon = "13.37689"><name>AMDO1</name><desc>41,9 km Brandenburger Tor
Images:19955
First:29.09.2024 15:03:25
Last:29.09.2024 18:11:02
Duration:03:07:37
</desc></wpt>
<wpt lat = "52.51627" lon = "13.37689"><name>AMDO1LS1</name><desc>41,9 km Brandenburger Tor
Images:14560
First:29.09.2024 08:50:28
Last:29.09.2024 17:55:12
Duration:09:04:44
</desc></wpt>
<wpt lat = "52.51627" lon = "13.37689"><name>AMDO1LS2</name><desc>41,9 km Brandenburger Tor
Images:31131
First:29.09.2024 08:29:05
Last:29.09.2024 15:20:00
Duration:06:50:55
</desc></wpt>
<wpt lat = "52.51627" lon = "13.37689"><name>APMA1</name><desc>41,9 km Brandenburger Tor
Images:36731
First:01.01.0001 23:00:00
Last:29.09.2024 17:45:52
Duration:739156.18:45:52
</desc></wpt>
<wpt lat = "52.51627" lon = "13.37689"><name>BHT1</name><desc>41,9 km Brandenburger Tor
Images:36207
First:29.09.2024 09:10:42
Last:29.09.2024 18:07:43
Duration:08:57:01
</desc></wpt>
<wpt lat = "52.51627" lon = "13.37689"><name>DHV1LS1</name><desc>41,9 km Brandenburger Tor
Images:9440
First:29.09.2024 08:55:39
Last:29.09.2024 17:54:17
Duration:08:58:38
</desc></wpt>
<wpt lat = "52.51627" lon = "13.37689"><name>DHV1LS2</name><desc>41,9 km Brandenburger Tor
Images:12568
First:29.09.2024 10:55:52
Last:29.09.2024 17:57:49
Duration:07:01:57
</desc></wpt>
<wpt lat = "52.51627" lon = "13.37689"><name>DMIH1</name><desc>41,9 km Brandenburger Tor
Images:30929
First:29.09.2024 08:30:29
Last:29.09.2024 18:07:36
Duration:09:37:07
</desc></wpt>
<wpt lat = "52.51627" lon = "13.37689"><name>DMIH1LS1</name><desc>41,9 km Brandenburger Tor
Images:7977
First:29.09.2024 08:15:17
Last:29.09.2024 18:07:47
Duration:09:52:30
</desc></wpt>
<wpt lat = "52.51627" lon = "13.37689"><name>ECM1</name><desc>41,9 km Brandenburger Tor
Images:17138
First:29.09.2024 08:32:13
Last:29.09.2024 18:10:57
Duration:09:38:44
</desc></wpt>
<wpt lat = "52.51627" lon = "13.37689"><name>ECM1LS1</name><desc>41,9 km Brandenburger Tor
Images:10509
First:29.09.2024 10:31:34
Last:29.09.2024 17:36:02
Duration:07:04:28
</desc></wpt>
<wpt lat = "52.51612" lon = "13.37454"><name>BDAR2</name><desc>42,0 km Zieleinlauf / Finish Straight
Images:24192
First:29.09.2024 12:16:35
Last:29.09.2024 18:12:46
Duration:05:56:11
</desc></wpt>
<wpt lat = "52.51612" lon = "13.37454"><name>BDAR2LS1</name><desc>42,0 km Zieleinlauf / Finish Straight
Images:20832
First:29.09.2024 12:08:44
Last:29.09.2024 18:13:35
Duration:06:04:51
</desc></wpt>
<wpt lat = "52.51612" lon = "13.37454"><name>FALN1</name><desc>42,0 km Zieleinlauf / Finish Straight
Images:47195
First:01.01.0001 23:00:00
Last:29.09.2024 18:13:15
Duration:739156.19:13:15
</desc></wpt>
<wpt lat = "52.51612" lon = "13.37454"><name>FALN1LS1</name><desc>42,0 km Zieleinlauf / Finish Straight
Images:31458
First:29.09.2024 11:02:13
Last:29.09.2024 17:55:20
Duration:06:53:07
</desc></wpt>
<wpt lat = "52.51612" lon = "13.37454"><name>FALN1LS2</name><desc>42,0 km Zieleinlauf / Finish Straight
Images:22674
First:29.09.2024 08:19:52
Last:29.09.2024 16:34:35
Duration:08:14:43
</desc></wpt>
<wpt lat = "52.51599" lon = "13.37216"><name>BNH1</name><desc>42,2 km Fotobridge after Finish
Images:23682
First:29.09.2024 07:53:30
Last:29.09.2024 18:12:53
Duration:10:19:23
</desc></wpt>
<wpt lat = "52.51599" lon = "13.37216"><name>DKHR1</name><desc>42,2 km Fotobridge after Finish
Images:21150
First:29.09.2024 09:56:18
Last:29.09.2024 18:16:43
Duration:08:20:25
</desc></wpt>
<wpt lat = "52.51599" lon = "13.37216"><name>DKHR1LS1</name><desc>42,2 km Fotobridge after Finish
Images:9141
First:29.09.2024 11:21:05
Last:29.09.2024 16:40:20
Duration:05:19:15
</desc></wpt>
<wpt lat = "52.5159" lon = "13.37094"><name>BDAN1</name><desc>42,2 km Medals
Images:4394
First:29.09.2024 09:35:10
Last:29.09.2024 18:23:19
Duration:08:48:09
</desc></wpt>
<wpt lat = "52.5159" lon = "13.37094"><name>DALES1</name><desc>42,2 km Medals
Images:8948
First:29.09.2024 06:41:02
Last:29.09.2024 17:43:32
Duration:11:02:30
</desc></wpt>
<wpt lat = "52.5159" lon = "13.37094"><name>DAP1</name><desc>42,2 km Medals
Images:8020
First:29.09.2024 08:33:16
Last:29.09.2024 17:13:36
Duration:08:40:20
</desc></wpt>
<wpt lat = "52.5159" lon = "13.37094"><name>DCHW1</name><desc>42,2 km Medals
Images:6776
First:29.09.2024 07:53:42
Last:29.09.2024 17:20:50
Duration:09:27:08
</desc></wpt>
<wpt lat = "52.5159" lon = "13.37094"><name>DCPI1</name><desc>42,2 km Medals
Images:3010
First:29.09.2024 09:33:47
Last:29.09.2024 18:08:29
Duration:08:34:42
</desc></wpt>
<wpt lat = "52.5159" lon = "13.37094"><name>DRK1</name><desc>42,2 km Medals
Images:5513
First:29.09.2024 10:08:44
Last:29.09.2024 18:11:21
Duration:08:02:37
</desc></wpt>
<wpt lat = "52.5159" lon = "13.37094"><name>EBB1</name><desc>42,2 km Medals
Images:2539
First:29.09.2024 09:10:41
Last:29.09.2024 16:34:21
Duration:07:23:40
</desc></wpt>
<wpt lat = "52.52497" lon = "13.34627"><name>BPHI2</name><desc>5,1 km  Kleiner Tiergarten
Images:3860
First:29.09.2024 08:55:18
Last:29.09.2024 11:42:36
Duration:02:47:18
</desc></wpt>
<wpt lat = "52.51406" lon = "13.39318"><name>CARTA1</name><desc>5,1 km Kleiner Tiergarten
Images:9017
First:29.09.2024 08:51:43
Last:29.09.2024 11:42:18
Duration:02:50:35
</desc></wpt>
<wpt lat = "52.5219" lon = "13.36872"><name>EADRE1</name><desc>6,6 km Moltkebrücke
Images:10006
First:29.09.2024 08:54:44
Last:29.09.2024 11:58:28
Duration:03:03:44
</desc></wpt>
<wpt lat = "52.5219" lon = "13.37598"><name>BBL1</name><desc>7,2 km Kronprinzenbrücke
Images:8982
First:29.09.2024 07:38:11
Last:29.09.2024 12:02:31
Duration:04:24:20
</desc></wpt>
<wpt lat = "52.5219" lon = "13.37598"><name>BBL1LS1</name><desc>7,2 km Kronprinzenbrücke
Images:3366
First:29.09.2024 09:01:14
Last:29.09.2024 12:00:29
Duration:02:59:15
</desc></wpt>
<wpt lat = "52.5219" lon = "13.37598"><name>BJKM2</name><desc>7,2 km Kronprinzenbrücke
Images:17729
First:29.09.2024 07:54:22
Last:29.09.2024 10:43:52
Duration:02:49:30
</desc></wpt>
<wpt lat = "52.5245" lon = "13.3875"><name>ABAK1</name><desc>8,1 km Friedrichstadt-Palast
Images:1106
First:29.09.2024 09:04:37
Last:29.09.2024 12:49:35
Duration:03:44:58
</desc></wpt>
<wpt lat = "52.51601" lon = "13.37257"><name>BMBEN1</name><desc>Finish
Images:43453
First:29.09.2024 08:48:36
Last:29.09.2024 18:02:58
Duration:09:14:22
</desc></wpt>
<wpt lat = "52.51601" lon = "13.37257"><name>EJUT2</name><desc>Finish
Images:17334
First:29.09.2024 11:52:28
Last:29.09.2024 18:14:53
Duration:06:22:25
</desc></wpt>
<wpt lat = "52.51601" lon = "13.37257"><name>ERIS1</name><desc>Finish
Images:31001
First:29.09.2024 11:51:11
Last:29.09.2024 18:15:03
Duration:06:23:52
</desc></wpt>
<wpt lat = "52.51601" lon = "13.37257"><name>ERYS2</name><desc>Finish
Images:18815
First:29.09.2024 11:22:55
Last:29.09.2024 18:17:47
Duration:06:54:52
</desc></wpt>
<wpt lat = "52.51601" lon = "13.37257"><name>ERYS2LS1</name><desc>Finish
Images:20424
First:29.09.2024 11:49:25
Last:29.09.2024 17:58:07
Duration:06:08:42
</desc></wpt>
<wpt lat = "52.51601" lon = "13.37257"><name>FTIM2</name><desc>Finish
Images:24505
First:29.09.2024 12:33:20
Last:29.09.2024 18:15:54
Duration:05:42:34
</desc></wpt>
<wpt lat = "52.51601" lon = "13.37257"><name>FTIM2LS1</name><desc>Finish
Images:5656
First:29.09.2024 11:51:01
Last:29.09.2024 16:32:50
Duration:04:41:49
</desc></wpt>
<wpt lat = "52.51601" lon = "13.37257"><name>GUD2</name><desc>Finish
Images:53362
First:29.09.2024 11:18:45
Last:29.09.2024 18:14:15
Duration:06:55:30
</desc></wpt>
<wpt lat = "52.51601" lon = "13.37257"><name>GUD2LS1</name><desc>Finish
Images:14436
First:29.09.2024 11:54:24
Last:29.09.2024 17:59:15
Duration:06:04:51
</desc></wpt>
<wpt lat = "52.5159" lon = "13.37094"><name>ABK1</name><desc>Medals
Images:14143
First:27.09.2024 21:06:22
Last:29.09.2024 17:34:42
Duration:1.20:28:20
</desc></wpt>
<wpt lat = "52.51521" lon = "13.3602"><name>EJUT1</name><desc>Start
Images:7010
First:29.09.2024 08:33:34
Last:29.09.2024 15:26:12
Duration:06:52:38
</desc></wpt>
<wpt lat = "52.51521" lon = "13.3602"><name>ERISS1</name><desc>Start
Images:4530
First:29.09.2024 08:33:04
Last:29.09.2024 10:56:03
Duration:02:22:59
</desc></wpt>
<wpt lat = "52.51521" lon = "13.3602"><name>ERYS1</name><desc>Start
Images:1417
First:29.09.2024 08:01:29
Last:29.09.2024 11:22:33
Duration:03:21:04
</desc></wpt>
<wpt lat = "52.51521" lon = "13.3602"><name>ERYS1LS1</name><desc>Start
Images:2252
First:29.09.2024 08:28:40
Last:29.09.2024 10:57:52
Duration:02:29:12
</desc></wpt>
<wpt lat = "52.51521" lon = "13.3602"><name>FTIM1</name><desc>Start
Images:1043
First:29.09.2024 08:26:25
Last:29.09.2024 10:59:00
Duration:02:32:35
</desc></wpt>
<wpt lat = "52.51521" lon = "13.3602"><name>GUD1</name><desc>Start
Images:4157
First:29.09.2024 08:56:23
Last:29.09.2024 10:59:11
Duration:02:02:48
</desc></wpt>
<wpt lat = "52.51521" lon = "13.3602"><name>GUD1LS1</name><desc>Start
Images:9072
First:28.09.2024 09:47:01
Last:29.09.2024 11:02:21
Duration:1.01:15:20
</desc></wpt>
</gpx>