<?xml version='1.0' encoding='utf-8'?>
<gpx version="1.1" creator="Infofile GPX Generator">
<wpt lat = "50.9362" lon = "6.96373"><name>JKE3</name><desc>1,0 km Deutzer Brücke
Images:5167
First:05.10.2024 21:16:56
Last:06.10.2024 09:40:54
Duration:12:23:58
</desc></wpt>
<wpt lat = "50.9362" lon = "6.96373"><name>SEO1</name><desc>1,0 km Deutzer Brücke
Images:11890
First:06.10.2024 07:43:25
Last:06.10.2024 10:49:02
Duration:03:05:37
</desc></wpt>
<wpt lat = "50.93536" lon = "6.95257"><name>DAGG1</name><desc>1,8 km Cäcilienstr.
Images:1266
First:06.10.2024 09:05:00
Last:06.10.2024 09:42:13
Duration:00:37:13
</desc></wpt>
<wpt lat = "50.93536" lon = "6.95257"><name>MABR1</name><desc>1,8 km Cäcilienstr.
Images:3108
First:06.10.2024 08:59:01
Last:06.10.2024 09:42:35
Duration:00:43:34
</desc></wpt>
<wpt lat = "50.94704" lon = "6.94246"><name>AMAR1</name><desc>17,0 km 38
Images:36502
First:06.10.2024 08:19:21
Last:06.10.2024 15:16:31
Duration:06:57:10
</desc></wpt>
<wpt lat = "50.93634" lon = "6.95622"><name>JKE1LS1</name><desc>1km vor dem Ziel
Images:12796
First:05.10.2024 22:45:37
Last:06.10.2024 16:44:42
Duration:17:59:05
</desc></wpt>
<wpt lat = "50.93634" lon = "6.95622"><name>JKE2</name><desc>1km vor dem Ziel
Images:34886
First:06.10.2024 09:56:12
Last:06.10.2024 16:38:50
Duration:06:42:38
</desc></wpt>
<wpt lat = "50.93634" lon = "6.95622"><name>SEO2</name><desc>1km vor dem Ziel (Hohe Str.)
Images:25864
First:06.10.2024 10:49:02
Last:06.10.2024 16:38:27
Duration:05:49:25
</desc></wpt>
<wpt lat = "50.93563" lon = "6.94751"><name>FEF1</name><desc>2,3 km Neumarkt
Images:786
First:06.10.2024 08:54:02
Last:06.10.2024 09:48:14
Duration:00:54:12
</desc></wpt>
<wpt lat = "50.93563" lon = "6.94751"><name>MARSC1</name><desc>2,3 km Neumarkt
Images:3750
First:05.10.2024 15:01:03
Last:06.10.2024 09:47:35
Duration:18:46:32
</desc></wpt>
<wpt lat = "50.93550" lon = "6.93991"><name>KOLSI1</name><desc>2,5 km Rudolfplatz
Images:8892
First:06.10.2024 08:47:34
Last:06.10.2024 16:17:18
Duration:07:29:44
</desc></wpt>
<wpt lat = "50.93550" lon = "6.93991"><name>ROPR1</name><desc>2,5 km Rudolfplatz
Images:5576
First:06.10.2024 08:51:33
Last:06.10.2024 16:26:35
Duration:07:35:02
</desc></wpt>
<wpt lat = "50.93550" lon = "6.93991"><name>THL1</name><desc>2,5 km Rudolfplatz
Images:16850
First:05.10.2024 18:05:50
Last:06.10.2024 16:20:55
Duration:22:15:05
</desc></wpt>
<wpt lat = "50.93550" lon = "6.93991"><name>THL1LS1</name><desc>2,5 km Rudolfplatz
Images:4473
First:06.10.2024 08:48:16
Last:06.10.2024 09:58:48
Duration:01:10:32
</desc></wpt>
<wpt lat = "50.93550" lon = "6.93991"><name>THL1LS2</name><desc>2,5 km Rudolfplatz
Images:6509
First:06.10.2024 10:26:32
Last:06.10.2024 12:20:18
Duration:01:53:46
</desc></wpt>
<wpt lat = "50.93550" lon = "6.93991"><name>THL1LS3</name><desc>2,5 km Rudolfplatz
Images:7200
First:05.10.2024 18:10:50
Last:06.10.2024 16:20:55
Duration:22:10:05
</desc></wpt>
<wpt lat = "50.93550" lon = "6.93991"><name>THL1LS4</name><desc>2,5 km Rudolfplatz
Images:8253
First:06.10.2024 10:30:42
Last:06.10.2024 14:28:17
Duration:03:57:35
</desc></wpt>
<wpt lat = "50.94173" lon = "6.95604"><name>JS2</name><desc>200m vor dem Ziel (Kölner Dom)
Images:15211
First:06.10.2024 11:41:07
Last:06.10.2024 16:45:09
Duration:05:04:02
</desc></wpt>
<wpt lat = "50.94173" lon = "6.95604"><name>LUGR2</name><desc>200m vor dem Ziel (Kölner Dom)
Images:18656
First:06.10.2024 09:59:48
Last:06.10.2024 16:45:22
Duration:06:45:34
</desc></wpt>
<wpt lat = "50.94156" lon = "6.95341"><name>ALN1</name><desc>Finish
Images:19680
First:06.10.2024 09:57:01
Last:06.10.2024 16:57:35
Duration:07:00:34
</desc></wpt>
<wpt lat = "50.94156" lon = "6.95341"><name>ALN1DRONE1</name><desc>Finish
Images:20
First:06.10.2024 07:39:13
Last:06.10.2024 13:00:33
Duration:05:21:20
</desc></wpt>
<wpt lat = "50.94156" lon = "6.95341"><name>ALN1LS1</name><desc>Finish
Images:10252
First:06.10.2024 09:23:12
Last:06.10.2024 16:52:20
Duration:07:29:08
</desc></wpt>
<wpt lat = "50.94156" lon = "6.95341"><name>ALN1LS2</name><desc>Finish
Images:10849
First:06.10.2024 09:19:45
Last:06.10.2024 16:48:07
Duration:07:28:22
</desc></wpt>
<wpt lat = "50.94178" lon = "6.95761"><name>ALN2LS1</name><desc>Finish
Images:7757
First:06.10.2024 09:25:36
Last:06.10.2024 16:36:25
Duration:07:10:49
</desc></wpt>
<wpt lat = "50.94178" lon = "6.95761"><name>ALN2LS2</name><desc>Finish
Images:10020
First:06.10.2024 09:25:34
Last:06.10.2024 16:36:45
Duration:07:11:11
</desc></wpt>
<wpt lat = "50.94156" lon = "6.95341"><name>ANR1</name><desc>Finish
Images:16381
First:31.12.2017 23:00:09
Last:06.10.2024 15:35:13
Duration:2470.16:35:04
</desc></wpt>
<wpt lat = "50.93981" lon = "6.97288"><name>AG1</name><desc>Impressionen
Images:584
First:06.10.2024 08:08:19
Last:06.10.2024 14:42:46
Duration:06:34:27
</desc></wpt>
<wpt lat = "50.93981" lon = "6.97288"><name>AG1DRONE1</name><desc>Impressions / Pano
Images:33
First:06.10.2024 10:09:40
Last:06.10.2024 11:38:07
Duration:01:28:27
</desc></wpt>
<wpt lat = "50.94156" lon = "6.95341"><name>IWI2</name><desc>Impressions / Pano
Images:75
First:06.10.2024 08:31:55
Last:06.10.2024 10:17:32
Duration:01:45:37
</desc></wpt>
<wpt lat = "50.94079" lon = "6.93816"><name>MAJ1</name><desc>Km 12,7/25,2 Friesenplatz Puma Cheering Zone
Images:10046
First:06.10.2024 09:38:34
Last:06.10.2024 14:20:10
Duration:04:41:36
</desc></wpt>
<wpt lat = "50.94079" lon = "6.93816"><name>MBEN1</name><desc>Km 12,7/25,2 Friesenplatz Puma Cheering Zone
Images:23118
First:05.10.2024 18:32:55
Last:06.10.2024 14:21:33
Duration:19:48:38
</desc></wpt>
<wpt lat = "50.94079" lon = "6.93816"><name>MBEN1LS1</name><desc>Km 12,7/25,2 Friesenplatz Puma Cheering Zone
Images:10126
First:06.10.2024 09:09:56
Last:06.10.2024 14:12:36
Duration:05:02:40
</desc></wpt>
<wpt lat = "50.94624" lon = "6.92531"><name>SSW1</name><desc>Km 15/27,3 Venloer Str./Piusstr. Run Squad Cologne Cheering Zone
Images:21499
First:05.10.2024 15:11:19
Last:06.10.2024 14:41:44
Duration:23:30:25
</desc></wpt>
<wpt lat = "50.94624" lon = "6.92531"><name>SSW1LS1</name><desc>Km 15/27,3 Venloer Str./Piusstr. Run Squad Cologne Cheering Zone
Images:5412
First:05.10.2024 15:12:20
Last:06.10.2024 14:15:37
Duration:23:03:17
</desc></wpt>
<wpt lat = "50.94624" lon = "6.92531"><name>SSW1LS2</name><desc>Km 15/27,3 Venloer Str./Piusstr. Run Squad Cologne Cheering Zone
Images:3033
First:05.10.2024 15:14:06
Last:06.10.2024 14:00:06
Duration:22:46:00
</desc></wpt>
<wpt lat = "50.94624" lon = "6.92531"><name>ST1</name><desc>Km 15/27,3 Venloer Str./Piusstr. Run Squad Cologne Cheering Zone
Images:14208
First:06.10.2024 09:45:48
Last:06.10.2024 14:41:59
Duration:04:56:11
</desc></wpt>
<wpt lat = "50.94624" lon = "6.92531"><name>ST1LS1</name><desc>Km 15/27,3 Venloer Str./Piusstr. Run Squad Cologne Cheering Zone
Images:4480
First:06.10.2024 09:15:44
Last:06.10.2024 13:55:43
Duration:04:39:59
</desc></wpt>
<wpt lat = "50.94624" lon = "6.92531"><name>ST1LS2</name><desc>Km 15/27,3 Venloer Str./Piusstr. Run Squad Cologne Cheering Zone
Images:8774
First:06.10.2025 09:07:18
Last:06.10.2025 13:52:38
Duration:04:45:20
</desc></wpt>
<wpt lat = "50.93639" lon = "6.94796"><name>FEF2</name><desc>Km 19,6/40,6 Neumarkt Generali Fan-Meile
Images:4789
First:06.10.2024 10:00:56
Last:06.10.2024 16:29:18
Duration:06:28:22
</desc></wpt>
<wpt lat = "50.93639" lon = "6.94796"><name>MARSC2</name><desc>Km 19,6/40,6 Neumarkt Generali Fan-Meile
Images:11863
First:06.10.2024 09:59:40
Last:06.10.2024 16:26:22
Duration:06:26:42
</desc></wpt>
<wpt lat = "50.93536" lon = "6.95257"><name>DAGG2</name><desc>Km 20/41 Cäcilienstr. Kölner Haie Fan-Meile
Images:8931
First:06.10.2024 09:51:49
Last:06.10.2024 16:35:32
Duration:06:43:43
</desc></wpt>
<wpt lat = "50.93536" lon = "6.95257"><name>MABR2</name><desc>Km 20/41 Cäcilienstr. Kölner Haie Fan-Meile
Images:15521
First:06.10.2024 09:51:17
Last:06.10.2024 16:35:32
Duration:06:44:15
</desc></wpt>
<wpt lat = "50.94834" lon = "6.9508"><name>MIJA1</name><desc>Km 29,5/38,4 Hansaring/Ritterstr. REWE Group-Hammermeile mit REWE und toom
Images:19448
First:06.10.2024 09:53:02
Last:06.10.2024 16:22:08
Duration:06:29:06
</desc></wpt>
<wpt lat = "50.94834" lon = "6.9508"><name>MW1</name><desc>Km 29,5/38,4 Hansaring/Ritterstr. REWE Group-Hammermeile mit REWE und toom
Images:25484
First:06.10.2024 08:24:45
Last:06.10.2024 16:22:08
Duration:07:57:23
</desc></wpt>
<wpt lat = "50.92744" lon = "6.92877"><name>AGR1</name><desc>Km 5/17,5 Universität zu Köln
Images:21685
First:06.10.2024 08:45:35
Last:06.10.2024 14:09:46
Duration:05:24:11
</desc></wpt>
<wpt lat = "50.92744" lon = "6.92877"><name>OT1</name><desc>Km 5/17,5 Universität zu Köln
Images:20398
First:06.10.2024 01:03:44
Last:06.10.2024 14:01:48
Duration:12:58:04
</desc></wpt>
<wpt lat = "50.94156" lon = "6.95341"><name>IWI1</name><desc>Medaillen
Images:3704
First:06.10.2024 10:18:19
Last:06.10.2024 16:48:09
Duration:06:29:50
</desc></wpt>
<wpt lat = "50.94156" lon = "6.95341"><name>THOS2</name><desc>Medaillen
Images:777
First:06.10.2024 14:36:07
Last:06.10.2024 16:46:39
Duration:02:10:32
</desc></wpt>
<wpt lat = "50.93981" lon = "6.97288"><name>JS1</name><desc>Start
Images:4049
First:05.10.2024 16:28:19
Last:06.10.2024 10:46:42
Duration:18:18:23
</desc></wpt>
<wpt lat = "50.93981" lon = "6.97288"><name>LUGR1</name><desc>Start
Images:3168
First:05.10.2024 23:13:22
Last:06.10.2024 09:38:19
Duration:10:24:57
</desc></wpt>
<wpt lat = "50.93981" lon = "6.97288"><name>THOS1</name><desc>Start
Images:2385
First:06.10.2024 08:38:44
Last:06.10.2024 14:36:01
Duration:05:57:17
</desc></wpt>
</gpx>