<?xml version='1.0' encoding='utf-8'?>
<gpx version="1.1" creator="Infofile GPX Generator">
<wpt lat = "45.84728" lon = "7.03190"><name>AEP2</name><desc>CCC 20.5KM Rif. Walter Bonatti
Images:5467
First:30.08.2024 11:11:34
Last:30.08.2024 15:49:49
Duration:04:38:15
</desc></wpt>
<wpt lat = "45.84728" lon = "7.03190"><name>AEP2LS1</name><desc>CCC 20.5KM Rif. Walter Bonatti
Images:2834
First:30.08.2024 10:32:47
Last:30.08.2024 15:42:23
Duration:05:09:36
</desc></wpt>
<wpt lat = "45.84956" lon = "7.03693"><name>ACOR4</name><desc>CCC 21.5KM Punto Panoramica
Images:4919
First:30.08.2024 11:17:17
Last:30.08.2024 15:40:45
Duration:04:23:28
</desc></wpt>
<wpt lat = "45.84956" lon = "7.03693"><name>ACOR4DRONE1</name><desc>CCC 21.5KM Punto Panoramica
Images:10
First:30.08.2024 11:58:38
Last:30.08.2024 12:01:34
Duration:00:02:56
</desc></wpt>
<wpt lat = "45.84956" lon = "7.03693"><name>ACOR4LS1</name><desc>CCC 21.5KM Punto Panoramica
Images:2147
First:30.08.2024 10:54:43
Last:30.08.2024 15:01:23
Duration:04:06:40
</desc></wpt>
<wpt lat = "45.86401" lon = "7.05526"><name>ACHR3</name><desc>CCC 24KM Grandes Jorasses View
Images:7558
First:30.08.2024 10:02:34
Last:30.08.2024 16:16:41
Duration:06:14:07
</desc></wpt>
<wpt lat = "45.86962" lon = "7.05882"><name>BNJO1LS1</name><desc>CCC 25,8 KM Arnouvaz
Images:7352
First:30.08.2024 10:45:56
Last:30.08.2024 16:28:51
Duration:05:42:55
</desc></wpt>
<wpt lat = "45.86844" lon = "7.05813"><name>BNJO1LS2</name><desc>CCC 25,8 KM Arnouvaz
Images:10184
First:30.08.2024 10:05:07
Last:30.08.2024 16:32:10
Duration:06:27:03
</desc></wpt>
<wpt lat = "45.86915" lon = "7.05813"><name>BNJO1</name><desc>CCC 25,9 KM Arnouvaz
Images:8116
First:30.08.2024 11:30:39
Last:30.08.2024 16:20:03
Duration:04:49:24
</desc></wpt>
<wpt lat = "45.86915" lon = "7.05813"><name>BNJO1DRONE1</name><desc>CCC 25,9 KM Arnouvaz
Images:2
First:30.08.2024 16:20:03
Last:30.08.2024 16:20:16
Duration:00:00:13
</desc></wpt>
<wpt lat = "45.88534" lon = "7.07512"><name>BLULE1</name><desc>CCC 30,5KM Grand Col Ferret
Images:6875
First:30.08.2024 11:57:02
Last:30.08.2024 20:42:45
Duration:08:45:43
</desc></wpt>
<wpt lat = "45.88534" lon = "7.07512"><name>BLULE1LS1</name><desc>CCC 30,5KM Grand Col Ferret
Images:3215
First:30.08.2024 12:35:08
Last:30.08.2024 20:34:18
Duration:07:59:10
</desc></wpt>
<wpt lat = "45.88355" lon = "7.07039"><name>BTNR1</name><desc>CCC 30,6KM Rifugio Elena
Images:2318
First:01.01.0001 23:00:00
Last:30.08.2024 18:10:37
Duration:739126.19:10:37
</desc></wpt>
<wpt lat = "45.88355" lon = "7.07039"><name>BTNR1LS1</name><desc>CCC 30,6KM Rifugio Elena
Images:6761
First:01.01.0001 23:00:00
Last:30.08.2024 17:57:08
Duration:739126.18:57:08
</desc></wpt>
<wpt lat = "46.02912" lon = "7.11750"><name>AMHO1</name><desc>CCC 55KM Lac Champex
Images:2440
First:30.08.2024 14:22:00
Last:30.08.2024 23:35:03
Duration:09:13:03
</desc></wpt>
<wpt lat = "46.02912" lon = "7.11750"><name>AMHO1LS1</name><desc>CCC 55KM Lac Champex
Images:890
First:30.08.2024 14:23:20
Last:30.08.2024 20:14:17
Duration:05:50:57
</desc></wpt>
<wpt lat = "46.05589" lon = "7.05535"><name>APKA1</name><desc>CCC 63.5KM Before Alpage Bovine
Images:658
First:30.08.2024 15:20:03
Last:30.08.2024 20:40:06
Duration:05:20:03
</desc></wpt>
<wpt lat = "46.05589" lon = "7.05535"><name>APKA1LS1</name><desc>CCC 63.5KM Before Alpage Bovine
Images:166
First:30.08.2024 14:36:48
Last:30.08.2024 19:14:34
Duration:04:37:46
</desc></wpt>
<wpt lat = "46.05530" lon = "7.04512"><name>AALPE1</name><desc>CCC 64KM Behind Alpage Bovine
Images:1036
First:30.08.2024 15:29:41
Last:30.08.2024 21:24:20
Duration:05:54:39
</desc></wpt>
<wpt lat = "46.05530" lon = "7.04512"><name>AALPE1LS1</name><desc>CCC 64KM Behind Alpage Bovine
Images:2368
First:30.08.2024 14:25:54
Last:31.08.2024 09:24:50
Duration:18:58:56
</desc></wpt>
<wpt lat = "46.05733" lon = "7.04421"><name>AKAV1</name><desc>CCC 64KM Behind Alpage Bovine
Images:1102
First:30.08.2024 15:27:49
Last:30.08.2024 20:42:23
Duration:05:14:34
</desc></wpt>
<wpt lat = "46.05733" lon = "7.04421"><name>AKAV1LS1</name><desc>CCC 64KM Behind Alpage Bovine
Images:268
First:30.08.2024 16:52:41
Last:30.08.2024 19:28:30
Duration:02:35:49
</desc></wpt>
<wpt lat = "45.96274" lon = "6.88514"><name>BMAWI1</name><desc>CCC 92.1KM La Flegere
Images:1239
First:30.08.2024 18:38:04
Last:31.08.2024 10:51:10
Duration:16:13:06
</desc></wpt>
<wpt lat = "45.96274" lon = "6.88514"><name>BMAWI1LS1</name><desc>CCC 92.1KM La Flegere
Images:4307
First:30.08.2024 15:44:55
Last:31.08.2024 10:55:34
Duration:19:10:39
</desc></wpt>
<wpt lat = "45.96274" lon = "6.88514"><name>BMAWI1LS2</name><desc>CCC 92.1KM La Flegere
Images:1229
First:30.08.2024 18:03:23
Last:31.08.2024 09:52:34
Duration:15:49:11
</desc></wpt>
<wpt lat = "45.96348" lon = "6.88917"><name>ARSJ1</name><desc>CCC 93KM La Flegere
Images:2861
First:30.08.2024 18:41:25
Last:31.08.2024 11:52:17
Duration:17:10:52
</desc></wpt>
<wpt lat = "45.96348" lon = "6.88917"><name>ARSJ1LS1</name><desc>CCC 93KM La Flegere
Images:3466
First:30.08.2024 17:01:53
Last:31.08.2024 10:43:15
Duration:17:41:22
</desc></wpt>
<wpt lat = "45.79263" lon = "6.97171"><name>ACOR3</name><desc>CCC Start
Images:159
First:30.08.2024 08:33:30
Last:30.08.2024 09:01:47
Duration:00:28:17
</desc></wpt>
<wpt lat = "45.79263" lon = "6.97171"><name>AEP1</name><desc>CCC Start
Images:317
First:30.08.2024 08:31:17
Last:30.08.2024 09:03:22
Duration:00:32:05
</desc></wpt>
<wpt lat = "45.92363" lon = "6.86837"><name>CALL1</name><desc>Finish
Images:8620
First:31.08.2024 01:56:33
Last:31.08.2024 09:50:38
Duration:07:54:05
</desc></wpt>
<wpt lat = "45.92363" lon = "6.86837"><name>CALL2</name><desc>Finish
Images:2197
First:31.08.2024 18:53:13
Last:01.09.2024 01:52:18
Duration:06:59:05
</desc></wpt>
<wpt lat = "45.92363" lon = "6.86837"><name>CALL3</name><desc>Finish
Images:5030
First:01.09.2024 10:00:58
Last:01.09.2024 16:50:42
Duration:06:49:44
</desc></wpt>
<wpt lat = "45.92363" lon = "6.86837"><name>CDR2</name><desc>Finish
Images:1867
First:30.08.2024 19:19:04
Last:31.08.2024 09:52:55
Duration:14:33:51
</desc></wpt>
<wpt lat = "45.92363" lon = "6.86837"><name>CDR2LS1</name><desc>Finish
Images:22174
First:30.08.2024 23:16:45
Last:01.09.2024 09:54:04
Duration:1.10:37:19
</desc></wpt>
<wpt lat = "45.92363" lon = "6.86837"><name>CDR3</name><desc>Finish
Images:3224
First:31.08.2024 09:53:36
Last:31.08.2024 12:43:28
Duration:02:49:52
</desc></wpt>
<wpt lat = "45.92363" lon = "6.86837"><name>CDR4</name><desc>Finish
Images:1074
First:31.08.2024 13:29:53
Last:31.08.2024 18:57:46
Duration:05:27:53
</desc></wpt>
<wpt lat = "45.92363" lon = "6.86837"><name>CDR5</name><desc>Finish
Images:4437
First:01.09.2024 01:56:53
Last:01.09.2024 10:10:28
Duration:08:13:35
</desc></wpt>
<wpt lat = "45.92363" lon = "6.86837"><name>CEB1</name><desc>Finish
Images:2287
First:31.08.2024 02:42:21
Last:31.08.2024 08:35:37
Duration:05:53:16
</desc></wpt>
<wpt lat = "45.92363" lon = "6.86837"><name>CEB1LS1</name><desc>Finish
Images:11141
First:31.08.2024 02:01:13
Last:01.09.2024 14:36:26
Duration:1.12:35:13
</desc></wpt>
<wpt lat = "45.92363" lon = "6.86837"><name>CEB2</name><desc>Finish
Images:1926
First:31.08.2024 18:52:30
Last:01.09.2024 00:08:31
Duration:05:16:01
</desc></wpt>
<wpt lat = "45.92363" lon = "6.86837"><name>CEB3</name><desc>Finish
Images:775
First:31.08.2024 08:35:40
Last:31.08.2024 09:50:17
Duration:01:14:37
</desc></wpt>
<wpt lat = "45.92363" lon = "6.86837"><name>CEB4</name><desc>Finish
Images:3807
First:01.09.2024 00:09:22
Last:01.09.2024 16:51:55
Duration:16:42:33
</desc></wpt>
<wpt lat = "45.92363" lon = "6.86837"><name>CEGA2</name><desc>Finish
Images:5891
First:30.08.2024 19:20:59
Last:31.08.2024 12:58:44
Duration:17:37:45
</desc></wpt>
<wpt lat = "45.92363" lon = "6.86837"><name>CEGA3</name><desc>Finish
Images:1186
First:31.08.2024 13:55:47
Last:31.08.2024 19:07:06
Duration:05:11:19
</desc></wpt>
<wpt lat = "45.92363" lon = "6.86837"><name>CEGA4</name><desc>Finish
Images:3101
First:01.09.2024 01:53:13
Last:01.09.2024 10:11:05
Duration:08:17:52
</desc></wpt>
<wpt lat = "45.93687" lon = "6.85005"><name>COR2</name><desc>PTL - PlanPraz KM 6
Images:952
First:26.08.2024 09:09:03
Last:26.08.2024 10:37:29
Duration:01:28:26
</desc></wpt>
<wpt lat = "45.93687" lon = "6.85005"><name>COR2LS1</name><desc>PTL - PlanPraz KM 6
Images:431
First:26.08.2024 09:09:57
Last:26.08.2024 10:02:34
Duration:00:52:37
</desc></wpt>
<wpt lat = "45.93870" lon = "6.84610"><name>CHR2</name><desc>PTL - PlanPraz KM 6.5
Images:1340
First:26.08.2024 09:14:56
Last:26.08.2024 10:34:21
Duration:01:19:25
</desc></wpt>
<wpt lat = "45.93870" lon = "6.84610"><name>CHR2DRONE1</name><desc>PTL - PlanPraz KM 6.5
Images:17
First:26.08.2024 10:22:41
Last:26.08.2024 10:30:17
Duration:00:07:36
</desc></wpt>
<wpt lat = "45.93870" lon = "6.84610"><name>CHR2LS1</name><desc>PTL - PlanPraz KM 6.5
Images:225
First:26.08.2024 09:23:26
Last:26.08.2024 10:11:47
Duration:00:48:21
</desc></wpt>
<wpt lat = "45.92381" lon = "6.86915"><name>CHR1</name><desc>PTL - Start
Images:196
First:26.08.2024 07:32:40
Last:26.08.2024 08:02:09
Duration:00:29:29
</desc></wpt>
<wpt lat = "45.92381" lon = "6.86915"><name>COR1</name><desc>PTL - Start
Images:197
First:26.08.2024 07:32:50
Last:26.08.2024 08:02:17
Duration:00:29:27
</desc></wpt>
<wpt lat = "45.92436" lon = "6.86244"><name>ACOR2</name><desc>PTL 6.5KM PlanPraz
Images:952
First:26.08.2024 09:09:03
Last:26.08.2024 10:37:29
Duration:01:28:26
</desc></wpt>
<wpt lat = "45.92436" lon = "6.86244"><name>ACOR2LS1</name><desc>PTL 6.5KM PlanPraz
Images:431
First:26.08.2024 09:09:57
Last:26.08.2024 10:02:34
Duration:00:52:37
</desc></wpt>
<wpt lat = "45.93870" lon = "6.84867"><name>ACHR2</name><desc>PTL 7KM Mont-Blanc View
Images:1340
First:26.08.2024 09:14:56
Last:26.08.2024 10:34:21
Duration:01:19:25
</desc></wpt>
<wpt lat = "45.93870" lon = "6.84867"><name>ACHR2DRONE1</name><desc>PTL 7KM Mont-Blanc View
Images:6
First:26.08.2024 10:24:37
Last:26.08.2024 10:29:10
Duration:00:04:33
</desc></wpt>
<wpt lat = "45.93870" lon = "6.84867"><name>ACHR2LS1</name><desc>PTL 7KM Mont-Blanc View
Images:225
First:26.08.2024 09:23:26
Last:26.08.2024 10:11:47
Duration:00:48:21
</desc></wpt>
<wpt lat = "45.92381" lon = "6.86915"><name>ACHR1</name><desc>PTL Start
Images:196
First:26.08.2024 07:32:40
Last:26.08.2024 08:02:09
Duration:00:29:29
</desc></wpt>
<wpt lat = "45.92381" lon = "6.86915"><name>ACOR1</name><desc>PTL Start
Images:197
First:26.08.2024 07:32:50
Last:26.08.2024 08:02:17
Duration:00:29:27
</desc></wpt>
<wpt lat = "45.92363" lon = "6.86837"><name>CDR1</name><desc>Start
Images:499
First:30.08.2024 16:50:09
Last:30.08.2024 18:07:14
Duration:01:17:05
</desc></wpt>
<wpt lat = "45.92363" lon = "6.86837"><name>CEGA1</name><desc>Start
Images:380
First:30.08.2024 16:45:24
Last:30.08.2024 18:08:17
Duration:01:22:53
</desc></wpt>
<wpt lat = "45.88355" lon = "7.07039"><name>BTNR2LS1</name><desc>UTMB 102,1KM Rifugio Elena
Images:1030
First:01.01.0001 23:00:00
Last:31.08.2024 11:04:33
Duration:739127.12:04:33
</desc></wpt>
<wpt lat = "45.88597" lon = "7.07439"><name>BLULE2</name><desc>UTMB 102,3 KM Grand Col Ferret
Images:10217
First:31.08.2024 06:03:28
Last:31.08.2024 19:42:40
Duration:13:39:12
</desc></wpt>
<wpt lat = "45.88355" lon = "7.07039"><name>BTNR2</name><desc>UTMB 102KM Rifugio Elena
Images:333
First:01.01.0001 23:00:00
Last:31.08.2024 11:27:37
Duration:739127.12:27:37
</desc></wpt>
<wpt lat = "46.02912" lon = "7.11750"><name>AMHO2</name><desc>UTMB 128.5KM Lac Champex
Images:2144
First:31.08.2024 09:06:03
Last:01.09.2024 01:17:25
Duration:16:11:22
</desc></wpt>
<wpt lat = "46.02912" lon = "7.11750"><name>AMHO2LS1</name><desc>UTMB 128.5KM Lac Champex
Images:634
First:31.08.2024 10:38:48
Last:31.08.2024 19:48:19
Duration:09:09:31
</desc></wpt>
<wpt lat = "46.05589" lon = "7.05535"><name>APKA2</name><desc>UTMB 137.5KM Before Alpage Bovine
Images:442
First:31.08.2024 09:44:10
Last:31.08.2024 19:28:50
Duration:09:44:40
</desc></wpt>
<wpt lat = "46.05589" lon = "7.05535"><name>APKA2LS1</name><desc>UTMB 137.5KM Before Alpage Bovine
Images:713
First:31.08.2024 09:36:00
Last:31.08.2024 18:41:08
Duration:09:05:08
</desc></wpt>
<wpt lat = "46.05530" lon = "7.04512"><name>AALPE2</name><desc>UTMB 138KM Behind Alpage Bovine
Images:827
First:31.08.2024 10:00:27
Last:31.08.2024 19:52:38
Duration:09:52:11
</desc></wpt>
<wpt lat = "46.05530" lon = "7.04512"><name>AALPE2LS1</name><desc>UTMB 138KM Behind Alpage Bovine
Images:949
First:31.08.2024 09:25:13
Last:31.08.2024 18:58:26
Duration:09:33:13
</desc></wpt>
<wpt lat = "46.05733" lon = "7.04421"><name>AKAV2</name><desc>UTMB 138KM Behind Alpage Bovine
Images:874
First:30.08.2024 20:07:52
Last:31.08.2024 19:50:34
Duration:23:42:42
</desc></wpt>
<wpt lat = "46.05733" lon = "7.04421"><name>AKAV2LS1</name><desc>UTMB 138KM Behind Alpage Bovine
Images:2159
First:31.08.2024 11:11:45
Last:31.08.2024 16:48:05
Duration:05:36:20
</desc></wpt>
<wpt lat = "46.05614" lon = "6.99489"><name>APKA3</name><desc>UTMB 145KM Trient Church
Images:331
First:31.08.2024 21:36:38
Last:01.09.2024 08:00:44
Duration:10:24:06
</desc></wpt>
<wpt lat = "46.05614" lon = "6.99489"><name>APKA3LS1</name><desc>UTMB 145KM Trient Church
Images:3187
First:31.08.2024 21:01:43
Last:01.09.2024 08:03:17
Duration:11:01:34
</desc></wpt>
<wpt lat = "45.96274" lon = "6.88514"><name>BHS1</name><desc>UTMB 162,7KM La Flegere
Images:1964
First:31.08.2024 13:08:09
Last:01.09.2024 14:15:14
Duration:1.01:07:05
</desc></wpt>
<wpt lat = "45.96274" lon = "6.88514"><name>BHS1LS1</name><desc>UTMB 162,7KM La Flegere
Images:1835
First:31.08.2024 16:59:58
Last:01.09.2024 11:50:20
Duration:18:50:22
</desc></wpt>
<wpt lat = "45.96274" lon = "6.88514"><name>BHS1LS2</name><desc>UTMB 162,7KM La Flegere
Images:2003
First:31.08.2024 12:50:58
Last:01.09.2024 14:52:32
Duration:1.02:01:34
</desc></wpt>
<wpt lat = "45.96028" lon = "6.88601"><name>BROB1LS1</name><desc>UTMB 163,2KM La Flegere
Images:2151
First:31.08.2024 12:51:02
Last:01.09.2024 11:04:49
Duration:22:13:47
</desc></wpt>
<wpt lat = "45.96028" lon = "6.88601"><name>BROB1LS2</name><desc>UTMB 163,2KM La Flegere
Images:1141
First:31.08.2024 14:30:24
Last:01.09.2024 10:59:39
Duration:20:29:15
</desc></wpt>
<wpt lat = "45.96060" lon = "6.88670"><name>BROB1</name><desc>UTMB 163KM La Flegere
Images:1721
First:31.08.2024 13:10:36
Last:01.09.2024 10:53:26
Duration:21:42:50
</desc></wpt>
<wpt lat = "45.88323" lon = "7.06558"><name>BTNR3</name><desc>UTMB 28KM Grand Col Ferret
Images:1906
First:31.08.2024 11:28:17
Last:31.08.2024 23:21:10
Duration:11:52:53
</desc></wpt>
<wpt lat = "45.88323" lon = "7.06558"><name>BTNR3LS1</name><desc>UTMB 28KM Grand Col Ferret
Images:3902
First:01.01.0001 23:00:00
Last:31.08.2024 18:27:51
Duration:739127.19:27:51
</desc></wpt>
<wpt lat = "45.82423" lon = "6.98938"><name>ACHR4</name><desc>UTMB 89.5KM Mont Blanc View
Images:6110
First:31.08.2024 06:35:56
Last:31.08.2024 15:44:52
Duration:09:08:56
</desc></wpt>
<wpt lat = "45.82423" lon = "6.98938"><name>ACHR4DRONE1</name><desc>UTMB 89.5KM Mont Blanc View
Images:8
First:31.08.2024 09:03:57
Last:31.08.2024 09:18:31
Duration:00:14:34
</desc></wpt>
<wpt lat = "45.84956" lon = "7.03693"><name>ACOR5</name><desc>UTMB 95.5KM Punto Panoramica
Images:5142
First:31.08.2024 06:41:42
Last:31.08.2024 17:51:20
Duration:11:09:38
</desc></wpt>
<wpt lat = "45.84956" lon = "7.03693"><name>ACOR5LS1</name><desc>UTMB 95.5KM Punto Panoramica
Images:2858
First:31.08.2024 10:18:39
Last:31.08.2024 17:32:07
Duration:07:13:28
</desc></wpt>
<wpt lat = "45.86844" lon = "7.05813"><name>BNJO2LS1</name><desc>UTMB 98,8 KM Arnouvaz
Images:2262
First:31.08.2024 07:33:02
Last:31.08.2024 17:33:41
Duration:10:00:39
</desc></wpt>
<wpt lat = "45.86844" lon = "7.05813"><name>BNJO2LS2</name><desc>UTMB 98,8 KM Arnouvaz
Images:3331
First:31.08.2024 07:02:12
Last:31.08.2024 14:51:35
Duration:07:49:23
</desc></wpt>
<wpt lat = "45.86935" lon = "7.05856"><name>BNJO2</name><desc>UTMB 98KM Arnouvaz
Images:5851
First:31.08.2024 06:39:49
Last:31.08.2024 17:49:07
Duration:11:09:18
</desc></wpt>
<wpt lat = "45.86400" lon = "7.05282"><name>AEP3</name><desc>UTMB 98KM Grandes Jorasses View
Images:6615
First:31.08.2024 06:28:47
Last:31.08.2024 17:55:24
Duration:11:26:37
</desc></wpt>
<wpt lat = "45.86400" lon = "7.05282"><name>AEP3LS1</name><desc>UTMB 98KM Grandes Jorasses View
Images:1932
First:31.08.2024 06:55:28
Last:31.08.2024 17:38:19
Duration:10:42:51
</desc></wpt>
</gpx>