<?xml version='1.0' encoding='utf-8'?>
<gpx version="1.1" creator="Infofile GPX Generator">
<wpt lat = "51.66037" lon = "0.04314"><name>AALSE1</name><desc>Broom Hill - Mile 21.4 of 60 & 100
Images:14213
First:26.05.2024 06:22:31
Last:26.05.2024 12:05:20
Duration:05:42:49
</desc></wpt>
<wpt lat = "51.66037" lon = "0.04314"><name>ADJ1</name><desc>Broom Hill - Mile 21.4 of 60 & 100
Images:29080
First:26.05.2024 06:48:00
Last:26.05.2024 12:05:19
Duration:05:17:19
</desc></wpt>
<wpt lat = "51.72405" lon = "0.20488"><name>AANL1</name><desc>Epping Road - Mile 30 of 60 & 100
Images:26397
First:26.05.2024 06:37:36
Last:26.05.2024 12:42:32
Duration:06:04:56
</desc></wpt>
<wpt lat = "51.72405" lon = "0.20488"><name>AROM1</name><desc>Epping Road - Mile 30 of 60 & 100
Images:11572
First:26.05.2024 07:08:16
Last:26.05.2024 12:41:45
Duration:05:33:29
</desc></wpt>
<wpt lat = "51.72405" lon = "0.20488"><name>AROM1LS1</name><desc>Epping Road - Mile 30 of 60 & 100
Images:13012
First:26.05.2024 06:58:53
Last:26.05.2024 12:40:45
Duration:05:41:52
</desc></wpt>
<wpt lat = "51.72085" lon = "0.22008"><name>ADATI1</name><desc>Epping Road - Mile 31 of 60 & 100
Images:24477
First:26.05.2024 07:09:26
Last:26.05.2024 12:36:50
Duration:05:27:24
</desc></wpt>
<wpt lat = "51.72085" lon = "0.22008"><name>APARO1</name><desc>Epping Road - Mile 31 of 60 & 100
Images:30483
First:26.05.2024 07:09:27
Last:26.05.2024 12:20:35
Duration:05:11:08
</desc></wpt>
<wpt lat = "51.72085" lon = "0.22008"><name>APARO1LS1</name><desc>Epping Road - Mile 31 of 60 & 100
Images:16111
First:26.05.2024 06:35:52
Last:26.05.2024 12:12:07
Duration:05:36:15
</desc></wpt>
<wpt lat = "51.72085" lon = "0.22008"><name>APARO1LS2</name><desc>Epping Road - Mile 31 of 60 & 100
Images:17767
First:26.05.2024 06:51:54
Last:26.05.2024 11:56:21
Duration:05:04:27
</desc></wpt>
<wpt lat = "51.72085" lon = "0.22008"><name>APARO1LS3</name><desc>Epping Road - Mile 31 of 60 & 100
Images:18475
First:26.05.2024 06:10:17
Last:26.05.2024 12:30:21
Duration:06:20:04
</desc></wpt>
<wpt lat = "51.50344" lon = "-0.07677"><name>DBKO1</name><desc>Finish
Images:16009
First:26.05.2024 11:44:49
Last:26.05.2024 18:27:40
Duration:06:42:51
</desc></wpt>
<wpt lat = "51.50344" lon = "-0.07677"><name>DBKO1DRONE1</name><desc>Finish
Images:12
First:26.05.2024 13:44:40
Last:26.05.2024 13:51:08
Duration:00:06:28
</desc></wpt>
<wpt lat = "51.50344" lon = "-0.07677"><name>DBKO1LS1</name><desc>Finish
Images:15889
First:26.05.2024 08:33:36
Last:26.05.2024 18:38:39
Duration:10:05:03
</desc></wpt>
<wpt lat = "51.50344" lon = "-0.07677"><name>DBKO1LS2</name><desc>Finish
Images:9337
First:26.05.2024 08:39:21
Last:26.05.2024 18:36:01
Duration:09:56:40
</desc></wpt>
<wpt lat = "51.50344" lon = "-0.07677"><name>DCUP1</name><desc>Finish
Images:21871
First:26.05.2024 08:43:43
Last:26.05.2024 18:50:45
Duration:10:07:02
</desc></wpt>
<wpt lat = "51.50344" lon = "-0.07677"><name>DYCAN1</name><desc>Finish
Images:21438
First:26.05.2024 07:53:08
Last:26.05.2024 18:50:42
Duration:10:57:34
</desc></wpt>
<wpt lat = "51.7936" lon = "0.45672"><name>BRLG1</name><desc>Great Waltham - Mile 58.6 of 100
Images:25958
First:26.05.2024 07:24:40
Last:26.05.2024 14:55:43
Duration:07:31:03
</desc></wpt>
<wpt lat = "51.7936" lon = "0.45672"><name>BSOOS1</name><desc>Great Waltham - Mile 58.6 of 100
Images:31085
First:26.04.2024 08:14:44
Last:26.04.2024 14:49:09
Duration:06:34:25
</desc></wpt>
<wpt lat = "51.82547" lon = "0.44748"><name>BJOEM1</name><desc>Hartford End - Mile 55.8 of 100
Images:25900
First:26.05.2024 08:08:05
Last:26.05.2024 14:42:34
Duration:06:34:29
</desc></wpt>
<wpt lat = "51.82547" lon = "0.44748"><name>BSTEM1</name><desc>Hartford End - Mile 55.8 of 100
Images:45800
First:26.05.2024 07:44:01
Last:26.05.2024 14:33:34
Duration:06:49:33
</desc></wpt>
<wpt lat = "51.82547" lon = "0.44748"><name>BSTEM1LS1</name><desc>Hartford End - Mile 55.8 of 100
Images:7107
First:26.05.2024 07:51:40
Last:26.05.2024 14:38:03
Duration:06:46:23
</desc></wpt>
<wpt lat = "51.82547" lon = "0.44748"><name>BSTEM1LS2</name><desc>Hartford End - Mile 55.8 of 100
Images:55449
First:26.05.2024 08:15:17
Last:26.05.2024 14:32:06
Duration:06:16:49
</desc></wpt>
<wpt lat = "51.83237" lon = "0.32639"><name>BJHD1</name><desc>High Roding - Mile 42.1 of 100
Images:14003
First:26.05.2024 07:36:06
Last:26.05.2024 13:22:18
Duration:05:46:12
</desc></wpt>
<wpt lat = "51.83237" lon = "0.32639"><name>BLCO1</name><desc>High Roding - Mile 42.1 of 100
Images:23780
First:26.05.2024 06:39:58
Last:26.05.2024 13:18:17
Duration:06:38:19
</desc></wpt>
<wpt lat = "51.63727" lon = "0.15086"><name>ACH1</name><desc>Hook Ln - Mile 39.5 of 60 & 80.2 of 100
Images:49952
First:26.05.2024 08:05:37
Last:26.05.2024 17:05:51
Duration:09:00:14
</desc></wpt>
<wpt lat = "51.63727" lon = "0.15086"><name>AMKH1</name><desc>Hook Ln - Mile 39.5 of 60 & 80.2 of 100
Images:16652
First:26.05.2024 07:54:18
Last:26.05.2024 17:05:54
Duration:09:11:36
</desc></wpt>
<wpt lat = "51.63727" lon = "0.15086"><name>AMKH1LS1</name><desc>Hook Ln - Mile 39.5 of 60 & 80.2 of 100
Images:14140
First:26.05.2024 07:38:02
Last:26.05.2024 16:56:07
Duration:09:18:05
</desc></wpt>
<wpt lat = "51.83237" lon = "0.32639"><name>BPARO1DRONE1</name><desc>Impressions / Pano
Images:6
First:26.05.2024 08:58:40
Last:26.05.2024 09:05:17
Duration:00:06:37
</desc></wpt>
<wpt lat = "51.62743" lon = "0.13205"><name>AQVT1</name><desc>Lambourne End - Mile 40.7 of 60 & 81.5 of 100
Images:34865
First:26.05.2024 08:18:20
Last:26.05.2024 17:08:32
Duration:08:50:12
</desc></wpt>
<wpt lat = "51.62743" lon = "0.13205"><name>ASALA1</name><desc>Lambourne End - Mile 40.7 of 60 & 81.5 of 100
Images:39060
First:26.05.2024 08:06:39
Last:26.05.2024 17:08:56
Duration:09:02:17
</desc></wpt>
<wpt lat = "51.62743" lon = "0.13205"><name>ASALA1LS1</name><desc>Lambourne End - Mile 40.7 of 60 & 81.5 of 100
Images:12691
First:26.05.2024 08:12:15
Last:26.05.2024 16:48:11
Duration:08:35:56
</desc></wpt>
<wpt lat = "51.51021" lon = "0.00652"><name>BAH1</name><desc>Lower Lea Crossing - Mile 5.8 of All / 31 of 30 / 58.6 of 60 / 99.3 of 100
Images:26437
First:25.05.2024 21:26:14
Last:26.05.2024 18:35:17
Duration:21:09:03
</desc></wpt>
<wpt lat = "51.51021" lon = "0.00652"><name>BSHP1</name><desc>Lower Lea Crossing - Mile 5.8 of All / 31 of 30 / 58.6 of 60 / 99.3 of 100
Images:21864
First:26.05.2024 07:53:34
Last:26.05.2024 18:35:20
Duration:10:41:46
</desc></wpt>
<wpt lat = "51.50352" lon = "-0.07999"><name>DAGP2</name><desc>Medals
Images:6097
First:26.05.2024 09:52:41
Last:26.05.2024 18:54:39
Duration:09:01:58
</desc></wpt>
<wpt lat = "51.50352" lon = "-0.07999"><name>DSESA2</name><desc>Medals
Images:19723
First:26.05.2024 09:24:33
Last:26.05.2024 18:54:53
Duration:09:30:20
</desc></wpt>
<wpt lat = "51.50352" lon = "-0.07999"><name>DSHAK2</name><desc>Medals
Images:7143
First:26.05.2024 07:59:10
Last:26.05.2024 18:54:31
Duration:10:55:21
</desc></wpt>
<wpt lat = "51.50352" lon = "-0.07999"><name>DWIC2</name><desc>Medals
Images:18127
First:26.05.2024 09:28:58
Last:26.05.2024 18:58:16
Duration:09:29:18
</desc></wpt>
<wpt lat = "51.51016" lon = "-0.11734"><name>CCMS1</name><desc>Start
Images:15878
First:25.05.2024 19:01:57
Last:26.05.2024 08:45:02
Duration:13:43:05
</desc></wpt>
<wpt lat = "51.51016" lon = "-0.11734"><name>CJUW1</name><desc>Start
Images:13648
First:26.05.2024 05:52:27
Last:26.05.2024 09:35:20
Duration:03:42:53
</desc></wpt>
<wpt lat = "51.51016" lon = "-0.11734"><name>CJUW1LS1</name><desc>Start
Images:5832
First:26.05.2024 05:50:13
Last:26.05.2024 09:24:01
Duration:03:33:48
</desc></wpt>
<wpt lat = "51.51016" lon = "-0.11734"><name>CLOT1</name><desc>Start
Images:9463
First:26.05.2024 06:00:06
Last:26.05.2024 09:33:01
Duration:03:32:55
</desc></wpt>
<wpt lat = "51.51016" lon = "-0.11734"><name>DAGP1</name><desc>Start
Images:8573
First:26.05.2024 06:00:11
Last:26.05.2024 08:46:42
Duration:02:46:31
</desc></wpt>
<wpt lat = "51.51016" lon = "-0.11734"><name>DSESA1</name><desc>Start
Images:17906
First:26.05.2024 05:58:25
Last:26.05.2024 08:44:18
Duration:02:45:53
</desc></wpt>
<wpt lat = "51.51016" lon = "-0.11734"><name>DSHP1</name><desc>Start
Images:8520
First:26.05.2024 05:52:48
Last:26.05.2024 07:26:51
Duration:01:34:03
</desc></wpt>
<wpt lat = "51.50566" lon = "-0.0753"><name>CCMS2</name><desc>Tower Bridge - Mile 35 of 30 / 62.5 of 60 / 103.3 of 100
Images:25292
First:26.05.2024 09:46:14
Last:26.05.2024 18:50:38
Duration:09:04:24
</desc></wpt>
<wpt lat = "51.50566" lon = "-0.0753"><name>CCMS2LS1</name><desc>Tower Bridge - Mile 35 of 30 / 62.5 of 60 / 103.3 of 100
Images:5808
First:26.05.2024 10:02:12
Last:26.05.2024 15:35:24
Duration:05:33:12
</desc></wpt>
<wpt lat = "51.50566" lon = "-0.0753"><name>CDANG2</name><desc>Tower Bridge - Mile 35 of 30 / 62.5 of 60 / 103.3 of 100
Images:12923
First:26.05.2024 09:22:25
Last:26.05.2024 18:50:42
Duration:09:28:17
</desc></wpt>
<wpt lat = "51.50566" lon = "-0.0753"><name>CJUW2</name><desc>Tower Bridge - Mile 35 of 30 / 62.5 of 60 / 103.3 of 100
Images:11842
First:26.05.2024 11:59:11
Last:26.05.2024 18:30:21
Duration:06:31:10
</desc></wpt>
<wpt lat = "51.50566" lon = "-0.0753"><name>CJUW2LS1</name><desc>Tower Bridge - Mile 35 of 30 / 62.5 of 60 / 103.3 of 100
Images:9420
First:26.05.2024 11:50:08
Last:26.05.2024 17:19:08
Duration:05:29:00
</desc></wpt>
<wpt lat = "51.50566" lon = "-0.0753"><name>CLOT2</name><desc>Tower Bridge - Mile 35 of 30 / 62.5 of 60 / 103.3 of 100
Images:16363
First:26.05.2024 10:21:20
Last:26.05.2024 18:54:09
Duration:08:32:49
</desc></wpt>
<wpt lat = "51.50566" lon = "-0.0753"><name>CMAT2</name><desc>Tower Bridge - Mile 35 of 30 / 62.5 of 60 / 103.3 of 100
Images:9470
First:26.05.2024 09:43:37
Last:26.05.2024 18:51:00
Duration:09:07:23
</desc></wpt>
<wpt lat = "51.50566" lon = "-0.0753"><name>CSLA2</name><desc>Tower Bridge - Mile 35 of 30 / 62.5 of 60 / 103.3 of 100
Images:9796
First:26.05.2024 09:33:01
Last:26.05.2024 18:31:37
Duration:08:58:36
</desc></wpt>
<wpt lat = "51.50967" lon = "-0.07567"><name>CDAKE1</name><desc>Tower Hill - Mile 1.8 of 30 / 60 / 100
Images:35628
First:26.05.2024 06:03:41
Last:26.05.2024 08:43:50
Duration:02:40:09
</desc></wpt>
<wpt lat = "51.50967" lon = "-0.07567"><name>CDANG1</name><desc>Tower Hill - Mile 1.8 of 30 / 60 / 100
Images:27566
First:26.05.2024 04:40:00
Last:26.05.2024 08:58:06
Duration:04:18:06
</desc></wpt>
<wpt lat = "51.50967" lon = "-0.07567"><name>CMAT1</name><desc>Tower Hill - Mile 1.8 of 30 / 60 / 100
Images:23058
First:26.05.2024 05:59:16
Last:26.05.2024 08:57:46
Duration:02:58:30
</desc></wpt>
<wpt lat = "51.50967" lon = "-0.07567"><name>CSLA1</name><desc>Tower Hill - Mile 1.8 of 30 / 60 / 100
Images:14414
First:26.05.2024 05:57:04
Last:26.05.2024 08:46:35
Duration:02:49:31
</desc></wpt>
<wpt lat = "51.50967" lon = "-0.07567"><name>CSTN1</name><desc>Tower Hill - Mile 1.8 of 30 / 60 / 100
Images:23233
First:26.05.2024 05:58:18
Last:26.05.2024 08:50:25
Duration:02:52:07
</desc></wpt>
<wpt lat = "51.50967" lon = "-0.07567"><name>DSHAK1</name><desc>Tower Hill - Mile 1.8 of 30 / 60 / 100
Images:3347
First:26.05.2024 05:59:02
Last:26.05.2024 07:57:06
Duration:01:58:04
</desc></wpt>
<wpt lat = "51.50967" lon = "-0.07567"><name>DWIC1</name><desc>Tower Hill - Mile 1.8 of 30 / 60 / 100
Images:49910
First:26.05.2024 05:46:36
Last:26.05.2024 08:53:01
Duration:03:06:25
</desc></wpt>
<wpt lat = "51.5079" lon = "-0.07413"><name>CDAKE2</name><desc>Tower of London - Mile 34.8 of 30 / 62.4 of 60 / 103.2 of 100
Images:32814
First:26.05.2024 09:41:09
Last:26.05.2024 18:49:49
Duration:09:08:40
</desc></wpt>
<wpt lat = "51.5079" lon = "-0.07413"><name>CDAKE2LS1</name><desc>Tower of London - Mile 34.8 of 30 / 62.4 of 60 / 103.2 of 100
Images:11761
First:26.05.2024 09:10:05
Last:26.05.2024 18:27:57
Duration:09:17:52
</desc></wpt>
<wpt lat = "51.5079" lon = "-0.07413"><name>CSTN2</name><desc>Tower of London - Mile 34.8 of 30 / 62.4 of 60 / 103.2 of 100
Images:32363
First:26.05.2024 09:20:42
Last:26.05.2024 18:53:28
Duration:09:32:46
</desc></wpt>
<wpt lat = "51.62068" lon = "0.02772"><name>BKYY1</name><desc>Woodford Green - Mile 18.5 of All / 46.3 of 60 & 87 of 100
Images:47384
First:26.05.2024 06:10:10
Last:26.05.2024 17:37:23
Duration:11:27:13
</desc></wpt>
<wpt lat = "51.62068" lon = "0.02772"><name>BPAUH1</name><desc>Woodford Green - Mile 18.5 of All / 46.3 of 60 & 87 of 100
Images:27350
First:26.05.2024 05:25:56
Last:26.05.2024 17:37:43
Duration:12:11:47
</desc></wpt>
</gpx>