<?xml version='1.0' encoding='utf-8'?>
<gpx version="1.1" creator="Infofile GPX Generator">
<wpt lat = "51.23493" lon = "6.77175"><name>FMT1</name><desc>Start
Images:2265
First:27.04.2025 07:19:35
Last:27.04.2025 09:00:43
Duration:01:41:08
</desc></wpt>
<wpt lat = "51.23535" lon = "6.7779"><name>AG1</name><desc>1,0 km
Images:4635
First:27.04.2025 08:05:40
Last:27.04.2025 09:40:25
Duration:01:34:45
</desc></wpt>
<wpt lat = "51.22303" lon = "6.77916"><name>WEN1</name><desc>2,5 km Königsallee (Kö-Galerie)
Images:13219
First:27.11.2020 07:30:58
Last:27.04.2025 13:16:32
Duration:1612.05:45:34
</desc></wpt>
<wpt lat = "51.23535" lon = "6.7779"><name>AG1DRONE1</name><desc>Impressions / Pano
Images:23
First:27.04.2025 08:57:36
Last:27.04.2025 09:05:52
Duration:00:08:16
</desc></wpt>
<wpt lat = "51.22552" lon = "6.77851"><name>JTA1</name><desc>3,0 km Königsallee
Images:4087
First:27.04.2025 08:33:36
Last:27.04.2025 13:19:01
Duration:04:45:25
</desc></wpt>
<wpt lat = "51.2156" lon = "6.7629"><name>MARSC1</name><desc>3,5km vor dem Ziel (Stadttor)
Images:12151
First:27.04.2025 06:01:38
Last:27.04.2025 15:16:35
Duration:09:14:57
</desc></wpt>
<wpt lat = "51.22981" lon = "6.77769"><name>NKR1</name><desc>km4/21, km25/42 (Ratinger Tor)
Images:6375
First:27.04.2025 07:10:20
Last:27.04.2025 13:27:23
Duration:06:17:03
</desc></wpt>
<wpt lat = "51.23172" lon = "6.77057"><name>FMT2</name><desc>13,0 km Tonhalle (Marathon)
Images:12576
First:27.04.2025 09:59:44
Last:27.04.2025 12:03:35
Duration:02:03:51
</desc></wpt>
<wpt lat = "51.2317" lon = "6.76358"><name>AG2</name><desc>14,0 km Luegplatz (Marathon)
Images:341
First:27.04.2025 09:40:34
Last:27.04.2025 10:20:49
Duration:00:40:15
</desc></wpt>
<wpt lat = "51.23032" lon = "6.76256"><name>AG3</name><desc>19,0 km Oberkassel (Marathon)
Images:19890
First:27.04.2025 10:29:11
Last:27.04.2025 12:46:18
Duration:02:17:07
</desc></wpt>
<wpt lat = "51.22974" lon = "6.78733"><name>PMC1</name><desc>9km vor dem Ziel (Hofgarten)
Images:9824
First:27.04.2025 08:56:28
Last:27.04.2025 14:39:29
Duration:05:43:01
</desc></wpt>
<wpt lat = "51.21629" lon = "6.75929"><name>SJA1</name><desc>4km vor dem Ziel (Zollhof)
Images:25339
First:27.04.2025 08:33:10
Last:27.04.2025 15:13:44
Duration:06:40:34
</desc></wpt>
<wpt lat = "51.21629" lon = "6.75929"><name>SJA1LS1</name><desc>4km vor dem Ziel (Zollhof)
Images:12401
First:27.04.2025 08:58:03
Last:27.04.2025 14:58:59
Duration:06:00:56
</desc></wpt>
<wpt lat = "51.21913" lon = "6.77764"><name>BENP1</name><desc>2,2km vor dem Ziel (Graf-Adolf-Platz)
Images:10720
First:27.04.2025 08:59:21
Last:27.04.2025 15:29:37
Duration:06:30:16
</desc></wpt>
<wpt lat = "51.22079" lon = "6.76656"><name>STL1</name><desc>1km vor dem Ziel (Apollowiese)
Images:16019
First:27.04.2025 09:05:05
Last:27.04.2025 15:59:39
Duration:06:54:34
</desc></wpt>
<wpt lat = "51.2234" lon = "6.7687"><name>VL1</name><desc>Finish
Images:15209
First:27.04.2025 09:18:02
Last:27.04.2025 16:14:58
Duration:06:56:56
</desc></wpt>
<wpt lat = "51.2234" lon = "6.7687"><name>VL1LS1</name><desc>Finish
Images:14899
First:27.04.2025 08:33:29
Last:27.04.2025 16:06:45
Duration:07:33:16
</desc></wpt>
</gpx>