<?xml version='1.0' encoding='utf-8'?>
<gpx version="1.1" creator="Infofile GPX Generator">
<wpt lat = "47.06085" lon = "15.43541"><name>ADRO1</name><desc>Obstacle 25 Monkeyland
Images:10677
First:21.06.2025 05:30:12
Last:21.06.2025 20:00:27
Duration:14:30:15
</desc></wpt>
<wpt lat = "47.06085" lon = "15.43541"><name>SRO1</name><desc>Obstacle 25 Monkeyland
Images:5720
First:21.06.2025 08:26:51
Last:21.06.2025 19:57:21
Duration:11:30:30
</desc></wpt>
<wpt lat = "47.07080" lon = "15.43582"><name>ADS1</name><desc>Obstacle 7 Antenne Soundkistn
Images:8183
First:21.06.2025 13:30:37
Last:21.06.2025 18:31:55
Duration:05:01:18
</desc></wpt>
<wpt lat = "47.07080" lon = "15.43582"><name>JOTO1</name><desc>Obstacle 7 Antenne Soundkistn
Images:3707
First:20.06.2025 21:08:08
Last:21.06.2025 18:31:55
Duration:21:23:47
</desc></wpt>
<wpt lat = "47.05858" lon = "15.43448"><name>AHU1</name><desc>Obstacle 24 Bagjump
Images:12061
First:21.06.2025 13:10:11
Last:21.06.2025 19:08:01
Duration:05:57:50
</desc></wpt>
<wpt lat = "47.06036" lon = "15.43532"><name>ISM1</name><desc>Obstacle 24 Bagjump
Images:2043
First:21.06.2025 07:27:02
Last:21.06.2025 17:22:54
Duration:09:55:52
</desc></wpt>
<wpt lat = "47.06298" lon = "15.43552"><name>ASTU1</name><desc>Obstacle 4 Hupf in Gatsch
Images:12729
First:21.06.2025 13:32:15
Last:21.06.2025 18:11:55
Duration:04:39:40
</desc></wpt>
<wpt lat = "47.06298" lon = "15.43552"><name>NAG1</name><desc>Obstacle 4 Hupf in Gatsch
Images:6886
First:21.06.2025 12:39:16
Last:21.06.2025 18:11:35
Duration:05:32:19
</desc></wpt>
<wpt lat = "47.07321" lon = "15.43715"><name>HKA1</name><desc>Obstacle 10 Vorsciht STufe
Images:10095
First:21.06.2025 13:26:57
Last:21.06.2025 18:40:22
Duration:05:13:25
</desc></wpt>
<wpt lat = "47.06085" lon = "15.43561"><name>HSA1</name><desc>Finish
Images:12258
First:21.06.2025 12:45:01
Last:21.06.2025 20:09:43
Duration:07:24:42
</desc></wpt>
<wpt lat = "47.07374" lon = "15.44099"><name>JUS1</name><desc>Obstacle 12 Rutschparty
Images:11846
First:21.06.2025 13:25:12
Last:21.06.2025 19:22:19
Duration:05:57:07
</desc></wpt>
<wpt lat = "47.06320" lon = "15.43536"><name>SDS1</name><desc>Obstacle 22 Wand4Panier
Images:35426
First:20.06.2025 21:42:24
Last:21.06.2025 18:36:56
Duration:20:54:32
</desc></wpt>
</gpx>