<?xml version='1.0' encoding='utf-8'?>
<gpx version="1.1" creator="Infofile GPX Generator">
<wpt lat = "51.67494" lon = "-4.70427"><name>JNI1</name><desc>Swim - Start
Images:3354
First:21.09.2025 06:48:54
Last:21.09.2025 09:17:09
Duration:02:28:15
</desc></wpt>
<wpt lat = "51.67494" lon = "-4.70427"><name>KU1</name><desc>Swim - Start
Images:3086
First:21.09.2025 06:39:39
Last:21.09.2025 07:54:31
Duration:01:14:52
</desc></wpt>
<wpt lat = "51.67494" lon = "-4.70427"><name>PAUH1</name><desc>Swim - Start
Images:4076
First:21.09.2025 06:41:00
Last:21.09.2025 07:59:57
Duration:01:18:57
</desc></wpt>
<wpt lat = "51.67494" lon = "-4.70427"><name>MALV1</name><desc>Swim-start
Images:3041
First:21.09.2025 06:49:13
Last:21.09.2025 07:50:22
Duration:01:01:09
</desc></wpt>
<wpt lat = "51.67494" lon = "-4.70427"><name>DAWH1</name><desc>Swim-start
Images:709
First:21.09.2025 06:55:18
Last:21.09.2025 07:50:05
Duration:00:54:47
</desc></wpt>
<wpt lat = "51.67525" lon = "-4.70391"><name>JNI2</name><desc>Swim-exit
Images:748
First:21.09.2025 06:55:01
Last:21.09.2025 09:56:20
Duration:03:01:19
</desc></wpt>
<wpt lat = "51.67525" lon = "-4.70391"><name>KU2</name><desc>Swim-exit
Images:5195
First:21.09.2025 07:54:51
Last:21.09.2025 10:02:10
Duration:02:07:19
</desc></wpt>
<wpt lat = "51.67525" lon = "-4.70391"><name>MALV2</name><desc>Swim-exit
Images:9124
First:21.09.2025 07:53:52
Last:21.09.2025 10:06:09
Duration:02:12:17
</desc></wpt>
<wpt lat = "51.66561" lon = "-5.06420"><name>AHO1</name><desc>Bike - Transition zone
Images:4134
First:20.09.2025 22:10:03
Last:21.09.2025 12:20:00
Duration:14:09:57
</desc></wpt>
<wpt lat = "51.65427" lon = "-5.06070"><name>JUW1</name><desc>Bike-Downhill beach
Images:8739
First:21.09.2025 09:25:47
Last:21.09.2025 11:44:59
Duration:02:19:12
</desc></wpt>
<wpt lat = "51.65427" lon = "-5.06070"><name>JUW1LS1</name><desc>Bike-Downhill beach
Images:992
First:21.09.2025 07:45:10
Last:21.09.2025 11:26:52
Duration:03:41:42
</desc></wpt>
<wpt lat = "51.65427" lon = "-5.06070"><name>JUW1LS2</name><desc>Bike-Downhill beach
Images:1335
First:21.09.2025 07:45:14
Last:21.09.2025 11:23:37
Duration:03:38:23
</desc></wpt>
<wpt lat = "51.65427" lon = "-5.06070"><name>JUW1DRONE1</name><desc>various
Images:21
First:21.09.2025 08:48:02
Last:21.09.2025 13:29:46
Duration:04:41:44
</desc></wpt>
<wpt lat = "51.66561" lon = "-5.06420"><name>ALPU1</name><desc>Bike-Freshwater beach
Images:2749
First:21.09.2025 10:47:32
Last:21.09.2025 12:05:56
Duration:01:18:24
</desc></wpt>
<wpt lat = "51.69942" lon = "-4.82866"><name>ALPU2</name><desc>Bike-Carew castle
Images:2225
First:21.09.2025 13:01:45
Last:21.09.2025 14:39:46
Duration:01:38:01
</desc></wpt>
<wpt lat = "51.69944" lon = "-4.82885"><name>JUW2</name><desc>Bike-Carew castle
Images:8936
First:21.09.2025 13:33:37
Last:21.09.2025 16:11:56
Duration:02:38:19
</desc></wpt>
<wpt lat = "51.69944" lon = "-4.82885"><name>JUW2LS1</name><desc>Bike-Carew castle
Images:1145
First:21.09.2025 13:05:40
Last:21.09.2025 15:59:06
Duration:02:53:26
</desc></wpt>
<wpt lat = "51.69944" lon = "-4.82885"><name>JUW2LS2</name><desc>Bike-Carew castle
Images:1981
First:21.09.2025 13:09:55
Last:21.09.2025 16:00:32
Duration:02:50:37
</desc></wpt>
<wpt lat = "51.72250" lon = "-4.68913"><name>PAUH2</name><desc>Bike-Wiseman bridge
Images:10996
First:21.09.2025 11:30:58
Last:21.09.2025 18:05:43
Duration:06:34:45
</desc></wpt>
<wpt lat = "51.70903" lon = "-4.69848"><name>DAWH2</name><desc>Bike-Heartbreak hill
Images:19119
First:21.09.2025 11:36:31
Last:21.09.2025 18:22:55
Duration:06:46:24
</desc></wpt>
<wpt lat = "51.66971" lon = "-4.70558"><name>KU3</name><desc>Run - Transition zone
Images:849
First:21.09.2025 11:48:30
Last:21.09.2025 15:17:51
Duration:03:29:21
</desc></wpt>
<wpt lat = "51.66971" lon = "-4.70558"><name>KU3LS1</name><desc>Run - Transition zone
Images:768
First:21.09.2025 12:34:54
Last:21.09.2025 15:23:56
Duration:02:49:02
</desc></wpt>
<wpt lat = "51.66971" lon = "-4.70558"><name>JNI3</name><desc>Run - Transition zone
Images:1986
First:20.09.2025 22:15:14
Last:21.09.2025 15:33:30
Duration:17:18:16
</desc></wpt>
<wpt lat = "51.67440" lon = "-4.70473"><name>MALV3</name><desc>Run-The Norton
Images:6949
First:21.09.2025 12:46:14
Last:21.09.2025 17:16:19
Duration:04:30:05
</desc></wpt>
<wpt lat = "51.67094" lon = "-4.70310"><name>AHO2</name><desc>Run-S Parade Castle Wall
Images:4979
First:21.09.2025 12:49:25
Last:21.09.2025 16:40:44
Duration:03:51:19
</desc></wpt>
<wpt lat = "51.67089" lon = "-4.70105"><name>AHO3</name><desc>Run-Cresswell St
Images:11750
First:21.09.2025 17:04:58
Last:21.09.2025 23:32:49
Duration:06:27:51
</desc></wpt>
<wpt lat = "51.67188" lon = "-4.69928"><name>MALV4</name><desc>Run-Bridge St
Images:7514
First:21.09.2025 17:42:17
Last:21.09.2025 23:31:10
Duration:05:48:53
</desc></wpt>
<wpt lat = "51.67388" lon = "-4.70448"><name>DAWH3</name><desc>Run-The Croft
Images:2082
First:21.09.2025 20:23:43
Last:21.09.2025 23:47:16
Duration:03:23:33
</desc></wpt>
<wpt lat = "51.66889" lon = "-4.70429"><name>JNI4</name><desc>Finish
Images:1442
First:21.09.2025 15:54:53
Last:22.09.2025 00:42:42
Duration:08:47:49
</desc></wpt>
<wpt lat = "51.66889" lon = "-4.70429"><name>JNI4LS1</name><desc>Finish
Images:2858
First:21.09.2025 16:20:01
Last:22.09.2025 00:33:44
Duration:08:13:43
</desc></wpt>
<wpt lat = "51.66889" lon = "-4.70429"><name>KU4</name><desc>Finish
Images:14989
First:21.09.2025 15:46:43
Last:22.09.2025 00:51:45
Duration:09:05:02
</desc></wpt>
<wpt lat = "51.66889" lon = "-4.70429"><name>KU4LS1</name><desc>Finish
Images:2690
First:21.09.2025 12:27:04
Last:22.09.2025 00:35:27
Duration:12:08:23
</desc></wpt>
<wpt lat = "51.66889" lon = "-4.70429"><name>KU4LS2</name><desc>Finish
Images:6746
First:21.09.2025 17:04:33
Last:22.09.2025 00:42:14
Duration:07:37:41
</desc></wpt>
<wpt lat = "51.66889" lon = "-4.70429"><name>PAUH3</name><desc>Finish
Images:1664
First:21.09.2025 22:18:15
Last:22.09.2025 00:31:12
Duration:02:12:57
</desc></wpt>
</gpx>