<?xml version='1.0' encoding='utf-8'?>
<gpx version="1.1" creator="Infofile GPX Generator">
<wpt lat = "42.50541" lon = "-0.35785"><name>RAH1</name><desc>Start
Images:262
First:20.06.2025 23:46:55
Last:21.06.2025 10:26:32
Duration:10:39:37
</desc></wpt>
<wpt lat = "43.06125" lon = "-0.47837"><name>MANR1</name><desc>QH Km 102
Images:12518
First:21.06.2025 09:27:31
Last:21.06.2025 13:33:19
Duration:04:05:48
</desc></wpt>
<wpt lat = "43.06125" lon = "-0.47837"><name>MANR1LS1</name><desc>QH Km 102
Images:4164
First:21.06.2025 08:48:58
Last:21.06.2025 13:33:42
Duration:04:44:44
</desc></wpt>
<wpt lat = "43.06125" lon = "-0.47837"><name>MANR1DRONE1</name><desc>Impressions / Pano
Images:10
First:21.06.2025 09:11:40
Last:21.06.2025 10:19:23
Duration:01:07:43
</desc></wpt>
<wpt lat = "43.06125" lon = "-0.47837"><name>JLTG1</name><desc>QH Km 104
Images:12165
First:21.06.2025 09:14:25
Last:21.06.2025 13:43:17
Duration:04:28:52
</desc></wpt>
<wpt lat = "43.06125" lon = "-0.47837"><name>JLTG1LS2</name><desc>QH Km 104
Images:6435
First:21.06.2025 08:38:51
Last:21.06.2025 13:47:25
Duration:05:08:34
</desc></wpt>
<wpt lat = "43.06125" lon = "-0.47837"><name>JLTG1LS1</name><desc>QH Km 104
Images:6455
First:21.06.2025 08:28:21
Last:21.06.2025 13:45:22
Duration:05:17:01
</desc></wpt>
<wpt lat = "43.06217" lon = "-0.45599"><name>TGM1</name><desc>QH Km 105
Images:12767
First:21.06.2025 09:33:09
Last:21.06.2025 13:43:53
Duration:04:10:44
</desc></wpt>
<wpt lat = "43.06217" lon = "-0.45599"><name>TGM1LS2</name><desc>QH Km 105
Images:6052
First:21.06.2025 09:01:15
Last:21.06.2025 13:53:25
Duration:04:52:10
</desc></wpt>
<wpt lat = "43.06217" lon = "-0.45599"><name>TGM1LS1</name><desc>QH Km 105
Images:4121
First:21.06.2025 08:47:57
Last:21.06.2025 12:48:32
Duration:04:00:35
</desc></wpt>
<wpt lat = "43.06217" lon = "-0.45599"><name>MIFP1</name><desc>QH Km 107
Images:18520
First:01.01.0001 23:00:00
Last:21.06.2025 14:04:54
Duration:739421.15:04:54
</desc></wpt>
<wpt lat = "43.06217" lon = "-0.45599"><name>MIFP1LS1</name><desc>QH Km 107
Images:6444
First:21.06.2025 05:50:38
Last:21.06.2025 13:55:24
Duration:08:04:46
</desc></wpt>
<wpt lat = "42.88348" lon = "-0.40314"><name>STO1</name><desc>QH Km 135
Images:13766
First:21.06.2025 09:15:00
Last:21.06.2025 15:48:07
Duration:06:33:07
</desc></wpt>
<wpt lat = "42.88348" lon = "-0.40314"><name>STO1LS1</name><desc>QH Km 135
Images:10738
First:21.06.2025 10:49:16
Last:21.06.2025 15:52:56
Duration:05:03:40
</desc></wpt>
<wpt lat = "42.8589" lon = "-0.39196"><name>RAVE1</name><desc>QH Km 139
Images:17487
First:21.06.2025 08:45:43
Last:21.06.2025 16:13:45
Duration:07:28:02
</desc></wpt>
<wpt lat = "42.82194" lon = "-0.40572"><name>MCAS1</name><desc>QH Km 145
Images:10425
First:21.06.2025 08:12:59
Last:21.06.2025 16:31:15
Duration:08:18:16
</desc></wpt>
<wpt lat = "42.80871" lon = "-0.41795"><name>ATRE1</name><desc>QH Km 147
Images:23554
First:21.06.2025 08:12:59
Last:21.06.2025 17:34:13
Duration:09:21:14
</desc></wpt>
<wpt lat = "42.69038" lon = "-0.3105"><name>JCR2</name><desc>QH Km 170
Images:8913
First:21.06.2025 12:02:36
Last:21.06.2025 17:09:10
Duration:05:06:34
</desc></wpt>
<wpt lat = "42.69038" lon = "-0.3105"><name>JCR2LS1</name><desc>QH Km 170
Images:6346
First:21.06.2025 11:30:07
Last:21.06.2025 17:15:09
Duration:05:45:02
</desc></wpt>
<wpt lat = "42.68757" lon = "-0.30816"><name>AFGA2</name><desc>QH Km 172
Images:9810
First:21.06.2025 11:41:33
Last:21.06.2025 17:11:52
Duration:05:30:19
</desc></wpt>
<wpt lat = "42.68757" lon = "-0.30816"><name>AFGA2LS1</name><desc>QH Km 172
Images:6167
First:21.06.2025 11:27:13
Last:21.06.2025 17:17:21
Duration:05:50:08
</desc></wpt>
<wpt lat = "42.68075" lon = "-0.31681"><name>JIA2</name><desc>QH Km 173
Images:9421
First:21.06.2025 11:30:18
Last:21.06.2025 17:18:32
Duration:05:48:14
</desc></wpt>
<wpt lat = "42.63313" lon = "-0.32772"><name>OHO2</name><desc>QH Km 179
Images:3840
First:21.06.2025 11:55:56
Last:21.06.2025 18:13:22
Duration:06:17:26
</desc></wpt>
<wpt lat = "42.63313" lon = "-0.32772"><name>ANC2</name><desc>QH Km 179
Images:10136
First:21.06.2025 12:06:41
Last:21.06.2025 18:13:40
Duration:06:06:59
</desc></wpt>
<wpt lat = "42.63313" lon = "-0.32772"><name>JPBR2</name><desc>QH Km 179
Images:9964
First:21.06.2025 12:19:29
Last:21.06.2025 18:12:51
Duration:05:53:22
</desc></wpt>
<wpt lat = "42.62225" lon = "-0.30508"><name>JIA1</name><desc>TR Km 21
Images:2573
First:21.06.2025 07:18:16
Last:21.06.2025 09:45:16
Duration:02:27:00
</desc></wpt>
<wpt lat = "42.6203" lon = "-0.28205"><name>AFGA1</name><desc>TR Km 23
Images:2957
First:21.06.2025 08:49:09
Last:21.06.2025 09:58:38
Duration:01:09:29
</desc></wpt>
<wpt lat = "42.6203" lon = "-0.28205"><name>AFGA1LS1</name><desc>TR Km 23
Images:1493
First:21.06.2025 08:15:06
Last:21.06.2025 11:24:49
Duration:03:09:43
</desc></wpt>
<wpt lat = "42.62045" lon = "-0.27527"><name>JCR1</name><desc>TR Km 24
Images:1599
First:21.06.2025 07:43:35
Last:21.06.2025 09:59:10
Duration:02:15:35
</desc></wpt>
<wpt lat = "42.62045" lon = "-0.27527"><name>JCR1LS1</name><desc>TR Km 24
Images:1416
First:21.06.2025 07:38:45
Last:21.06.2025 10:00:43
Duration:02:21:58
</desc></wpt>
<wpt lat = "42.62716" lon = "-0.2329"><name>JPBR1</name><desc>TR Km 28
Images:4702
First:21.06.2025 08:24:48
Last:21.06.2025 10:19:17
Duration:01:54:29
</desc></wpt>
<wpt lat = "42.61581" lon = "-0.19907"><name>OHO1</name><desc>TR Km 33
Images:3327
First:21.06.2025 08:36:22
Last:21.06.2025 11:02:42
Duration:02:26:20
</desc></wpt>
<wpt lat = "42.6189" lon = "-0.19715"><name>ANC1</name><desc>TR Km 34
Images:4251
First:20.06.2025 23:49:28
Last:21.06.2025 11:03:26
Duration:11:13:58
</desc></wpt>
<wpt lat = "42.6189" lon = "-0.19715"><name>ANC1LS1</name><desc>TR Km 34
Images:1599
First:20.06.2025 23:53:05
Last:21.06.2025 11:03:26
Duration:11:10:21
</desc></wpt>
<wpt lat = "42.50487" lon = "-0.35597"><name>RAH2LS1</name><desc>Finish
Images:7210
First:20.06.2025 23:50:14
Last:21.06.2025 18:57:08
Duration:19:06:54
</desc></wpt>
<wpt lat = "42.50487" lon = "-0.35597"><name>RAH2</name><desc>Finish
Images:12901
First:21.06.2025 10:26:33
Last:21.06.2025 18:52:06
Duration:08:25:33
</desc></wpt>
</gpx>