<?xml version='1.0' encoding='utf-8'?>
<gpx version="1.1" creator="Infofile GPX Generator">
<wpt lat = "50.76859" lon = "5.78950"><name>LV1</name><desc>8,0 km
Images:4367
First:25.10.2025 08:37:40
Last:25.10.2025 11:13:26
Duration:02:35:46
</desc></wpt>
<wpt lat = "50.76406" lon = "5.78568"><name>MK1</name><desc>9,0 km
Images:2554
First:25.10.2025 08:38:57
Last:25.10.2025 12:29:34
Duration:03:50:37
</desc></wpt>
<wpt lat = "50.76406" lon = "5.78568"><name>MK1DRONE1</name><desc>9,0 km
Images:27
First:25.10.2025 10:28:48
Last:25.10.2025 16:59:38
Duration:06:30:50
</desc></wpt>
<wpt lat = "50.75856" lon = "5.88118"><name>MAW1</name><desc>25,0 km
Images:1119
First:25.10.2025 08:12:08
Last:25.10.2025 09:54:04
Duration:01:41:56
</desc></wpt>
<wpt lat = "50.75856" lon = "5.88118"><name>MAW1LS1</name><desc>25,0 km
Images:520
First:25.10.2025 07:40:41
Last:25.10.2025 10:03:45
Duration:02:23:04
</desc></wpt>
<wpt lat = "50.75856" lon = "5.88118"><name>MAW1LS2</name><desc>25,0 km
Images:512
First:25.10.2025 07:50:23
Last:25.10.2025 10:00:12
Duration:02:09:49
</desc></wpt>
<wpt lat = "50.76474" lon = "5.91328"><name>SIL1</name><desc>29,5 km
Images:1730
First:25.10.2025 08:20:33
Last:25.10.2025 10:55:50
Duration:02:35:17
</desc></wpt>
<wpt lat = "50.76968" lon = "5.92019"><name>HM1</name><desc>30,2 km
Images:2208
First:25.10.2025 08:38:05
Last:25.10.2025 10:59:39
Duration:02:21:34
</desc></wpt>
<wpt lat = "50.76968" lon = "5.92019"><name>HM1DRONE1</name><desc>30,2 km
Images:19
First:25.10.2025 09:52:55
Last:25.10.2025 19:43:49
Duration:09:50:54
</desc></wpt>
<wpt lat = "50.76968" lon = "5.92019"><name>HM1LS1</name><desc>30,2 km
Images:651
First:25.10.2025 08:15:01
Last:25.10.2025 11:06:28
Duration:02:51:27
</desc></wpt>
<wpt lat = "50.76968" lon = "5.92019"><name>HM1LS2</name><desc>30,2 km
Images:620
First:25.10.2025 08:19:00
Last:25.10.2025 11:05:49
Duration:02:46:49
</desc></wpt>
<wpt lat = "50.75083" lon = "5.90378"><name>MAW2</name><desc>31,0 km 57,0km, 73,0km
Images:3828
First:25.10.2025 11:16:51
Last:25.10.2025 14:31:55
Duration:03:15:04
</desc></wpt>
<wpt lat = "50.75083" lon = "5.90378"><name>MAW2LS1</name><desc>31,0 km 57,0km, 73,0km
Images:1831
First:25.10.2025 10:58:53
Last:25.10.2025 14:38:27
Duration:03:39:34
</desc></wpt>
<wpt lat = "50.75083" lon = "5.90378"><name>MAW2LS2</name><desc>31,0 km 57,0km, 73,0km
Images:420
First:25.10.2025 10:27:27
Last:25.10.2025 14:41:28
Duration:04:14:01
</desc></wpt>
<wpt lat = "50.74310" lon = "5.80238"><name>MK2</name><desc>5,0 km before finish
Images:8402
First:25.10.2025 12:42:03
Last:25.10.2025 19:27:41
Duration:06:45:38
</desc></wpt>
<wpt lat = "50.74319" lon = "5.80130"><name>LV2</name><desc>4,5 km before finish
Images:8506
First:25.10.2025 12:05:09
Last:25.10.2025 19:29:45
Duration:07:24:36
</desc></wpt>
<wpt lat = "50.75137" lon = "5.77073"><name>HM2</name><desc>2,5 km before finish
Images:3633
First:25.10.2025 12:46:52
Last:25.10.2025 18:52:23
Duration:06:05:31
</desc></wpt>
<wpt lat = "50.75137" lon = "5.77073"><name>HM2LS2</name><desc>2,5 km before finish
Images:1765
First:25.10.2025 12:15:59
Last:25.10.2025 18:25:18
Duration:06:09:19
</desc></wpt>
<wpt lat = "50.75137" lon = "5.77073"><name>HM2LS1</name><desc>2,5 km before finish
Images:2722
First:25.10.2025 12:01:39
Last:25.10.2025 19:51:08
Duration:07:49:29
</desc></wpt>
<wpt lat = "50.75195" lon = "5.75383"><name>SIL2</name><desc>Finish
Images:5480
First:25.10.2025 12:29:37
Last:25.10.2025 20:21:32
Duration:07:51:55
</desc></wpt>
<wpt lat = "50.75195" lon = "5.75383"><name>MAW3</name><desc>Finish
Images:853
First:25.10.2025 15:15:44
Last:25.10.2025 19:52:25
Duration:04:36:41
</desc></wpt>
<wpt lat = "50.75195" lon = "5.75383"><name>MAW3LS1</name><desc>Finish
Images:443
First:25.10.2025 17:42:16
Last:25.10.2025 20:04:58
Duration:02:22:42
</desc></wpt>
</gpx>