<?xml version='1.0' encoding='utf-8'?>
<gpx version="1.1" creator="Infofile GPX Generator">
<wpt lat = "15.49972" lon = "73.83392"><name>AMG1</name><desc>Bike - 38,0 km
Images:4660
First:09.11.2025 05:06:22
Last:09.11.2025 08:04:14
Duration:02:57:52
</desc></wpt>
<wpt lat = "15.48209" lon = "73.80887"><name>AMG2</name><desc>Bike - 86,0 km Atal Setu Goa Bridge Background
Images:5672
First:09.11.2025 08:48:48
Last:09.11.2025 14:53:50
Duration:06:05:02
</desc></wpt>
<wpt lat = "15.47863" lon = "73.80606"><name>KADE1</name><desc>Swim - Transition zone Swim Finish
Images:825
First:09.11.2025 04:58:02
Last:09.11.2025 08:04:52
Duration:03:06:50
</desc></wpt>
<wpt lat = "15.47863" lon = "73.80606"><name>SAUS3</name><desc>Swim - Transition zone Swim Finish
Images:639
First:09.11.2025 05:31:22
Last:09.11.2025 06:16:01
Duration:00:44:39
</desc></wpt>
<wpt lat = "15.47863" lon = "73.80606"><name>PASA2</name><desc>Swim - Transition zone Swim Finish
Images:2077
First:09.11.2025 06:24:48
Last:09.11.2025 08:12:00
Duration:01:47:12
</desc></wpt>
<wpt lat = "15.47863" lon = "73.80606"><name>KADE1DRONE1</name><desc>Swim - Start
Images:94
First:09.11.2025 04:48:18
Last:09.11.2025 14:01:40
Duration:09:13:22
</desc></wpt>
<wpt lat = "15.47863" lon = "73.80606"><name>MUP1</name><desc>Swim - Start
Images:1527
First:09.11.2025 05:49:49
Last:09.11.2025 06:15:37
Duration:00:25:48
</desc></wpt>
<wpt lat = "15.47863" lon = "73.80606"><name>PASA1</name><desc>Swim - Start
Images:2262
First:09.11.2025 05:22:24
Last:09.11.2025 06:24:30
Duration:01:02:06
</desc></wpt>
<wpt lat = "15.47863" lon = "73.80606"><name>SAUS1</name><desc>Swim - Start
Images:3237
First:09.11.2025 06:23:22
Last:09.11.2025 07:26:08
Duration:01:02:46
</desc></wpt>
<wpt lat = "15.47723" lon = "73.80831"><name>KADE2</name><desc>Run - 0,0 km
Images:5928
First:09.11.2025 08:40:17
Last:09.11.2025 16:03:56
Duration:07:23:39
</desc></wpt>
<wpt lat = "15.49481" lon = "73.81853"><name>MADG1</name><desc>Bike - 24,0 km Near Kala Academy
Images:7254
First:09.11.2025 05:44:23
Last:09.11.2025 11:49:09
Duration:06:04:46
</desc></wpt>
<wpt lat = "15.47032" lon = "73.80774"><name>MADG2</name><desc>Run - 15,0 km
Images:770
First:09.11.2025 12:37:51
Last:09.11.2025 14:45:16
Duration:02:07:25
</desc></wpt>
<wpt lat = "15.48341" lon = "73.80860"><name>MUP2</name><desc>Bike - Transition zone
Images:925
First:09.11.2025 06:42:09
Last:09.11.2025 07:42:00
Duration:00:59:51
</desc></wpt>
<wpt lat = "15.48341" lon = "73.80860"><name>MUP2LS1</name><desc>Bike - Transition zone
Images:636
First:09.11.2025 06:31:43
Last:09.11.2025 07:43:45
Duration:01:12:02
</desc></wpt>
<wpt lat = "15.48341" lon = "73.80860"><name>MUP2LS2</name><desc>Bike - Transition zone
Images:629
First:09.11.2025 06:33:48
Last:09.11.2025 07:43:45
Duration:01:09:57
</desc></wpt>
<wpt lat = "15.48341" lon = "73.80860"><name>SAS1</name><desc>Bike - Transition zone
Images:4851
First:08.11.2025 21:18:27
Last:09.11.2025 08:53:47
Duration:11:35:20
</desc></wpt>
<wpt lat = "15.48209" lon = "73.80887"><name>MUP3</name><desc>Finish
Images:4948
First:09.11.2025 10:18:48
Last:09.11.2025 14:59:55
Duration:04:41:07
</desc></wpt>
<wpt lat = "15.48209" lon = "73.80887"><name>MUP3LS1</name><desc>Finish
Images:907
First:09.11.2025 10:02:31
Last:09.11.2025 14:58:34
Duration:04:56:03
</desc></wpt>
<wpt lat = "15.48209" lon = "73.80887"><name>MUP3LS2</name><desc>Finish
Images:1021
First:09.11.2025 10:02:32
Last:09.11.2025 15:02:15
Duration:04:59:43
</desc></wpt>
<wpt lat = "15.48209" lon = "73.80887"><name>PASA3</name><desc>Finish
Images:5387
First:09.11.2025 09:48:15
Last:09.11.2025 14:56:43
Duration:05:08:28
</desc></wpt>
<wpt lat = "15.48209" lon = "73.80887"><name>SAS2</name><desc>Finish
Images:5174
First:09.11.2025 09:45:09
Last:09.11.2025 14:56:50
Duration:05:11:41
</desc></wpt>
<wpt lat = "15.48209" lon = "73.80887"><name>SSR2</name><desc>Finish
Images:2040
First:09.11.2025 12:42:17
Last:09.11.2025 14:56:50
Duration:02:14:33
</desc></wpt>
<wpt lat = "15.46630" lon = "73.80649"><name>SAUS2</name><desc>Run - 2,0 km
Images:12626
First:09.11.2025 09:01:29
Last:09.11.2025 15:17:46
Duration:06:16:17
</desc></wpt>
<wpt lat = "15.41133" lon = "73.90701"><name>SSR1</name><desc>Bike - 21,0 km Zuari Bridge
Images:4136
First:09.11.2025 05:32:40
Last:09.11.2025 11:02:45
Duration:05:30:05
</desc></wpt>
</gpx>