<?xml version='1.0' encoding='utf-8'?>
<gpx version="1.1" creator="Infofile GPX Generator">
<wpt lat = "46.53738" lon = "12.13707"><name>BATI1</name><desc>Start
Images:171
First:27.09.2025 06:41:35
Last:27.09.2025 07:20:43
Duration:00:39:08
</desc></wpt>
<wpt lat = "46.52372" lon = "12.11248"><name>BATI3</name><desc>Start short
Images:249
First:27.09.2025 09:36:16
Last:27.09.2025 10:20:51
Duration:00:44:35
</desc></wpt>
<wpt lat = "46.53738" lon = "12.13707"><name>RAM1</name><desc>200m from start
Images:46
First:27.09.2025 06:39:35
Last:27.09.2025 07:13:06
Duration:00:33:31
</desc></wpt>
<wpt lat = "46.53738" lon = "12.13707"><name>NBE1</name><desc>100m from start
Images:112
First:27.09.2025 06:46:15
Last:27.09.2025 07:15:52
Duration:00:29:37
</desc></wpt>
<wpt lat = "46.50954" lon = "12.04776"><name>SALI1</name><desc>7,9km short - 21,6km long
Images:2559
First:27.09.2025 08:37:07
Last:27.09.2025 13:57:44
Duration:05:20:37
</desc></wpt>
<wpt lat = "46.50214" lon = "12.04371"><name>RSA1</name><desc>9km short - 22,3km long
Images:3108
First:26.09.2025 22:16:00
Last:27.09.2025 13:51:35
Duration:15:35:35
</desc></wpt>
<wpt lat = "46.50214" lon = "12.04371"><name>RSA1DRONE1</name><desc>9km short - 22,3km long
Images:7
First:27.09.2025 11:38:54
Last:27.09.2025 11:43:29
Duration:00:04:35
</desc></wpt>
<wpt lat = "46.52621" lon = "12.03755"><name>NBE2</name><desc>28.5 km long
Images:341
First:27.09.2025 10:15:32
Last:27.09.2025 14:47:44
Duration:04:32:12
</desc></wpt>
<wpt lat = "46.52850" lon = "12.04279"><name>RAM2</name><desc>26,5km medium, 29,5km long
Images:6260
First:27.09.2025 10:29:20
Last:27.09.2025 16:28:25
Duration:05:59:05
</desc></wpt>
<wpt lat = "46.52850" lon = "12.04279"><name>RAM2LS1</name><desc>26,5km medium, 29,5km long
Images:735
First:27.09.2025 09:36:40
Last:27.09.2025 16:43:54
Duration:07:07:14
</desc></wpt>
<wpt lat = "46.52850" lon = "12.04279"><name>RAM2LS2</name><desc>26,5km medium, 29,5km long
Images:789
First:27.09.2025 09:45:55
Last:27.09.2025 16:22:59
Duration:06:37:04
</desc></wpt>
<wpt lat = "46.52445" lon = "12.11214"><name>BATI2</name><desc>Finish
Images:4346
First:27.09.2025 10:39:59
Last:27.09.2025 17:35:09
Duration:06:55:10
</desc></wpt>
<wpt lat = "46.52445" lon = "12.11214"><name>BATI2LS1</name><desc>Finish
Images:270
First:27.09.2025 08:41:03
Last:27.09.2025 17:43:41
Duration:09:02:38
</desc></wpt>
</gpx>