<?xml version='1.0' encoding='utf-8'?>
<gpx version="1.1" creator="Infofile GPX Generator">
<wpt lat = "54.37263" lon = "13.69721"><name>MUM1</name><desc>Start
Images:323
First:18.10.2025 08:49:40
Last:18.10.2025 09:25:48
Duration:00:36:08
</desc></wpt>
<wpt lat = "54.37263" lon = "13.69721"><name>EHL1DRONE1</name><desc>Impressions / Pano
Images:57
First:18.10.2025 08:59:27
Last:19.10.2025 07:33:39
Duration:22:34:12
</desc></wpt>
<wpt lat = "54.37263" lon = "13.69721"><name>MOIK2</name><desc>Impressions / Pano
Images:178
First:18.10.2025 11:00:31
Last:18.10.2025 14:48:55
Duration:03:48:24
</desc></wpt>
<wpt lat = "54.37456" lon = "13.69446"><name>CM1</name><desc>0,4 km
Images:1617
First:18.10.2025 09:01:43
Last:18.10.2025 10:34:28
Duration:01:32:45
</desc></wpt>
<wpt lat = "54.37456" lon = "13.69446"><name>CM1LS1</name><desc>0,4 km
Images:961
First:18.10.2025 08:50:19
Last:18.10.2025 10:30:23
Duration:01:40:04
</desc></wpt>
<wpt lat = "54.38011" lon = "13.67436"><name>MOIK1</name><desc>1,9 km
Images:2862
First:18.10.2025 08:57:17
Last:18.10.2025 10:50:02
Duration:01:52:45
</desc></wpt>
<wpt lat = "54.3939" lon = "13.59922"><name>EHL1</name><desc>9,0 km
Images:3748
First:18.10.2025 10:17:17
Last:18.10.2025 12:37:59
Duration:02:20:42
</desc></wpt>
<wpt lat = "54.3939" lon = "13.59922"><name>EHL1LS1</name><desc>9,0 km
Images:2933
First:18.10.2025 10:09:14
Last:18.10.2025 12:40:01
Duration:02:30:47
</desc></wpt>
<wpt lat = "54.39970" lon = "13.60691"><name>MUM2</name><desc>10,0 km
Images:8686
First:18.10.2025 09:53:37
Last:18.10.2025 12:49:03
Duration:02:55:26
</desc></wpt>
<wpt lat = "54.47494" lon = "13.57148"><name>CFMP1</name><desc>36,1 km
Images:7293
First:18.10.2025 14:57:17
Last:18.10.2025 19:40:14
Duration:04:42:57
</desc></wpt>
<wpt lat = "54.39836" lon = "13.62650"><name>ABRI1</name><desc>47,0 km
Images:1276
First:18.10.2025 09:46:34
Last:18.10.2025 22:14:24
Duration:12:27:50
</desc></wpt>
<wpt lat = "54.38599" lon = "13.69202"><name>CM2</name><desc>52,5 km
Images:1701
First:18.10.2025 15:39:38
Last:18.10.2025 23:42:45
Duration:08:03:07
</desc></wpt>
<wpt lat = "54.38599" lon = "13.69202"><name>CM2LS1</name><desc>52,5 km
Images:882
First:18.10.2025 17:17:10
Last:18.10.2025 23:41:27
Duration:06:24:17
</desc></wpt>
<wpt lat = "54.38156" lon = "13.62845"><name>PSA2</name><desc>85,5 km
Images:35
First:19.10.2025 06:50:51
Last:19.10.2025 09:29:03
Duration:02:38:12
</desc></wpt>
<wpt lat = "54.35776" lon = "13.69619"><name>JZE2</name><desc>102,0 km
Images:2189
First:19.10.2025 06:50:34
Last:19.10.2025 11:06:00
Duration:04:15:26
</desc></wpt>
<wpt lat = "54.37263" lon = "13.69721"><name>PSA1</name><desc>Finish
Images:1823
First:18.10.2025 16:23:52
Last:19.10.2025 06:25:19
Duration:14:01:27
</desc></wpt>
<wpt lat = "54.37263" lon = "13.69721"><name>MOIK3</name><desc>Finish
Images:243
First:18.10.2025 23:53:19
Last:19.10.2025 06:43:13
Duration:06:49:54
</desc></wpt>
<wpt lat = "54.37263" lon = "13.69721"><name>JZE1LS1</name><desc>Finish
Images:4814
First:18.10.2025 17:03:50
Last:19.10.2025 07:39:29
Duration:14:35:39
</desc></wpt>
<wpt lat = "54.37263" lon = "13.69721"><name>CFMP2</name><desc>Finish
Images:1658
First:17.10.2025 20:30:00
Last:19.10.2025 13:18:17
Duration:1.16:48:17
</desc></wpt>
<wpt lat = "54.37263" lon = "13.69721"><name>JZE1</name><desc>Herotent
Images:854
First:18.10.2025 09:44:46
Last:18.10.2025 23:34:15
Duration:13:49:29
</desc></wpt>
<wpt lat = "54.37263" lon = "13.69721"><name>MUM3</name><desc>Herotent
Images:192
First:18.10.2025 23:52:43
Last:19.10.2025 06:45:01
Duration:06:52:18
</desc></wpt>
<wpt lat = "54.37263" lon = "13.69721"><name>ABRI2</name><desc>Herotent
Images:289
First:19.10.2025 07:07:54
Last:19.10.2025 13:24:12
Duration:06:16:18
</desc></wpt>
</gpx>