<?xml version='1.0' encoding='utf-8'?>
<gpx version="1.1" creator="Infofile GPX Generator">
<wpt lat = "33.63793" lon = "-84.69931"><name>GMAL1</name><desc>#1 KISS OF MUD
Images:1423
First:27.04.2025 08:48:29
Last:27.04.2025 10:41:00
Duration:01:52:31
</desc></wpt>
<wpt lat = "33.64750" lon = "-84.70051"><name>BESC1</name><desc>#15 BLOCK NESS MONSTER
Images:4360
First:31.12.2015 18:00:00
Last:31.12.2015 18:03:49
Duration:00:03:49
</desc></wpt>
<wpt lat = "33.64728" lon = "-84.70375"><name>STRO1</name><desc>#16 HANGING TOUGH
Images:2094
First:26.04.2025 07:23:13
Last:27.04.2025 14:23:22
Duration:1.07:00:09
</desc></wpt>
<wpt lat = "33.64713" lon = "-84.70712"><name>JAZZ1</name><desc>#18 CAGE CRAWL
Images:3845
First:26.04.2025 07:45:41
Last:27.04.2025 14:29:03
Duration:1.06:43:22
</desc></wpt>
<wpt lat = "33.64444" lon = "-84.71193"><name>RUHO1</name><desc>#19 JUST THE TIP
Images:2111
First:26.04.2025 07:27:43
Last:27.04.2025 14:40:26
Duration:1.07:12:43
</desc></wpt>
<wpt lat = "33.63925" lon = "-84.71063"><name>JMCK1</name><desc>#25 PYRAMID SCHEME
Images:3682
First:26.04.2025 07:45:31
Last:27.04.2025 16:10:07
Duration:1.08:24:36
</desc></wpt>
<wpt lat = "33.63805" lon = "-84.71161"><name>TFUL1</name><desc>#27 MOTHERHORN
Images:2924
First:27.04.2025 10:23:11
Last:27.04.2025 16:23:28
Duration:06:00:17
</desc></wpt>
<wpt lat = "33.63766" lon = "-84.71106"><name>LCL1</name><desc>#28 ELECTROSHOCK THERAPY
Images:5339
First:26.04.2025 07:15:25
Last:27.04.2025 16:31:55
Duration:1.09:16:30
</desc></wpt>
<wpt lat = "33.63766" lon = "-84.71106"><name>SICA1</name><desc>Impressions / Pano
Images:201
First:26.04.2025 07:50:59
Last:27.04.2025 13:59:00
Duration:1.06:08:01
</desc></wpt>
</gpx>