<?xml version='1.0' encoding='utf-8'?>
<gpx version="1.1" creator="Infofile GPX Generator">
<wpt lat = "43.41664" lon = "6.73786"><name>MARY1</name><desc>Start
Images:223
First:01.01.0001 23:00:00
Last:11.10.2025 08:35:25
Duration:739533.09:35:25
</desc></wpt>
<wpt lat = "43.41664" lon = "6.73786"><name>ALL1</name><desc>Start
Images:414
First:10.10.2025 12:07:36
Last:11.10.2025 07:59:59
Duration:19:52:23
</desc></wpt>
<wpt lat = "43.36917" lon = "6.68340"><name>COR1</name><desc>km 12 Gravel Roc
Images:826
First:09.10.2025 08:36:19
Last:11.10.2025 08:49:35
Duration:2.00:13:16
</desc></wpt>
<wpt lat = "43.36917" lon = "6.68340"><name>COR1LS1</name><desc>km 12 Gravel Roc
Images:3260
First:11.10.2025 09:00:44
Last:11.10.2025 11:04:05
Duration:02:03:21
</desc></wpt>
<wpt lat = "43.36917" lon = "6.68340"><name>COR1LS2</name><desc>km 12 Gravel Roc
Images:1703
First:09.10.2025 10:10:14
Last:11.10.2025 10:49:01
Duration:2.00:38:47
</desc></wpt>
<wpt lat = "43.36773" lon = "6.67930"><name>HS1</name><desc>km 15 Gravel Roc
Images:146
First:09.10.2025 07:07:44
Last:12.10.2025 10:34:16
Duration:3.03:26:32
</desc></wpt>
<wpt lat = "43.51327" lon = "6.79093"><name>MIFP1</name><desc>Km 24 Rock Gravel long 140K
Images:381
First:10.10.2025 07:33:24
Last:11.10.2025 09:02:50
Duration:1.01:29:26
</desc></wpt>
<wpt lat = "43.51327" lon = "6.79093"><name>MIFP1LS1</name><desc>Km 24 Rock Gravel long 140K
Images:204
First:11.10.2025 07:37:40
Last:11.10.2025 09:06:49
Duration:01:29:09
</desc></wpt>
<wpt lat = "43.40184" lon = "6.70657"><name>TGM1</name><desc>Km 25 Rock Gravel long 140K
Images:694
First:11.10.2025 08:02:57
Last:11.10.2025 09:03:45
Duration:01:00:48
</desc></wpt>
<wpt lat = "43.40184" lon = "6.70657"><name>TGM1LS1</name><desc>Km 25 Rock Gravel long 140K
Images:222
First:11.10.2025 07:55:28
Last:11.10.2025 09:03:52
Duration:01:08:24
</desc></wpt>
<wpt lat = "43.40184" lon = "6.70657"><name>TGM1LS2</name><desc>Km 25 Rock Gravel long 140K
Images:232
First:11.10.2025 07:17:45
Last:11.10.2025 09:05:19
Duration:01:47:34
</desc></wpt>
<wpt lat = "43.51731" lon = "6.78995"><name>STO1LS1</name><desc>Km 26 Rock Gravel long 140K
Images:259
First:11.10.2025 08:06:35
Last:11.10.2025 09:08:22
Duration:01:01:47
</desc></wpt>
<wpt lat = "43.51731" lon = "6.78995"><name>STO1</name><desc>Km 26 Rock Gravel long 140K
Images:483
First:11.10.2025 07:32:13
Last:12.10.2025 08:50:58
Duration:1.01:18:45
</desc></wpt>
<wpt lat = "43.44031" lon = "6.62666"><name>MANR1</name><desc>2 km after Cimetière Village / Gravel Roc
Images:1423
First:09.10.2025 10:48:08
Last:11.10.2025 10:17:51
Duration:1.23:29:43
</desc></wpt>
<wpt lat = "43.44031" lon = "6.62666"><name>MANR1LS1</name><desc>2 km after Cimetière Village / Gravel Roc
Images:273
First:11.10.2025 10:58:10
Last:11.10.2025 12:42:04
Duration:01:43:54
</desc></wpt>
<wpt lat = "43.44031" lon = "6.62666"><name>MANR1LS2</name><desc>2 km after Cimetière Village / Gravel Roc
Images:540
First:11.10.2025 08:05:29
Last:11.10.2025 10:15:57
Duration:02:10:28
</desc></wpt>
<wpt lat = "43.44031" lon = "6.62666"><name>MANR1DRONE1</name><desc>Impressions / Pano
Images:9
First:11.10.2025 08:26:43
Last:11.10.2025 13:41:54
Duration:05:15:11
</desc></wpt>
<wpt lat = "43.44061" lon = "6.62493"><name>JLTG1</name><desc>3 km after Cimetière Village / Gravel Roc
Images:833
First:09.10.2025 09:01:38
Last:12.10.2025 08:29:12
Duration:2.23:27:34
</desc></wpt>
<wpt lat = "43.44061" lon = "6.62493"><name>JLTG1LS1</name><desc>3 km after Cimetière Village / Gravel Roc
Images:453
First:11.10.2025 07:51:57
Last:11.10.2025 10:16:18
Duration:02:24:21
</desc></wpt>
<wpt lat = "43.44061" lon = "6.62493"><name>JLTG1LS2</name><desc>3 km after Cimetière Village / Gravel Roc
Images:452
First:11.10.2025 07:45:21
Last:11.10.2025 10:16:09
Duration:02:30:48
</desc></wpt>
<wpt lat = "43.39649" lon = "6.65202"><name>BP1</name><desc>4,5 km to Car brûlé /Rando Noire
Images:2912
First:10.10.2025 08:24:06
Last:12.10.2025 09:38:47
Duration:2.01:14:41
</desc></wpt>
<wpt lat = "43.39649" lon = "6.65202"><name>BP1LS2</name><desc>4,5 km to Car brûlé /Rando Noire
Images:2412
First:11.10.2025 09:24:46
Last:11.10.2025 14:44:14
Duration:05:19:28
</desc></wpt>
<wpt lat = "43.39649" lon = "6.65202"><name>BP1LS1</name><desc>4,5 km to Car brûlé /Rando Noire
Images:2236
First:11.10.2025 09:49:33
Last:11.10.2025 14:51:03
Duration:05:01:30
</desc></wpt>
<wpt lat = "43.41344" lon = "6.66058"><name>LEBE1</name><desc>3 km  to Car brûlé / R. Rouge / R. Noire
Images:4963
First:09.10.2025 07:35:06
Last:12.10.2025 11:30:31
Duration:3.03:55:25
</desc></wpt>
<wpt lat = "43.41344" lon = "6.66058"><name>LEBE1LS1</name><desc>3 km to Car brûlé / R. Rouge / R. Noire
Images:1849
First:11.10.2025 08:30:03
Last:11.10.2025 14:36:42
Duration:06:06:39
</desc></wpt>
<wpt lat = "43.3844" lon = "6.65758"><name>MAGA1</name><desc>2 km to Car brûlé / R. Rouge / R. Noire
Images:7150
First:11.10.2025 10:02:37
Last:11.10.2025 15:38:10
Duration:05:35:33
</desc></wpt>
<wpt lat = "43.3844" lon = "6.65758"><name>MAGA1LS1</name><desc>2 km to Car brûlé / R. Rouge / R. Noire
Images:2573
First:11.10.2025 09:53:58
Last:11.10.2025 15:51:01
Duration:05:57:03
</desc></wpt>
<wpt lat = "43.3844" lon = "6.65758"><name>MAGA1LS2</name><desc>2 km to Car brûlé / R. Rouge / R. Noire
Images:4494
First:11.10.2025 09:05:30
Last:11.10.2025 16:13:28
Duration:07:07:58
</desc></wpt>
<wpt lat = "43.36677" lon = "6.67222"><name>ROB1</name><desc>1 km  to Car brûlé / R. Rouge / R. Noire
Images:4026
First:10.10.2025 10:10:09
Last:11.10.2025 16:06:43
Duration:1.05:56:34
</desc></wpt>
<wpt lat = "43.36677" lon = "6.67222"><name>ROB1LS1</name><desc>1 km to Car brûlé / R. Rouge / R. Noire
Images:6436
First:11.10.2025 09:04:43
Last:11.10.2025 16:13:28
Duration:07:08:45
</desc></wpt>
<wpt lat = "43.36677" lon = "6.67222"><name>ROB1LS2</name><desc>1 km to Car brûlé / R. Rouge / R. Noire
Images:6685
First:09.10.2025 08:31:58
Last:11.10.2025 16:10:00
Duration:2.07:38:02
</desc></wpt>
<wpt lat = "43.36518" lon = "6.66712"><name>MIFP2</name><desc>Km 126 Rock Gravel long 140K
Images:1294
First:11.10.2025 11:32:21
Last:11.10.2025 18:06:09
Duration:06:33:48
</desc></wpt>
<wpt lat = "43.36518" lon = "6.66712"><name>MIFP2LS1</name><desc>Km 126 Rock Gravel long 140K
Images:361
First:11.10.2025 11:20:41
Last:11.10.2025 18:12:05
Duration:06:51:24
</desc></wpt>
<wpt lat = "43.36405" lon = "6.67182"><name>STO2</name><desc>Km 126 Rock Gravel long 140K
Images:621
First:11.10.2025 11:57:12
Last:12.10.2025 18:10:54
Duration:1.06:13:42
</desc></wpt>
<wpt lat = "43.36405" lon = "6.67182"><name>STO2LS1</name><desc>Km 126 Rock Gravel long 140K
Images:329
First:09.10.2025 10:28:54
Last:11.10.2025 18:08:14
Duration:2.07:39:20
</desc></wpt>
<wpt lat = "43.36457" lon = "6.67067"><name>TGM2</name><desc>Km 127 Rock Gravel long 140K
Images:949
First:11.10.2025 11:51:39
Last:11.10.2025 18:07:45
Duration:06:16:06
</desc></wpt>
<wpt lat = "43.36457" lon = "6.67067"><name>TGM2LS2</name><desc>Km 127 Rock Gravel long 140K
Images:433
First:11.10.2025 11:28:40
Last:11.10.2025 17:33:37
Duration:06:04:57
</desc></wpt>
<wpt lat = "43.36457" lon = "6.67067"><name>TGM2LS1</name><desc>Km 127 Rock Gravel long 140K
Images:354
First:11.10.2025 11:19:42
Last:11.10.2025 18:00:31
Duration:06:40:49
</desc></wpt>
<wpt lat = "43.36773" lon = "6.67930"><name>HS2</name><desc>Car brûlé / R. Rouge / R. Noire
Images:3233
First:11.10.2025 10:46:24
Last:11.10.2025 16:31:11
Duration:05:44:47
</desc></wpt>
<wpt lat = "43.36773" lon = "6.67930"><name>HS2LS2</name><desc>Car brûlé / R. Rouge / R. Noire
Images:2631
First:11.10.2025 08:55:36
Last:11.10.2025 16:42:51
Duration:07:47:15
</desc></wpt>
<wpt lat = "43.36773" lon = "6.67930"><name>HS2LS1</name><desc>Car brûlé / R. Rouge / R. Noire
Images:2783
First:11.10.2025 09:19:00
Last:11.10.2025 16:31:07
Duration:07:12:07
</desc></wpt>
<wpt lat = "43.36641" lon = "6.68245"><name>PKA1</name><desc>3 km after Car brûlé / R. Rouge / R. Noire /
Images:4077
First:09.10.2025 11:03:13
Last:11.10.2025 16:50:37
Duration:2.05:47:24
</desc></wpt>
<wpt lat = "43.36641" lon = "6.68245"><name>PKA1LS2</name><desc>3 km after Car brûlé / R. Rouge / R. Noire /
Images:4311
First:11.10.2025 10:35:16
Last:11.10.2025 16:50:57
Duration:06:15:41
</desc></wpt>
<wpt lat = "43.36641" lon = "6.68245"><name>PKA1LS1</name><desc>3 km after Car brûlé / R. Rouge / R. Noire /
Images:3424
First:11.10.2025 09:25:37
Last:11.10.2025 16:47:02
Duration:07:21:25
</desc></wpt>
<wpt lat = "43.36627" lon = "6.70799"><name>COR2</name><desc>4 km before La Baronne / Rando Rouge / Rando Bleue
Images:3263
First:09.10.2025 07:43:28
Last:11.10.2025 11:07:44
Duration:2.03:24:16
</desc></wpt>
<wpt lat = "43.36627" lon = "6.70799"><name>COR2LS2</name><desc>4 km before La Baronne / Rando Rouge / Rando Bleue
Images:470
First:11.10.2025 13:11:39
Last:11.10.2025 15:50:46
Duration:02:39:07
</desc></wpt>
<wpt lat = "43.36627" lon = "6.70799"><name>COR2LS1</name><desc>4 km before La Baronne / Rando Rouge / Rando Bleue
Images:475
First:11.10.2025 13:15:25
Last:11.10.2025 16:33:38
Duration:03:18:13
</desc></wpt>
<wpt lat = "43.40212" lon = "6.70712"><name>CHR2</name><desc>4 km before La Baronne / Rando Rouge / Rando Bleue
Images:3852
First:09.10.2025 09:42:25
Last:11.10.2025 16:09:26
Duration:2.06:27:01
</desc></wpt>
<wpt lat = "43.40212" lon = "6.70712"><name>CHR2LS1</name><desc>4 km before La Baronne / Rando Rouge / Rando Bleue
Images:2091
First:11.10.2025 12:10:04
Last:11.10.2025 16:47:10
Duration:04:37:06
</desc></wpt>
<wpt lat = "43.40212" lon = "6.70712"><name>CHR2LS2</name><desc>4 km before La Baronne / Rando Rouge / Rando Bleue
Images:2691
First:11.10.2025 12:06:20
Last:11.10.2025 15:40:56
Duration:03:34:36
</desc></wpt>
<wpt lat = "43.40203" lon = "6.70751"><name>EP1</name><desc>3 km before La Baronne / Rando Rouge / Rando Bleue
Images:1886
First:09.10.2025 08:21:59
Last:11.10.2025 12:02:16
Duration:2.03:40:17
</desc></wpt>
<wpt lat = "43.40203" lon = "6.70751"><name>EP1LS1</name><desc>3 km before La Baronne / Rando Rouge / Rando Bleue
Images:794
First:11.10.2025 09:00:52
Last:11.10.2025 12:25:02
Duration:03:24:10
</desc></wpt>
<wpt lat = "43.40195" lon = "6.70661"><name>EP2</name><desc>3,5 km before La Baronne / Rando Rouge / Rando Bleue
Images:4172
First:11.10.2025 12:35:54
Last:12.10.2025 13:49:35
Duration:1.01:13:41
</desc></wpt>
<wpt lat = "43.40195" lon = "6.70661"><name>EP2LS1</name><desc>3,5 km before La Baronne / Rando Rouge / Rando Bleue
Images:2749
First:11.10.2025 12:25:23
Last:11.10.2025 17:34:54
Duration:05:09:31
</desc></wpt>
<wpt lat = "43.40146" lon = "6.70883"><name>CHR1</name><desc>5 km before La Baronne / Rando Rouge / Rando Bleue
Images:1306
First:09.10.2025 07:46:15
Last:12.10.2025 09:20:41
Duration:3.01:34:26
</desc></wpt>
<wpt lat = "43.40146" lon = "6.70883"><name>CHR1LS1</name><desc>5 km before La Baronne / Rando Rouge / Rando Bleue
Images:980
First:11.10.2025 08:50:44
Last:11.10.2025 11:54:06
Duration:03:03:22
</desc></wpt>
<wpt lat = "43.40146" lon = "6.70883"><name>CHR1LS2</name><desc>5 km before La Baronne / Rando Rouge / Rando Bleue
Images:612
First:11.10.2025 08:55:35
Last:11.10.2025 11:57:28
Duration:03:01:53
</desc></wpt>
<wpt lat = "43.40133" lon = "6.71056"><name>ARF1</name><desc>6 km before La Baronne / Rando Rouge / Rando Bleue
Images:8552
First:10.10.2025 07:34:11
Last:11.10.2025 17:39:24
Duration:1.10:05:13
</desc></wpt>
<wpt lat = "43.43952" lon = "6.62535"><name>MANR2</name><desc>km 1 Roc Trophy
Images:1719
First:11.10.2025 11:07:45
Last:11.10.2025 12:42:05
Duration:01:34:20
</desc></wpt>
<wpt lat = "43.43952" lon = "6.62535"><name>MANR2LS1</name><desc>km 1 Roc Trophy
Images:396
First:11.10.2025 07:38:41
Last:11.10.2025 10:48:59
Duration:03:10:18
</desc></wpt>
<wpt lat = "43.43952" lon = "6.62535"><name>MANR2LS2</name><desc>km 1 Roc Trophy
Images:248
First:11.10.2025 10:35:55
Last:11.10.2025 12:50:03
Duration:02:14:08
</desc></wpt>
<wpt lat = "43.44083" lon = "6.62789"><name>JLTG2</name><desc>km 2 Roc Trophy
Images:408
First:11.10.2025 11:22:43
Last:12.10.2025 18:24:55
Duration:1.07:02:12
</desc></wpt>
<wpt lat = "43.44083" lon = "6.62789"><name>JLTG2LS2</name><desc>km 2 Roc Trophy
Images:258
First:11.10.2025 10:55:59
Last:11.10.2025 12:40:24
Duration:01:44:25
</desc></wpt>
<wpt lat = "43.44083" lon = "6.62789"><name>JLTG2LS1</name><desc>km 2 Roc Trophy
Images:253
First:11.10.2025 11:09:27
Last:11.10.2025 12:40:33
Duration:01:31:06
</desc></wpt>
<wpt lat = "43.39377" lon = "6.72792"><name>BRN1</name><desc>5 km to finish
Images:5289
First:11.10.2025 08:28:53
Last:11.10.2025 17:59:17
Duration:09:30:24
</desc></wpt>
<wpt lat = "43.39377" lon = "6.72792"><name>BRN1LS1</name><desc>5 km to finish
Images:4695
First:11.10.2025 10:20:06
Last:11.10.2025 18:02:50
Duration:07:42:44
</desc></wpt>
<wpt lat = "43.41664" lon = "6.73786"><name>ALL2LS1</name><desc>Finish
Images:3188
First:11.10.2025 08:21:08
Last:11.10.2025 19:01:13
Duration:10:40:05
</desc></wpt>
<wpt lat = "43.41664" lon = "6.73786"><name>MARY2</name><desc>Finish
Images:4605
First:11.10.2025 08:36:56
Last:11.10.2025 19:00:20
Duration:10:23:24
</desc></wpt>
<wpt lat = "43.41664" lon = "6.73786"><name>ALL2</name><desc>Finish
Images:6450
First:11.10.2025 08:32:37
Last:11.10.2025 18:59:51
Duration:10:27:14
</desc></wpt>
</gpx>