<?xml version='1.0' encoding='utf-8'?>
<gpx version="1.1" creator="Infofile GPX Generator">
<wpt lat = "43.41605" lon = "6.73824"><name>MIFP1</name><desc>Start - Base Nature
Images:327
First:10.10.2025 07:23:31
Last:10.10.2025 08:30:20
Duration:01:06:49
</desc></wpt>
<wpt lat = "43.39128" lon = "6.69726"><name>ARF1</name><desc>1km before L'Agriotier
Images:3541
First:10.10.2025 07:34:11
Last:10.10.2025 15:25:58
Duration:07:51:47
</desc></wpt>
<wpt lat = "43.38791" lon = "6.69206"><name>MARY1</name><desc>L'Agriotier
Images:11802
First:10.10.2025 07:45:16
Last:10.10.2025 15:41:33
Duration:07:56:17
</desc></wpt>
<wpt lat = "43.39262" lon = "6.66643"><name>BP1</name><desc>Climb after La Fournel
Images:1812
First:10.10.2025 08:00:22
Last:10.10.2025 09:42:39
Duration:01:42:17
</desc></wpt>
<wpt lat = "43.39262" lon = "6.66643"><name>BP1LS1</name><desc>Climb after La Fournel
Images:888
First:10.10.2025 07:54:45
Last:10.10.2025 09:50:48
Duration:01:56:03
</desc></wpt>
<wpt lat = "43.39262" lon = "6.66643"><name>BP1LS2</name><desc>Climb after La Fournel
Images:2349
First:10.10.2025 07:43:54
Last:10.10.2025 09:38:04
Duration:01:54:10
</desc></wpt>
<wpt lat = "43.39262" lon = "6.66643"><name>BP1DRONE1</name><desc>Climb after La Fournel
Images:8
First:10.10.2025 08:12:36
Last:10.10.2025 11:18:05
Duration:03:05:29
</desc></wpt>
<wpt lat = "43.39678" lon = "6.65130"><name>COR1</name><desc>Sommet Flute
Images:2508
First:09.10.2025 08:36:19
Last:10.10.2025 10:09:22
Duration:1.01:33:03
</desc></wpt>
<wpt lat = "43.39678" lon = "6.65130"><name>COR1LS1</name><desc>Sommet Flute
Images:2774
First:10.10.2025 07:52:44
Last:10.10.2025 10:04:11
Duration:02:11:27
</desc></wpt>
<wpt lat = "43.39678" lon = "6.65130"><name>COR1LS2</name><desc>Sommet Flute
Images:2781
First:09.10.2025 10:10:14
Last:10.10.2025 10:02:46
Duration:23:52:32
</desc></wpt>
<wpt lat = "43.44129" lon = "6.62849"><name>LEBE1</name><desc>Roquebrune-sur-Argens
Images:3110
First:09.10.2025 07:35:06
Last:10.10.2025 11:50:16
Duration:1.04:15:10
</desc></wpt>
<wpt lat = "43.44129" lon = "6.62849"><name>LEBE1LS1</name><desc>Roquebrune-sur-Argens
Images:1355
First:10.10.2025 08:02:27
Last:10.10.2025 11:54:40
Duration:03:52:13
</desc></wpt>
<wpt lat = "43.42818" lon = "6.61663"><name>CHR1</name><desc>Citerne Les Campons
Images:2547
First:09.10.2025 07:46:15
Last:10.10.2025 12:03:02
Duration:1.04:16:47
</desc></wpt>
<wpt lat = "43.42818" lon = "6.61663"><name>CHR1LS1</name><desc>Citerne Les Campons
Images:2184
First:10.10.2025 08:55:50
Last:10.10.2025 11:14:57
Duration:02:19:07
</desc></wpt>
<wpt lat = "43.42818" lon = "6.61663"><name>CHR1LS2</name><desc>Citerne Les Campons
Images:1461
First:10.10.2025 08:50:28
Last:10.10.2025 11:34:18
Duration:02:43:50
</desc></wpt>
<wpt lat = "43.40577" lon = "6.64749"><name>COR2</name><desc>Sommet Carbret
Images:1465
First:09.10.2025 07:43:28
Last:10.10.2025 15:44:26
Duration:1.08:00:58
</desc></wpt>
<wpt lat = "43.40577" lon = "6.64749"><name>COR2LS1</name><desc>Sommet Carbret
Images:851
First:10.10.2025 10:35:31
Last:10.10.2025 15:34:37
Duration:04:59:06
</desc></wpt>
<wpt lat = "43.40577" lon = "6.64749"><name>COR2LS2</name><desc>Sommet Carbret
Images:690
First:10.10.2025 10:30:43
Last:10.10.2025 15:35:12
Duration:05:04:29
</desc></wpt>
<wpt lat = "43.38660" lon = "6.65877"><name>BP2</name><desc>After Sommet Carbret
Images:1946
First:10.10.2025 10:37:28
Last:10.10.2025 15:59:43
Duration:05:22:15
</desc></wpt>
<wpt lat = "43.38660" lon = "6.65877"><name>BP2LS1</name><desc>After Sommet Carbret
Images:758
First:10.10.2025 10:39:28
Last:10.10.2025 15:59:22
Duration:05:19:54
</desc></wpt>
<wpt lat = "43.38660" lon = "6.65877"><name>BP2LS2</name><desc>After Sommet Carbret
Images:748
First:10.10.2025 10:34:42
Last:10.10.2025 15:32:54
Duration:04:58:12
</desc></wpt>
<wpt lat = "43.36704" lon = "6.66311"><name>MAGA1</name><desc>Before L'Agriotier - Barriere horaire
Images:4732
First:10.10.2025 11:40:17
Last:10.10.2025 17:20:09
Duration:05:39:52
</desc></wpt>
<wpt lat = "43.36704" lon = "6.66311"><name>MAGA1LS1</name><desc>Before L'Agriotier - Barriere horaire
Images:1449
First:10.10.2025 11:23:17
Last:10.10.2025 17:20:50
Duration:05:57:33
</desc></wpt>
<wpt lat = "43.36704" lon = "6.66311"><name>MAGA1LS2</name><desc>Before L'Agriotier - Barriere horaire
Images:4396
First:10.10.2025 10:38:33
Last:10.10.2025 17:20:32
Duration:06:41:59
</desc></wpt>
<wpt lat = "43.36768" lon = "6.67535"><name>BRN1</name><desc>L'Agriotier - Barriere horaire
Images:4198
First:10.10.2025 11:04:40
Last:10.10.2025 17:27:03
Duration:06:22:23
</desc></wpt>
<wpt lat = "43.36768" lon = "6.67535"><name>BRN1LS1</name><desc>L'Agriotier - Barriere horaire
Images:4838
First:10.10.2025 10:12:34
Last:10.10.2025 17:26:28
Duration:07:13:54
</desc></wpt>
<wpt lat = "43.36768" lon = "6.67535"><name>BRN1LS2</name><desc>L'Agriotier - Barriere horaire
Images:12859
First:10.10.2025 10:33:07
Last:10.10.2025 15:37:14
Duration:05:04:07
</desc></wpt>
<wpt lat = "43.36738" lon = "6.67760"><name>ALL1</name><desc>After L'Agriotier - Barriere horaire
Images:1480
First:10.10.2025 11:16:21
Last:10.10.2025 17:29:33
Duration:06:13:12
</desc></wpt>
<wpt lat = "43.36738" lon = "6.67760"><name>ALL1LS1</name><desc>After L'Agriotier - Barriere horaire
Images:1362
First:10.10.2025 10:13:42
Last:10.10.2025 17:32:29
Duration:07:18:47
</desc></wpt>
<wpt lat = "43.40184" lon = "6.70400"><name>TGM1</name><desc>Before Pont du Reydissart
Images:3928
First:10.10.2025 12:20:19
Last:10.10.2025 18:39:33
Duration:06:19:14
</desc></wpt>
<wpt lat = "43.40184" lon = "6.70400"><name>TGM1LS1</name><desc>Before Pont du Reydissart
Images:2543
First:10.10.2025 11:14:09
Last:10.10.2025 18:52:08
Duration:07:37:59
</desc></wpt>
<wpt lat = "43.40184" lon = "6.70400"><name>TGM1LS2</name><desc>Before Pont du Reydissart
Images:1769
First:10.10.2025 11:57:05
Last:10.10.2025 18:39:37
Duration:06:42:32
</desc></wpt>
<wpt lat = "43.40131" lon = "6.70965"><name>STO1</name><desc>Pont du Reydissart
Images:6531
First:10.10.2025 11:17:58
Last:10.10.2025 18:40:55
Duration:07:22:57
</desc></wpt>
<wpt lat = "43.40127" lon = "6.71010"><name>STO1LS1</name><desc>Pont du Reydissart
Images:3254
First:10.10.2025 11:25:39
Last:10.10.2025 18:43:32
Duration:07:17:53
</desc></wpt>
<wpt lat = "43.39379" lon = "6.72780"><name>JLTG1</name><desc>Bridge Plage la Galiote
Images:3394
First:09.10.2025 09:01:38
Last:10.10.2025 18:50:40
Duration:1.09:49:02
</desc></wpt>
<wpt lat = "43.39379" lon = "6.72780"><name>JLTG1LS1</name><desc>Bridge Plage la Galiote
Images:2186
First:10.10.2025 10:51:05
Last:10.10.2025 18:44:03
Duration:07:52:58
</desc></wpt>
<wpt lat = "43.39379" lon = "6.72780"><name>JLTG1LS2</name><desc>Bridge Plage la Galiote
Images:2143
First:10.10.2025 11:10:28
Last:10.10.2025 18:44:13
Duration:07:33:45
</desc></wpt>
<wpt lat = "43.41605" lon = "6.73824"><name>MIFP2</name><desc>Finish - Base Nature
Images:6405
First:10.10.2025 09:42:14
Last:10.10.2025 19:16:22
Duration:09:34:08
</desc></wpt>
<wpt lat = "43.41605" lon = "6.73824"><name>MIFP1LS1</name><desc>Finish - Base Nature
Images:10732
First:10.10.2025 09:03:03
Last:10.10.2025 19:16:22
Duration:10:13:19
</desc></wpt>
<wpt lat = "43.47975" lon = "6.79324"><name>MANR1</name><desc>Col du Baladou - Esterel
Images:5696
First:09.10.2025 10:48:08
Last:10.10.2025 13:10:37
Duration:1.02:22:29
</desc></wpt>
<wpt lat = "43.47975" lon = "6.79324"><name>MANR1LS1</name><desc>Col du Baladou - Esterel
Images:1366
First:10.10.2025 09:21:30
Last:10.10.2025 13:10:37
Duration:03:49:07
</desc></wpt>
<wpt lat = "43.47975" lon = "6.79324"><name>MANR1LS2</name><desc>Col du Baladou - Esterel
Images:1571
First:10.10.2025 10:35:58
Last:10.10.2025 13:15:53
Duration:02:39:55
</desc></wpt>
<wpt lat = "43.49758" lon = "6.80900"><name>PKA1</name><desc>Before Maison forestiere du Malpey - Esterel
Images:1786
First:09.10.2025 11:03:13
Last:10.10.2025 19:16:17
Duration:1.08:13:04
</desc></wpt>
<wpt lat = "43.49758" lon = "6.80900"><name>PKA1LS1</name><desc>Before Maison forestiere du Malpey - Esterel
Images:672
First:10.10.2025 09:04:44
Last:10.10.2025 12:06:38
Duration:03:01:54
</desc></wpt>
<wpt lat = "43.49758" lon = "6.80900"><name>PKA1LS2</name><desc>Before Maison forestiere du Malpey - Esterel
Images:2141
First:10.10.2025 09:03:19
Last:10.10.2025 14:08:12
Duration:05:04:53
</desc></wpt>
<wpt lat = "43.49641" lon = "6.81651"><name>EP1LS1</name><desc>1km after Maison forestiere du Malpey - Esterel
Images:926
First:10.10.2025 09:25:06
Last:10.10.2025 14:15:42
Duration:04:50:36
</desc></wpt>
<wpt lat = "43.49710" lon = "6.81510"><name>EP1</name><desc>1km after Maison forestiere du Malpey - Esterel
Images:2076
First:09.10.2025 08:21:59
Last:10.10.2025 14:09:16
Duration:1.05:47:17
</desc></wpt>
<wpt lat = "43.46631" lon = "6.86105"><name>HS1</name><desc>Before Col du Mistral - Esterel
Images:2323
First:09.10.2025 07:07:44
Last:10.10.2025 15:09:54
Duration:1.08:02:10
</desc></wpt>
<wpt lat = "43.46631" lon = "6.86105"><name>HS1LS1</name><desc>Before Col du Mistral - Esterel
Images:1161
First:10.10.2025 09:58:15
Last:10.10.2025 15:09:58
Duration:05:11:43
</desc></wpt>
<wpt lat = "43.46631" lon = "6.86105"><name>HS1LS2</name><desc>Before Col du Mistral - Esterel
Images:1091
First:09.10.2025 09:13:37
Last:10.10.2025 15:11:15
Duration:1.05:57:38
</desc></wpt>
<wpt lat = "43.46814" lon = "6.85535"><name>ROB1</name><desc>1km after Col du Mistral - Esterel
Images:1105
First:10.10.2025 10:01:11
Last:10.10.2025 15:09:09
Duration:05:07:58
</desc></wpt>
<wpt lat = "43.46814" lon = "6.85535"><name>ROB1LS1</name><desc>1km after Col du Mistral - Esterel
Images:1254
First:10.10.2025 09:10:07
Last:10.10.2025 15:14:37
Duration:06:04:30
</desc></wpt>
<wpt lat = "43.46814" lon = "6.85535"><name>ROB1LS2</name><desc>1km after Col du Mistral - Esterel
Images:1271
First:09.10.2025 08:31:58
Last:10.10.2025 15:14:38
Duration:1.06:42:40
</desc></wpt>
<wpt lat = "43.41344" lon = "6.66058"><name>LEBE2</name><desc>Enduro SP1 - upper
Images:1384
First:09.10.2025 11:07:01
Last:10.10.2025 15:43:47
Duration:1.04:36:46
</desc></wpt>
<wpt lat = "43.41344" lon = "6.66058"><name>LEBE2LS1</name><desc>Enduro SP1 - upper
Images:311
First:09.10.2025 09:35:40
Last:10.10.2025 15:48:48
Duration:1.06:13:08
</desc></wpt>
<wpt lat = "43.41269" lon = "6.66187"><name>CHR2</name><desc>Enduro SP1 - lower
Images:1085
First:09.10.2025 09:42:25
Last:10.10.2025 15:42:40
Duration:1.06:00:15
</desc></wpt>
<wpt lat = "43.41269" lon = "6.66187"><name>CHR2LS1</name><desc>Enduro SP1 - lower
Images:1057
First:10.10.2025 13:29:02
Last:10.10.2025 15:23:06
Duration:01:54:04
</desc></wpt>
<wpt lat = "43.41269" lon = "6.66187"><name>CHR2LS2</name><desc>Enduro SP1 - lower
Images:318
First:10.10.2025 13:17:50
Last:10.10.2025 15:42:24
Duration:02:24:34
</desc></wpt>
<wpt lat = "43.43335" lon = "6.73631"><name>EP2LS1</name><desc>Ruelles de Frejus - Night Race Spot 1
Images:592
First:10.10.2025 19:28:52
Last:10.10.2025 20:49:01
Duration:01:20:09
</desc></wpt>
<wpt lat = "43.43335" lon = "6.73631"><name>EP2</name><desc>Ruelles de Frejus - Night Race Spot 1
Images:473
First:10.10.2025 19:13:58
Last:10.10.2025 20:45:43
Duration:01:31:45
</desc></wpt>
<wpt lat = "43.43394" lon = "6.73804"><name>PKA2</name><desc>Ruelles de Frejus - Night Race Spot 2
Images:879
First:10.10.2025 19:16:24
Last:10.10.2025 20:45:46
Duration:01:29:22
</desc></wpt>
<wpt lat = "43.43394" lon = "6.73804"><name>PKA2LS1</name><desc>Ruelles de Frejus - Night Race Spot 2
Images:54
First:10.10.2025 19:12:16
Last:10.10.2025 20:27:47
Duration:01:15:31
</desc></wpt>
</gpx>