<?xml version='1.0' encoding='utf-8'?>
<gpx version="1.1" creator="Infofile GPX Generator">
<wpt lat = "45.20224" lon = "13.58784"><name>NBE1</name><desc>Start
Images:1008
First:19.10.2025 07:54:08
Last:19.10.2025 08:27:46
Duration:00:33:38
</desc></wpt>
<wpt lat = "45.20224" lon = "13.58784"><name>RSA1</name><desc>Start
Images:446
First:19.10.2025 07:39:15
Last:19.10.2025 08:36:47
Duration:00:57:32
</desc></wpt>
<wpt lat = "45.20285" lon = "13.59479"><name>MDS1LS1</name><desc>SWIM OUT
Images:1478
First:19.10.2025 07:44:06
Last:19.10.2025 09:46:22
Duration:02:02:16
</desc></wpt>
<wpt lat = "45.20285" lon = "13.59479"><name>MDS1</name><desc>SWIM OUT
Images:3908
First:19.10.2025 07:47:07
Last:19.10.2025 11:21:49
Duration:03:34:42
</desc></wpt>
<wpt lat = "45.20285" lon = "13.59479"><name>MDS1LS2</name><desc>SWIM OUT
Images:1127
First:19.10.2025 07:41:14
Last:19.10.2025 11:10:49
Duration:03:29:35
</desc></wpt>
<wpt lat = "45.20159" lon = "13.59735"><name>RAM3</name><desc>TRANSITION
Images:5103
First:19.10.2025 08:14:20
Last:19.10.2025 09:50:38
Duration:01:36:18
</desc></wpt>
<wpt lat = "45.20159" lon = "13.59735"><name>RAM3LS1</name><desc>TRANSITION
Images:1473
First:19.10.2025 08:09:37
Last:19.10.2025 09:51:04
Duration:01:41:27
</desc></wpt>
<wpt lat = "45.20159" lon = "13.59735"><name>RAM3LS2</name><desc>TRANSITION
Images:1060
First:19.10.2025 08:09:35
Last:19.10.2025 09:50:56
Duration:01:41:21
</desc></wpt>
<wpt lat = "45.26669" lon = "13.68819"><name>LULE1</name><desc>BIKE 20 KM
Images:5115
First:19.10.2025 09:05:42
Last:19.10.2025 13:19:50
Duration:04:14:08
</desc></wpt>
<wpt lat = "45.26669" lon = "13.68819"><name>LULE1LS3</name><desc>BIKE 20 KM
Images:2568
First:19.10.2025 10:44:39
Last:19.10.2025 23:24:33
Duration:12:39:54
</desc></wpt>
<wpt lat = "45.26669" lon = "13.68819"><name>LULE1LS1</name><desc>BIKE 20 KM
Images:2823
First:19.10.2025 08:39:59
Last:19.10.2025 14:08:07
Duration:05:28:08
</desc></wpt>
<wpt lat = "45.26669" lon = "13.68819"><name>LULE1LS2</name><desc>BIKE 20 KM
Images:874
First:19.10.2025 08:28:16
Last:19.10.2025 09:29:10
Duration:01:00:54
</desc></wpt>
<wpt lat = "45.27522" lon = "13.71009"><name>NAT1</name><desc>BIKE 45 KM
Images:8482
First:19.10.2025 09:08:01
Last:19.10.2025 13:13:50
Duration:04:05:49
</desc></wpt>
<wpt lat = "45.27522" lon = "13.71009"><name>NAT1LS2</name><desc>BIKE 45 KM
Images:1460
First:19.10.2025 08:49:49
Last:19.10.2025 13:14:04
Duration:04:24:15
</desc></wpt>
<wpt lat = "45.27522" lon = "13.71009"><name>NAT1LS1</name><desc>BIKE 45 KM
Images:1181
First:19.10.2025 09:04:36
Last:19.10.2025 13:14:04
Duration:04:09:28
</desc></wpt>
<wpt lat = "45.20403" lon = "13.58630"><name>MDS2</name><desc>RUN 10 KM
Images:3758
First:19.10.2025 11:39:01
Last:19.10.2025 15:24:57
Duration:03:45:56
</desc></wpt>
<wpt lat = "45.20403" lon = "13.58630"><name>MDS2LS1</name><desc>RUN 10 KM
Images:1708
First:19.10.2025 11:12:21
Last:19.10.2025 15:14:20
Duration:04:01:59
</desc></wpt>
<wpt lat = "45.20403" lon = "13.58630"><name>MDS2LS2</name><desc>RUN 10 KM
Images:1658
First:19.10.2025 11:12:19
Last:19.10.2025 15:14:05
Duration:04:01:46
</desc></wpt>
<wpt lat = "45.20578" lon = "13.59829"><name>RAM2</name><desc>RUN 6 KM
Images:6771
First:19.10.2025 10:59:56
Last:19.10.2025 14:04:57
Duration:03:05:01
</desc></wpt>
<wpt lat = "45.20578" lon = "13.59829"><name>RAM2LS1</name><desc>RUN 6 KM
Images:3676
First:19.10.2025 10:47:47
Last:19.10.2025 15:09:59
Duration:04:22:12
</desc></wpt>
<wpt lat = "45.20578" lon = "13.59829"><name>RAM2LS2</name><desc>RUN 6 KM
Images:1472
First:01.01.0001 23:00:00
Last:19.10.2025 12:26:08
Duration:739541.13:26:08
</desc></wpt>
<wpt lat = "45.19560" lon = "13.59178"><name>NBE2</name><desc>Finish
Images:4409
First:19.10.2025 10:42:43
Last:19.10.2025 17:11:57
Duration:06:29:14
</desc></wpt>
<wpt lat = "45.19560" lon = "13.59178"><name>RSA2</name><desc>Finish
Images:5065
First:19.10.2025 09:20:56
Last:19.10.2025 15:52:58
Duration:06:32:02
</desc></wpt>
<wpt lat = "45.19560" lon = "13.59199"><name>RSA2DRONE1</name><desc>Finish
Images:15
First:19.10.2025 08:21:07
Last:19.10.2025 08:31:43
Duration:00:10:36
</desc></wpt>
<wpt lat = "45.19560" lon = "13.59178"><name>LULE2LS1</name><desc>Finish
Images:176
First:19.10.2025 14:08:09
Last:19.10.2025 16:06:34
Duration:01:58:25
</desc></wpt>
<wpt lat = "45.19560" lon = "13.59178"><name>LULE2LS2</name><desc>Finish
Images:56
First:20.10.2025 02:13:50
Last:20.10.2025 02:20:05
Duration:00:06:15
</desc></wpt>
<wpt lat = "45.19630" lon = "13.59136"><name>NAT2</name><desc>Finish
Images:1307
First:19.10.2025 14:21:33
Last:19.10.2025 15:23:51
Duration:01:02:18
</desc></wpt>
<wpt lat = "45.19630" lon = "13.59136"><name>NAT2LS1</name><desc>Finish
Images:1213
First:19.10.2025 14:16:52
Last:19.10.2025 15:23:53
Duration:01:07:01
</desc></wpt>
<wpt lat = "45.19630" lon = "13.59136"><name>NAT2LS2</name><desc>Finish
Images:622
First:19.10.2025 14:14:11
Last:19.10.2025 15:23:53
Duration:01:09:42
</desc></wpt>
</gpx>