<?xml version='1.0' encoding='utf-8'?>
<gpx version="1.1" creator="Infofile GPX Generator">
<wpt lat = "16.09248" lon = "108.21546"><name>HTT1</name><desc>Bike - 17,0 km
Images:10431
First:11.05.2025 06:28:51
Last:11.05.2025 08:31:15
Duration:02:02:24
</desc></wpt>
<wpt lat = "16.09248" lon = "108.21546"><name>HTT1LS2</name><desc>Bike - 17,0 km
Images:1715
First:11.05.2025 05:45:57
Last:11.05.2025 08:34:29
Duration:02:48:32
</desc></wpt>
<wpt lat = "16.09248" lon = "108.21546"><name>HTT1LS1</name><desc>Bike - 17,0 km
Images:2703
First:11.05.2025 05:56:22
Last:11.05.2025 10:33:10
Duration:04:36:48
</desc></wpt>
<wpt lat = "16.09248" lon = "108.21546"><name>HTT2</name><desc>Bike - 63,0 km
Images:10748
First:11.05.2025 08:34:01
Last:11.05.2025 12:13:44
Duration:03:39:43
</desc></wpt>
<wpt lat = "16.09248" lon = "108.21546"><name>HTT2LS1</name><desc>Bike - 63,0 km
Images:7163
First:11.05.2025 08:34:59
Last:11.05.2025 15:17:22
Duration:06:42:23
</desc></wpt>
<wpt lat = "16.05437" lon = "108.24764"><name>HTT3</name><desc>Run - 6,5 km
Images:10843
First:11.05.2025 11:10:44
Last:11.05.2025 14:58:51
Duration:03:48:07
</desc></wpt>
<wpt lat = "16.04538" lon = "108.24916"><name>LDB3</name><desc>Run - 6,5 km
Images:12364
First:11.05.2025 10:13:44
Last:11.05.2025 13:00:18
Duration:02:46:34
</desc></wpt>
<wpt lat = "16.04538" lon = "108.24916"><name>LDB3LS1</name><desc>Run - 6,5 km
Images:5685
First:11.05.2025 10:34:55
Last:11.05.2025 13:12:56
Duration:02:38:01
</desc></wpt>
<wpt lat = "16.01618" lon = "108.26274"><name>LDB1</name><desc>Bike - Transition zone
Images:8391
First:11.05.2025 05:16:04
Last:11.05.2025 08:12:58
Duration:02:56:54
</desc></wpt>
<wpt lat = "16.01618" lon = "108.26274"><name>LDB1LS1</name><desc>Bike - Transition zone
Images:9620
First:11.05.2025 06:07:33
Last:11.05.2025 07:41:59
Duration:01:34:26
</desc></wpt>
<wpt lat = "16.04538" lon = "108.24916"><name>LDB2</name><desc>Bike - 80,0 km
Images:9995
First:11.05.2025 08:14:58
Last:11.05.2025 10:13:43
Duration:01:58:45
</desc></wpt>
<wpt lat = "16.04538" lon = "108.24916"><name>LDB2LS1</name><desc>Bike - 80,0 km
Images:5993
First:11.05.2025 08:07:26
Last:11.05.2025 10:34:37
Duration:02:27:11
</desc></wpt>
<wpt lat = "16.06380" lon = "108.24559"><name>MVV1</name><desc>Bike - 6,0 km
Images:6481
First:11.05.2025 05:27:30
Last:11.05.2025 07:56:01
Duration:02:28:31
</desc></wpt>
<wpt lat = "16.06380" lon = "108.24559"><name>MVV1LS1</name><desc>Bike - 6,0 km
Images:1108
First:11.05.2025 06:14:48
Last:11.05.2025 07:57:31
Duration:01:42:43
</desc></wpt>
<wpt lat = "16.03959" lon = "108.24966"><name>MVV2</name><desc>Run - 3,2 km
Images:13621
First:11.05.2025 08:57:15
Last:11.05.2025 12:28:47
Duration:03:31:32
</desc></wpt>
<wpt lat = "16.03959" lon = "108.24966"><name>MVV2LS1</name><desc>Run - 3,2 km
Images:3639
First:11.05.2025 10:08:39
Last:11.05.2025 12:29:09
Duration:02:20:30
</desc></wpt>
<wpt lat = "16.10224" lon = "108.26361"><name>NTA1</name><desc>Bike - 11,3 km
Images:3784
First:11.05.2025 06:30:06
Last:11.05.2025 08:18:42
Duration:01:48:36
</desc></wpt>
<wpt lat = "16.10224" lon = "108.26361"><name>NTA1LS2</name><desc>Bike - 11,3 km
Images:906
First:11.05.2025 06:16:31
Last:11.05.2025 08:33:08
Duration:02:16:37
</desc></wpt>
<wpt lat = "16.10224" lon = "108.26361"><name>NTA1LS1</name><desc>Bike - 11,3 km
Images:3468
First:11.05.2025 06:23:52
Last:11.05.2025 08:45:20
Duration:02:21:28
</desc></wpt>
<wpt lat = "16.10657" lon = "108.25322"><name>NTA2</name><desc>Bike - 67,0 km
Images:2884
First:11.05.2025 08:46:05
Last:11.05.2025 10:48:22
Duration:02:02:17
</desc></wpt>
<wpt lat = "16.10657" lon = "108.25322"><name>NTA2LS2</name><desc>Bike - 67,0 km
Images:354
First:11.05.2025 08:33:39
Last:11.05.2025 11:32:33
Duration:02:58:54
</desc></wpt>
<wpt lat = "16.10657" lon = "108.25322"><name>NTA2LS1</name><desc>Bike - 67,0 km
Images:1659
First:11.05.2025 08:45:36
Last:11.05.2025 10:42:07
Duration:01:56:31
</desc></wpt>
<wpt lat = "16.03201" lon = "108.25329"><name>NTA3</name><desc>Run - 13,0 km
Images:3448
First:11.05.2025 11:34:27
Last:11.05.2025 14:39:55
Duration:03:05:28
</desc></wpt>
<wpt lat = "16.03201" lon = "108.25329"><name>NTA3LS1</name><desc>Run - 13,0 km
Images:1299
First:11.05.2025 11:32:49
Last:11.05.2025 13:02:10
Duration:01:29:21
</desc></wpt>
<wpt lat = "16.01548" lon = "108.26419"><name>NTT1</name><desc>Swim - Start
Images:3939
First:11.05.2025 05:13:55
Last:11.05.2025 08:20:51
Duration:03:06:56
</desc></wpt>
<wpt lat = "16.01548" lon = "108.26419"><name>TAP1</name><desc>Swim - Start
Images:6531
First:11.05.2025 05:31:10
Last:11.05.2025 08:09:21
Duration:02:38:11
</desc></wpt>
<wpt lat = "16.01548" lon = "108.26419"><name>TDK1</name><desc>Swim - Start
Images:179
First:11.05.2025 05:00:41
Last:11.05.2025 05:43:24
Duration:00:42:43
</desc></wpt>
<wpt lat = "16.01548" lon = "108.26419"><name>NTT1LS2</name><desc>Swim - Transition zone
Images:2344
First:11.05.2025 06:12:52
Last:11.05.2025 07:31:11
Duration:01:18:19
</desc></wpt>
<wpt lat = "16.01548" lon = "108.26419"><name>NTT1LS1</name><desc>Swim - Transition zone
Images:2257
First:11.05.2025 06:13:43
Last:11.05.2025 07:30:27
Duration:01:16:44
</desc></wpt>
<wpt lat = "16.01529" lon = "108.26423"><name>NTT2</name><desc>Finish
Images:11522
First:11.05.2025 08:37:31
Last:11.05.2025 14:57:16
Duration:06:19:45
</desc></wpt>
<wpt lat = "16.01529" lon = "108.26423"><name>NTT2LS2</name><desc>Finish
Images:845
First:11.05.2025 07:57:16
Last:11.05.2025 11:53:52
Duration:03:56:36
</desc></wpt>
<wpt lat = "16.01529" lon = "108.26423"><name>NTT2LS1</name><desc>Finish
Images:5215
First:11.05.2025 11:56:03
Last:11.05.2025 14:53:43
Duration:02:57:40
</desc></wpt>
<wpt lat = "16.01529" lon = "108.26423"><name>TAP2</name><desc>Finish
Images:7680
First:11.05.2025 08:38:22
Last:11.05.2025 14:53:04
Duration:06:14:42
</desc></wpt>
<wpt lat = "16.07406" lon = "108.24533"><name>TDK2</name><desc>Bike - 7,0 km
Images:7326
First:11.05.2025 06:24:36
Last:11.05.2025 11:06:19
Duration:04:41:43
</desc></wpt>
<wpt lat = "16.01912" lon = "108.25933"><name>TDK3</name><desc>Run - 1,0 km
Images:3601
First:11.05.2025 11:38:30
Last:11.05.2025 14:45:34
Duration:03:07:04
</desc></wpt>
<wpt lat = "16.09248" lon = "108.21546"><name>PANO1</name><desc>Swim - Impressions / Pano
Images:1
First:11.05.2025 06:28:56
Last:11.05.2025 06:28:56
Duration:00:00:00
</desc></wpt>
</gpx>