<?xml version='1.0' encoding='utf-8'?>
<gpx version="1.1" creator="Infofile GPX Generator">
<wpt lat = "50.88307" lon = "5.80590"><name>JKE1</name><desc>3,2 km
Images:2635
First:09.05.2025 22:24:01
Last:10.05.2025 09:15:22
Duration:10:51:21
</desc></wpt>
<wpt lat = "50.88307" lon = "5.80590"><name>JKE1LS1</name><desc>3,2 km
Images:892
First:09.05.2025 18:07:13
Last:10.05.2025 09:53:31
Duration:15:46:18
</desc></wpt>
<wpt lat = "50.88307" lon = "5.80590"><name>JKE1LS2</name><desc>3,2 km
Images:999
First:09.05.2025 18:12:47
Last:10.05.2025 10:30:07
Duration:16:17:20
</desc></wpt>
<wpt lat = "50.90259" lon = "5.83410"><name>MAW1</name><desc>6,5 km
Images:910
First:10.05.2025 07:33:49
Last:11.05.2025 09:14:07
Duration:1.01:40:18
</desc></wpt>
<wpt lat = "50.90259" lon = "5.83410"><name>MAW1LS1</name><desc>6,5 km
Images:200
First:10.05.2025 07:00:04
Last:10.05.2025 08:44:00
Duration:01:43:56
</desc></wpt>
<wpt lat = "50.90259" lon = "5.83410"><name>MAW1LS2</name><desc>6,5 km
Images:211
First:10.05.2025 07:09:17
Last:10.05.2025 08:48:35
Duration:01:39:18
</desc></wpt>
<wpt lat = "50.90259" lon = "5.83410"><name>MAW1DRONE1</name><desc>6,5 km
Images:20
First:10.05.2025 08:34:42
Last:11.05.2025 15:33:31
Duration:1.06:58:49
</desc></wpt>
<wpt lat = "50.91086" lon = "5.83572"><name>WASA1</name><desc>7,0 km
Images:1255
First:10.05.2025 07:49:06
Last:10.05.2025 09:30:29
Duration:01:41:23
</desc></wpt>
<wpt lat = "50.84233" lon = "5.86909"><name>MAW2</name><desc>57,0 km
Images:5102
First:10.05.2025 09:29:34
Last:11.05.2025 11:34:42
Duration:1.02:05:08
</desc></wpt>
<wpt lat = "50.84233" lon = "5.86909"><name>MAW2LS1</name><desc>57,0 km
Images:647
First:10.05.2025 09:23:39
Last:10.05.2025 13:18:20
Duration:03:54:41
</desc></wpt>
<wpt lat = "50.84233" lon = "5.86909"><name>MAW2LS2</name><desc>57,0 km
Images:1206
First:10.05.2025 09:24:19
Last:10.05.2025 13:18:18
Duration:03:53:59
</desc></wpt>
<wpt lat = "50.84233" lon = "5.86909"><name>MAW2DRONE1</name><desc>57,0 km
Images:15
First:10.05.2025 09:51:17
Last:10.05.2025 09:55:18
Duration:00:04:01
</desc></wpt>
<wpt lat = "50.84618" lon = "5.85346"><name>JKE2</name><desc>62,0 km
Images:2402
First:10.05.2025 10:17:16
Last:10.05.2025 12:41:06
Duration:02:23:50
</desc></wpt>
<wpt lat = "50.84618" lon = "5.85346"><name>JKE2LS1</name><desc>62,0 km
Images:1903
First:10.05.2025 09:58:44
Last:10.05.2025 12:43:52
Duration:02:45:08
</desc></wpt>
<wpt lat = "50.84618" lon = "5.85346"><name>JKE2LS2</name><desc>62,0 km
Images:799
First:10.05.2025 10:30:08
Last:10.05.2025 12:41:21
Duration:02:11:13
</desc></wpt>
<wpt lat = "50.87642" lon = "5.80060"><name>JKE3</name><desc>82,5 km / 131 km
Images:1099
First:10.05.2025 13:19:52
Last:10.05.2025 16:51:53
Duration:03:32:01
</desc></wpt>
<wpt lat = "50.86581" lon = "5.82166"><name>WASA2</name><desc>Finish
Images:2080
First:10.05.2025 10:06:02
Last:10.05.2025 16:57:36
Duration:06:51:34
</desc></wpt>
<wpt lat = "50.86581" lon = "5.82166"><name>MAW3</name><desc>Impressions / Pano
Images:147
First:10.05.2025 16:02:47
Last:10.05.2025 16:57:05
Duration:00:54:18
</desc></wpt>
</gpx>