<?xml version='1.0' encoding='utf-8'?>
<gpx version="1.1" creator="Infofile GPX Generator">
<wpt lat = "52.30702" lon = "12.86309"><name>RAMA1</name><desc>ATLAS CARRY
Images:6105
First:20.07.2025 08:32:31
Last:20.07.2025 16:22:59
Duration:07:50:28
</desc></wpt>
<wpt lat = "52.30757" lon = "12.86100"><name>RPRA1</name><desc>RPRA
Images:11520
First:20.07.2025 08:15:42
Last:20.07.2025 16:28:27
Duration:08:12:45
</desc></wpt>
<wpt lat = "52.30238" lon = "12.85551"><name>DAN1</name><desc>BUCKET CARRY
Images:4620
First:20.07.2025 08:59:33
Last:20.07.2025 16:46:15
Duration:07:46:42
</desc></wpt>
<wpt lat = "52.30238" lon = "12.85551"><name>DAN1LS1</name><desc>BUCKET CARRY
Images:1845
First:20.07.2025 09:32:45
Last:20.07.2025 16:37:43
Duration:07:04:58
</desc></wpt>
<wpt lat = "52.30764" lon = "12.84860"><name>PJE1</name><desc>LOG CARRY
Images:2732
First:20.07.2025 08:45:52
Last:20.07.2025 13:10:04
Duration:04:24:12
</desc></wpt>
<wpt lat = "52.30764" lon = "12.84860"><name>PJE1LS1</name><desc>LOG CARRY
Images:2863
First:20.07.2025 08:28:21
Last:20.07.2025 13:10:04
Duration:04:41:43
</desc></wpt>
<wpt lat = "52.30278" lon = "12.84943"><name>GBR1</name><desc>BARBWIRE CRAWL
Images:5766
First:20.07.2025 08:45:15
Last:20.07.2025 16:55:28
Duration:08:10:13
</desc></wpt>
<wpt lat = "52.29053" lon = "12.84499"><name>FDC1</name><desc>APE HANGER
Images:11981
First:20.07.2025 08:32:31
Last:20.07.2025 16:22:59
Duration:07:50:28
</desc></wpt>
<wpt lat = "52.29509" lon = "12.85692"><name>CARS1</name><desc>A FRAME
Images:4121
First:20.07.2025 08:05:47
Last:20.07.2025 17:27:12
Duration:09:21:25
</desc></wpt>
<wpt lat = "52.29509" lon = "12.85692"><name>PJE2</name><desc>A FRAME
Images:667
First:20.07.2025 15:05:40
Last:20.07.2025 16:54:47
Duration:01:49:07
</desc></wpt>
<wpt lat = "52.29589" lon = "12.85740"><name>RYS1</name><desc>Finish
Images:6356
First:20.07.2025 09:20:30
Last:20.07.2025 17:31:44
Duration:08:11:14
</desc></wpt>
<wpt lat = "52.29589" lon = "12.85740"><name>RYS1LS2</name><desc>Finish
Images:5758
First:20.07.2025 09:40:27
Last:20.07.2025 17:09:17
Duration:07:28:50
</desc></wpt>
<wpt lat = "52.29589" lon = "12.85740"><name>RYS1LS1</name><desc>Finish
Images:5849
First:20.07.2025 09:40:28
Last:20.07.2025 17:09:19
Duration:07:28:51
</desc></wpt>
<wpt lat = "52.29589" lon = "12.85740"><name>JKIM1</name><desc>HERO TENT
Images:3163
First:20.07.2025 07:22:56
Last:20.07.2025 17:32:44
Duration:10:09:48
</desc></wpt>
<wpt lat = "52.29589" lon = "12.85740"><name>AGA1IMP1</name><desc>Impressions / Pano
Images:57
First:20.07.2025 08:39:00
Last:20.07.2025 15:16:23
Duration:06:37:23
</desc></wpt>
<wpt lat = "52.29589" lon = "12.85740"><name>AGA1DRONE1</name><desc>Impressions / Pano
Images:89
First:21.07.2025 08:40:18
Last:21.07.2025 16:55:04
Duration:08:14:46
</desc></wpt>
</gpx>