<?xml version='1.0' encoding='utf-8'?>
<gpx version="1.1" creator="Infofile GPX Generator">
<wpt lat = "68.56872" lon = "14.91255"><name>MW1</name><desc>Start
Images:401
First:07.06.2025 09:45:51
Last:07.06.2025 11:32:37
Duration:01:46:46
</desc></wpt>
<wpt lat = "68.57086" lon = "14.82463"><name>AGP1</name><desc>3.8 km
Images:1968
First:07.06.2025 09:43:31
Last:07.06.2025 12:22:15
Duration:02:38:44
</desc></wpt>
<wpt lat = "68.58155" lon = "14.69880"><name>JOM1</name><desc>9.5 km
Images:3027
First:07.06.2025 10:36:30
Last:07.06.2025 12:54:14
Duration:02:17:44
</desc></wpt>
<wpt lat = "68.58155" lon = "14.69880"><name>JOM1LS1</name><desc>9.5 km
Images:1341
First:07.06.2025 11:49:12
Last:07.06.2025 12:54:30
Duration:01:05:18
</desc></wpt>
<wpt lat = "68.55149" lon = "14.63393"><name>AGU1</name><desc>15.5 km
Images:1580
First:07.06.2025 11:32:15
Last:07.06.2025 13:36:10
Duration:02:03:55
</desc></wpt>
<wpt lat = "68.55149" lon = "14.63393"><name>AGU1LS2</name><desc>15.5 km
Images:396
First:07.06.2025 12:18:18
Last:07.06.2025 13:36:51
Duration:01:18:33
</desc></wpt>
<wpt lat = "68.55149" lon = "14.63393"><name>AGU1LS1</name><desc>15.5 km
Images:396
First:07.06.2025 12:18:48
Last:07.06.2025 13:37:20
Duration:01:18:32
</desc></wpt>
<wpt lat = "68.57164" lon = "14.82333"><name>AGP2</name><desc>17.0 km Halfmarathon
Images:2875
First:07.06.2025 11:14:57
Last:07.06.2025 13:52:22
Duration:02:37:25
</desc></wpt>
<wpt lat = "68.56719" lon = "14.84980"><name>AGU2</name><desc>2.5 km /10km
Images:2025
First:07.06.2025 15:08:15
Last:07.06.2025 16:04:59
Duration:00:56:44
</desc></wpt>
<wpt lat = "68.56719" lon = "14.84980"><name>AGU2LS2</name><desc>2.5 km /10km
Images:1009
First:07.06.2025 14:37:59
Last:07.06.2025 16:06:29
Duration:01:28:30
</desc></wpt>
<wpt lat = "68.56719" lon = "14.84980"><name>AGU2LS1</name><desc>2.5 km /10km
Images:1012
First:07.06.2025 14:41:01
Last:07.06.2025 16:06:58
Duration:01:25:57
</desc></wpt>
<wpt lat = "68.57086" lon = "14.82463"><name>AGP3</name><desc>3.8 km /10km
Images:1389
First:07.06.2025 15:00:13
Last:07.06.2025 15:37:06
Duration:00:36:53
</desc></wpt>
<wpt lat = "68.57203" lon = "14.82310"><name>JOM2</name><desc>6.0 km /10km
Images:2131
First:07.06.2025 15:03:25
Last:07.06.2025 15:53:14
Duration:00:49:49
</desc></wpt>
<wpt lat = "68.57203" lon = "14.82310"><name>JOM2LS1</name><desc>6.0 km /10km
Images:933
First:07.06.2025 15:12:06
Last:07.06.2025 15:53:22
Duration:00:41:16
</desc></wpt>
<wpt lat = "68.56729" lon = "14.91382"><name>MW2</name><desc>Finish
Images:5796
First:07.06.2025 11:34:51
Last:07.06.2025 17:42:06
Duration:06:07:15
</desc></wpt>
<wpt lat = "68.56729" lon = "14.91382"><name>MW2LS1</name><desc>Finish
Images:1449
First:07.06.2025 11:53:40
Last:07.06.2025 17:27:32
Duration:05:33:52
</desc></wpt>
</gpx>