<?xml version='1.0' encoding='utf-8'?>
<gpx version="1.1" creator="Infofile GPX Generator">
<wpt lat = "50.93094" lon = "6.9688"><name>BMW2</name><desc>1.5 km before Finish
Images:2781
First:18.05.2025 11:58:28
Last:18.05.2025 14:28:55
Duration:02:30:27
</desc></wpt>
<wpt lat = "50.93094" lon = "6.9688"><name>BMW2LS1</name><desc>1.5 km before Finish
Images:1946
First:18.05.2025 11:50:57
Last:18.05.2025 14:35:16
Duration:02:44:19
</desc></wpt>
<wpt lat = "50.93094" lon = "6.9688"><name>BMW2LS2</name><desc>1.5 km before Finish
Images:2056
First:18.05.2025 11:41:12
Last:18.05.2025 14:36:13
Duration:02:55:01
</desc></wpt>
<wpt lat = "50.93094" lon = "6.9688"><name>BOP2</name><desc>1.5 km before Finish
Images:3205
First:18.05.2025 11:49:45
Last:18.05.2025 14:37:46
Duration:02:48:01
</desc></wpt>
<wpt lat = "50.93094" lon = "6.9688"><name>BOP2LS1</name><desc>1.5 km before Finish
Images:1998
First:18.05.2025 11:36:05
Last:18.05.2025 14:35:13
Duration:02:59:08
</desc></wpt>
<wpt lat = "50.93094" lon = "6.9688"><name>BMW1</name><desc>1.5 km Severinsbrücke
Images:4714
First:17.05.2025 16:10:56
Last:18.05.2025 09:52:57
Duration:17:42:01
</desc></wpt>
<wpt lat = "50.93094" lon = "6.9688"><name>BMW1LS1</name><desc>1.5 km Severinsbrücke
Images:3046
First:17.05.2025 16:09:18
Last:18.05.2025 10:00:44
Duration:17:51:26
</desc></wpt>
<wpt lat = "50.93094" lon = "6.9688"><name>BMW1LS2</name><desc>1.5 km Severinsbrücke
Images:1546
First:17.05.2025 16:13:09
Last:18.05.2025 09:41:04
Duration:17:27:55
</desc></wpt>
<wpt lat = "50.93094" lon = "6.9688"><name>BOP1</name><desc>1.5 km Severinsbrücke
Images:9358
First:18.05.2025 08:14:11
Last:18.05.2025 09:53:45
Duration:01:39:34
</desc></wpt>
<wpt lat = "50.93094" lon = "6.9688"><name>BOP1LS1</name><desc>1.5 km Severinsbrücke
Images:6754
First:18.05.2025 08:45:56
Last:18.05.2025 09:53:39
Duration:01:07:43
</desc></wpt>
<wpt lat = "50.92113" lon = "7.15556"><name>ALTJ1</name><desc>104.0 km Forsbach
Images:5375
First:18.05.2025 10:14:06
Last:18.05.2025 14:09:18
Duration:03:55:12
</desc></wpt>
<wpt lat = "50.92113" lon = "7.15556"><name>AMIJA1</name><desc>104.0 km Forsbach
Images:14021
First:18.05.2025 10:12:00
Last:18.05.2025 13:57:36
Duration:03:45:36
</desc></wpt>
<wpt lat = "50.92113" lon = "7.15556"><name>AOT1</name><desc>104.0 km Forsbach
Images:30558
First:17.05.2025 13:44:46
Last:18.05.2025 14:06:34
Duration:1.00:21:48
</desc></wpt>
<wpt lat = "50.92113" lon = "7.15556"><name>AOT1LS1</name><desc>104.0 km Forsbach
Images:8758
First:18.05.2025 09:31:21
Last:18.05.2025 14:09:52
Duration:04:38:31
</desc></wpt>
<wpt lat = "50.92006" lon = "7.09884"><name>AMB1</name><desc>109.0 km Schmitzebud
Images:8983
First:17.05.2025 15:03:57
Last:18.05.2025 14:11:27
Duration:23:07:30
</desc></wpt>
<wpt lat = "50.93368" lon = "7.01550"><name>BFMT1</name><desc>5.0 km before Finish
Images:15070
First:18.05.2025 10:28:30
Last:18.05.2025 15:00:46
Duration:04:32:16
</desc></wpt>
<wpt lat = "50.93368" lon = "7.01550"><name>BFMT1LS1</name><desc>5.0 km before Finish
Images:3202
First:18.05.2025 09:32:45
Last:18.05.2025 14:53:03
Duration:05:20:18
</desc></wpt>
<wpt lat = "50.99011" lon = "7.15772"><name>ADRI1</name><desc>92.0 km Bergwertung Sand
Images:6960
First:18.05.2025 09:56:05
Last:18.05.2025 13:43:47
Duration:03:47:42
</desc></wpt>
<wpt lat = "50.99011" lon = "7.15772"><name>ADRI1DRONE1</name><desc>92.0 km Bergwertung Sand
Images:30
First:18.05.2025 08:10:45
Last:18.05.2025 12:59:47
Duration:04:49:02
</desc></wpt>
<wpt lat = "50.99011" lon = "7.15772"><name>ADRI1LS1</name><desc>92.0 km Bergwertung Sand
Images:11738
First:18.05.2025 09:21:13
Last:18.05.2025 13:48:17
Duration:04:27:04
</desc></wpt>
<wpt lat = "50.99011" lon = "7.15772"><name>ADRI1LS2</name><desc>92.0 km Bergwertung Sand
Images:10859
First:18.05.2025 09:19:47
Last:18.05.2025 13:49:03
Duration:04:29:16
</desc></wpt>
<wpt lat = "50.99011" lon = "7.15772"><name>AKOLS1</name><desc>92.0 km Bergwertung Sand
Images:13337
First:18.05.2025 06:55:38
Last:18.05.2025 13:42:09
Duration:06:46:31
</desc></wpt>
<wpt lat = "50.99011" lon = "7.15772"><name>ANBA1</name><desc>92.0 km Bergwertung Sand
Images:8569
First:18.05.2025 08:54:23
Last:18.05.2025 13:58:53
Duration:05:04:30
</desc></wpt>
<wpt lat = "50.97291" lon = "7.14455"><name>ASSW1</name><desc>96.0 km
Images:8906
First:18.05.2025 10:00:50
Last:18.05.2025 13:37:03
Duration:03:36:13
</desc></wpt>
<wpt lat = "50.97291" lon = "7.14455"><name>ASSW1LS1</name><desc>96.0 km
Images:8728
First:18.05.2025 09:48:23
Last:18.05.2025 13:41:55
Duration:03:53:32
</desc></wpt>
<wpt lat = "50.97291" lon = "7.14455"><name>ASSW1LS2</name><desc>96.0 km
Images:7653
First:18.05.2025 09:58:58
Last:18.05.2025 13:40:23
Duration:03:41:25
</desc></wpt>
<wpt lat = "50.96649" lon = "7.16004"><name>AANR1</name><desc>98.0 km Schloss Bensberg
Images:14606
First:18.05.2025 10:05:30
Last:18.05.2025 15:09:49
Duration:05:04:19
</desc></wpt>
<wpt lat = "50.96649" lon = "7.16004"><name>AFCO1</name><desc>98.0 km Schloss Bensberg
Images:18601
First:18.05.2025 09:47:13
Last:18.05.2025 15:12:47
Duration:05:25:34
</desc></wpt>
<wpt lat = "50.96649" lon = "7.16004"><name>AJKE1</name><desc>98.0 km Schloss Bensberg
Images:13591
First:17.05.2025 21:48:08
Last:18.05.2025 13:56:27
Duration:16:08:19
</desc></wpt>
<wpt lat = "50.96649" lon = "7.16004"><name>AJKE1LS1</name><desc>98.0 km Schloss Bensberg
Images:5319
First:18.05.2025 10:05:47
Last:18.05.2025 14:05:58
Duration:04:00:11
</desc></wpt>
<wpt lat = "50.96649" lon = "7.16004"><name>AJKE1LS2</name><desc>98.0 km Schloss Bensberg
Images:7716
First:17.05.2025 21:43:05
Last:18.05.2025 13:51:49
Duration:16:08:44
</desc></wpt>
<wpt lat = "50.92528" lon = "6.96534"><name>BALN2</name><desc>Finish
Images:15944
First:18.05.2025 10:38:51
Last:18.05.2025 14:45:14
Duration:04:06:23
</desc></wpt>
<wpt lat = "50.92528" lon = "6.96534"><name>BALN2LS1</name><desc>Finish
Images:4138
First:27.04.2025 08:25:30
Last:18.05.2025 14:46:25
Duration:21.06:20:55
</desc></wpt>
<wpt lat = "50.92528" lon = "6.96534"><name>BALN2LS2</name><desc>Finish
Images:3279
First:18.05.2025 10:39:25
Last:18.05.2025 14:44:40
Duration:04:05:15
</desc></wpt>
<wpt lat = "50.92528" lon = "6.96534"><name>BLUGR2</name><desc>Finish
Images:16042
First:18.05.2025 10:35:28
Last:18.05.2025 14:47:45
Duration:04:12:17
</desc></wpt>
<wpt lat = "50.92528" lon = "6.96534"><name>BMIV2</name><desc>Finish
Images:11386
First:18.05.2025 10:42:32
Last:18.05.2025 14:51:32
Duration:04:09:00
</desc></wpt>
<wpt lat = "50.92528" lon = "6.96534"><name>BALN1</name><desc>Start
Images:8835
First:18.05.2025 08:57:31
Last:18.05.2025 09:50:04
Duration:00:52:33
</desc></wpt>
<wpt lat = "50.92528" lon = "6.96534"><name>BALN1LS1</name><desc>Start
Images:1897
First:18.05.2025 08:43:24
Last:18.05.2025 09:50:22
Duration:01:06:58
</desc></wpt>
<wpt lat = "50.92528" lon = "6.96534"><name>BALN1LS2</name><desc>Start
Images:1888
First:18.05.2025 08:45:28
Last:18.05.2025 09:50:21
Duration:01:04:53
</desc></wpt>
<wpt lat = "50.92528" lon = "6.96534"><name>BLUGR1</name><desc>Start
Images:4387
First:18.05.2025 08:24:56
Last:18.05.2025 09:49:44
Duration:01:24:48
</desc></wpt>
<wpt lat = "50.92528" lon = "6.96534"><name>BMBEN1</name><desc>Start
Images:1264
First:18.05.2025 08:24:28
Last:18.05.2025 14:45:05
Duration:06:20:37
</desc></wpt>
<wpt lat = "50.92528" lon = "6.96534"><name>BMIV1</name><desc>Start
Images:10492
First:18.05.2025 08:42:16
Last:18.05.2025 10:33:07
Duration:01:50:51
</desc></wpt>
</gpx>