<?xml version='1.0' encoding='utf-8'?>
<gpx version="1.1" creator="Infofile GPX Generator">
<wpt lat = "53.00398" lon = "-6.29981"><name>GMU1</name><desc>Start
Images:1892
First:05.04.2025 07:25:51
Last:05.04.2025 10:12:00
Duration:02:46:09
</desc></wpt>
<wpt lat = "52.99261" lon = "-6.30364"><name>SOUG1</name><desc>Bike - Km 1.5 of 59K & 43K &42K
Images:1657
First:05.04.2025 07:40:07
Last:05.04.2025 09:49:44
Duration:02:09:37
</desc></wpt>
<wpt lat = "52.98888" lon = "-6.29678"><name>GEB1</name><desc>Bike - Km 11.5 of 21K / Km 30 of 42K & 43K / Km 46 of 59K
Images:3209
First:05.04.2025 07:55:00
Last:05.04.2025 12:32:15
Duration:04:37:15
</desc></wpt>
<wpt lat = "53.00140" lon = "-6.34561"><name>HED1</name><desc>Run - Km 16 of 21K / Km 37 of 42K /Km 37.5 of 43K / Km 53 of 59K
Images:7646
First:05.04.2025 07:28:10
Last:05.04.2025 13:56:36
Duration:06:28:26
</desc></wpt>
<wpt lat = "53.00580" lon = "-6.34749"><name>OHAL1</name><desc>Kayak -
Images:7743
First:05.04.2025 07:52:16
Last:05.04.2025 14:06:16
Duration:06:14:00
</desc></wpt>
<wpt lat = "53.00633" lon = "-6.29907"><name>GMU2</name><desc>Finish
Images:9475
First:05.04.2025 10:50:01
Last:05.04.2025 14:28:58
Duration:03:38:57
</desc></wpt>
<wpt lat = "53.00511" lon = "-6.30334"><name>SOUG1DRONE1</name><desc>Impressions / Pano
Images:8
First:05.04.2025 08:10:08
Last:05.04.2025 13:22:36
Duration:05:12:28
</desc></wpt>
</gpx>