<?xml version='1.0' encoding='utf-8'?>
<gpx version="1.1" creator="Infofile GPX Generator">
<wpt lat = "52.13933" lon = "-10.28049"><name>SKAL1</name><desc>Start
Images:1072
First:26.04.2025 07:22:18
Last:26.04.2025 08:12:38
Duration:00:50:20
</desc></wpt>
<wpt lat = "52.12490" lon = "-10.33821"><name>OHAL1</name><desc>Km 6 of 55Km & 120Km
Images:1513
First:26.04.2025 07:33:44
Last:26.04.2025 09:12:10
Duration:01:38:26
</desc></wpt>
<wpt lat = "52.12490" lon = "-10.33563"><name>OHAL1LS1</name><desc>Km 6 of 55Km & 120Km
Images:945
First:26.04.2025 07:55:39
Last:26.04.2025 08:58:14
Duration:01:02:35
</desc></wpt>
<wpt lat = "52.09838" lon = "-10.45781"><name>HED1</name><desc>Km 17.100 of 55Km & 120Km
Images:2945
First:26.04.2025 07:27:18
Last:26.04.2025 09:38:19
Duration:02:11:01
</desc></wpt>
<wpt lat = "52.10258" lon = "-10.45855"><name>SOUG1</name><desc>Km 17.400 of 55Km & 120Km
Images:6505
First:26.04.2025 07:33:57
Last:26.04.2025 09:36:42
Duration:02:02:45
</desc></wpt>
<wpt lat = "52.15035" lon = "-10.46715"><name>KRE1</name><desc>Km 24.410 of 55 Km & 120 Km
Images:1980
First:25.04.2025 21:45:00
Last:26.04.2025 09:46:19
Duration:12:01:19
</desc></wpt>
<wpt lat = "52.18271" lon = "-10.29721"><name>SKAL2</name><desc>Km 50.500 of 55Km & 120Km
Images:4440
First:26.04.2025 09:04:20
Last:26.04.2025 11:24:59
Duration:02:20:39
</desc></wpt>
<wpt lat = "52.13932" lon = "-10.28124"><name>OHAL2</name><desc>Finish
Images:5392
First:26.04.2025 09:45:54
Last:26.04.2025 17:04:39
Duration:07:18:45
</desc></wpt>
<wpt lat = "52.13932" lon = "-10.28124"><name>OHAL2LS1</name><desc>Finish
Images:31
First:26.04.2025 09:44:42
Last:26.04.2025 09:59:00
Duration:00:14:18
</desc></wpt>
<wpt lat = "52.17741" lon = "-10.22451"><name>HED2</name><desc>Km 62.500 of 120Km
Images:1909
First:26.04.2025 10:22:27
Last:26.04.2025 13:11:33
Duration:02:49:06
</desc></wpt>
<wpt lat = "52.18591" lon = "-10.19507"><name>SOUG2</name><desc>Km 64.700 of 120Km
Images:4023
First:26.04.2025 10:22:55
Last:26.04.2025 13:26:38
Duration:03:03:43
</desc></wpt>
<wpt lat = "52.12954" lon = "-10.24850"><name>KRE2</name><desc>Km 117.731 of 120Km
Images:1893
First:26.04.2025 11:00:41
Last:26.04.2025 16:16:34
Duration:05:15:53
</desc></wpt>
<wpt lat = "52.13367" lon = "-10.27482"><name>SKAL3</name><desc>Km 119 of 120Km
Images:2505
First:26.04.2025 11:58:12
Last:26.04.2025 16:19:32
Duration:04:21:20
</desc></wpt>
<wpt lat = "52.10567" lon = "-10.45865"><name>SOUG1DRONE1</name><desc>various
Images:12
First:26.04.2025 09:17:06
Last:26.04.2025 11:27:44
Duration:02:10:38
</desc></wpt>
</gpx>