<?xml version='1.0' encoding='utf-8'?>
<gpx version="1.1" creator="Infofile GPX Generator">
<wpt lat = "51.50620" lon = "7.05818"><name>OT1</name><desc>Obstacle 4 Schlammbecken
Images:16005
First:01.01.0001 23:00:00
Last:14.06.2025 13:53:28
Duration:739414.14:53:28
</desc></wpt>
<wpt lat = "51.50620" lon = "7.05818"><name>OT1LS1</name><desc>Obstacle 4 Schlammbecken
Images:1399
First:13.06.2025 22:27:25
Last:14.06.2025 13:54:49
Duration:15:27:24
</desc></wpt>
<wpt lat = "51.50620" lon = "7.05818"><name>DPH1</name><desc>Obstacle 4 Schlammbecken
Images:6979
First:01.01.0001 23:00:00
Last:14.06.2025 13:53:12
Duration:739414.14:53:12
</desc></wpt>
<wpt lat = "51.50742" lon = "7.05487"><name>ALN1</name><desc>Obstacle 5 Schaumparty
Images:20037
First:14.06.2025 09:43:40
Last:14.06.2025 14:03:03
Duration:04:19:23
</desc></wpt>
<wpt lat = "51.50742" lon = "7.05487"><name>ALN1DRONE1</name><desc>Obstacle 5 Schaumparty
Images:24
First:14.06.2025 08:18:56
Last:14.06.2025 10:29:36
Duration:02:10:40
</desc></wpt>
<wpt lat = "51.50742" lon = "7.05487"><name>ALN1LS1</name><desc>Obstacle 5 Schaumparty
Images:2948
First:14.06.2025 09:23:45
Last:14.06.2025 13:58:41
Duration:04:34:56
</desc></wpt>
<wpt lat = "51.50742" lon = "7.05487"><name>ALN1LS2</name><desc>Obstacle 5 Schaumparty
Images:3865
First:14.06.2025 09:29:50
Last:14.06.2025 13:49:39
Duration:04:19:49
</desc></wpt>
<wpt lat = "51.50687" lon = "7.05516"><name>MBEN1</name><desc>Obstacle 8 Seiltanz
Images:12157
First:14.06.2025 09:52:13
Last:14.06.2025 14:17:54
Duration:04:25:41
</desc></wpt>
<wpt lat = "51.50608" lon = "7.05880"><name>FCO1</name><desc>Obstacle 9 Tauchbecken
Images:11575
First:14.06.2025 09:25:16
Last:14.06.2025 14:27:49
Duration:05:02:33
</desc></wpt>
<wpt lat = "51.50608" lon = "7.05880"><name>GAC1</name><desc>Obstacle 9 Tauchbecken
Images:6446
First:14.06.2025 09:43:09
Last:14.06.2025 14:29:44
Duration:04:46:35
</desc></wpt>
<wpt lat = "51.50743" lon = "7.05430"><name>MW1</name><desc>Obstacle 10 Pyramide
Images:2905
First:14.06.2025 11:22:54
Last:14.06.2025 13:01:58
Duration:01:39:04
</desc></wpt>
<wpt lat = "51.50635" lon = "7.05523"><name>LV1</name><desc>Obstacle 11 Krabbelstrecke
Images:11950
First:14.06.2025 10:02:51
Last:14.06.2025 14:46:52
Duration:04:44:01
</desc></wpt>
<wpt lat = "51.50635" lon = "7.05523"><name>LV1LS2</name><desc>Obstacle 11 Krabbelstrecke
Images:4005
First:13.06.2025 18:50:48
Last:14.06.2025 14:47:04
Duration:19:56:16
</desc></wpt>
<wpt lat = "51.50635" lon = "7.05523"><name>DEES1</name><desc>Obstacle 11 Krabbelstrecke
Images:6945
First:13.06.2025 18:31:11
Last:14.06.2025 14:46:28
Duration:20:15:17
</desc></wpt>
<wpt lat = "51.50638" lon = "7.05404"><name>AAB1</name><desc>Obstacle 12 Gitterbecken
Images:4669
First:14.06.2025 10:03:34
Last:14.06.2025 14:51:15
Duration:04:47:41
</desc></wpt>
<wpt lat = "51.50638" lon = "7.05404"><name>AAB1LS1</name><desc>Obstacle 12 Gitterbecken
Images:4477
First:14.06.2025 09:25:18
Last:14.06.2025 14:31:06
Duration:05:05:48
</desc></wpt>
<wpt lat = "51.50638" lon = "7.05404"><name>JKE1</name><desc>Obstacle 12 Gitterbecken
Images:4872
First:13.06.2025 19:06:57
Last:14.06.2025 14:49:42
Duration:19:42:45
</desc></wpt>
<wpt lat = "51.50638" lon = "7.05404"><name>JKE1LS1</name><desc>Obstacle 12 Gitterbecken
Images:4664
First:14.06.2025 09:27:58
Last:14.06.2025 14:48:44
Duration:05:20:46
</desc></wpt>
<wpt lat = "51.50596" lon = "7.05591"><name>MIV1</name><desc>Obstacle 15 Containerrutsche
Images:18832
First:14.06.2025 09:34:37
Last:14.06.2025 15:03:26
Duration:05:28:49
</desc></wpt>
<wpt lat = "51.50596" lon = "7.05591"><name>MIV1LS2</name><desc>Obstacle 15 Containerrutsche
Images:5631
First:14.06.2025 09:21:59
Last:14.06.2025 15:03:34
Duration:05:41:35
</desc></wpt>
<wpt lat = "51.50596" lon = "7.05591"><name>MIV1LS1</name><desc>Obstacle 15 Containerrutsche
Images:6414
First:14.06.2025 09:25:25
Last:14.06.2025 15:03:33
Duration:05:38:08
</desc></wpt>
<wpt lat = "51.50596" lon = "7.05591"><name>NBA1</name><desc>Finish
Images:3629
First:14.06.2025 08:56:45
Last:14.06.2025 15:04:08
Duration:06:07:23
</desc></wpt>
<wpt lat = "51.50596" lon = "7.05591"><name>MW1LS1</name><desc>Finish
Images:2442
First:14.06.2025 09:59:06
Last:14.06.2025 13:02:19
Duration:03:03:13
</desc></wpt>
<wpt lat = "51.50596" lon = "7.05591"><name>KFK1LS1</name><desc>Finish
Images:909
First:14.06.2025 09:23:17
Last:14.06.2025 15:08:47
Duration:05:45:30
</desc></wpt>
<wpt lat = "51.50596" lon = "7.05591"><name>RA1LS2</name><desc>Finish
Images:984
First:14.07.2025 20:44:46
Last:15.07.2025 03:04:18
Duration:06:19:32
</desc></wpt>
<wpt lat = "51.50596" lon = "7.05591"><name>RA1LS1</name><desc>Finish
Images:2449
First:14.06.2025 08:31:24
Last:14.06.2025 15:03:53
Duration:06:32:29
</desc></wpt>
<wpt lat = "51.50596" lon = "7.05591"><name>KFK1</name><desc>Herotent
Images:1033
First:14.06.2025 10:19:16
Last:14.06.2025 15:06:01
Duration:04:46:45
</desc></wpt>
<wpt lat = "51.50596" lon = "7.05591"><name>RA1</name><desc>Herotent
Images:6693
First:14.06.2025 10:10:01
Last:14.06.2025 15:01:39
Duration:04:51:38
</desc></wpt>
</gpx>