<?xml version='1.0' encoding='utf-8'?>
<gpx version="1.1" creator="Infofile GPX Generator">
<wpt lat = "50.83792" lon = "4.40477"><name>TOBB1</name><desc>3.0 km Av. de Tervueren
Images:9012
First:21.06.2025 12:26:23
Last:22.06.2025 10:04:29
Duration:21:38:06
</desc></wpt>
<wpt lat = "50.83792" lon = "4.40477"><name>TOBB1LS1</name><desc>3.0 km Av. de Tervueren
Images:7056
First:21.06.2025 12:12:45
Last:22.06.2025 10:06:04
Duration:21:53:19
</desc></wpt>
<wpt lat = "50.83796" lon = "4.40536"><name>TOBB1LS2</name><desc>3.1 km Av. de Tervueren
Images:2000
First:21.06.2025 12:10:07
Last:22.06.2025 10:24:08
Duration:22:14:01
</desc></wpt>
<wpt lat = "50.82880" lon = "4.43277"><name>OT1</name><desc>5.5 km Musée du Transport
Images:9127
First:22.06.2025 07:49:36
Last:22.06.2025 10:20:18
Duration:02:30:42
</desc></wpt>
<wpt lat = "50.80488" lon = "4.37736"><name>BAR1</name><desc>13.6 km Av. du Panorama
Images:9186
First:21.06.2025 20:51:44
Last:22.06.2025 10:51:06
Duration:13:59:22
</desc></wpt>
<wpt lat = "50.82092" lon = "4.38632"><name>TLA1</name><desc>16.3 km Blvd Géneral Jacques
Images:9055
First:21.06.2025 20:48:53
Last:22.06.2025 10:59:51
Duration:14:10:58
</desc></wpt>
<wpt lat = "50.84393" lon = "4.40555"><name>MIBU1</name><desc>19.3 km Bd Brand Whitlock
Images:4820
First:22.06.2025 07:47:49
Last:22.06.2025 11:00:28
Duration:03:12:39
</desc></wpt>
<wpt lat = "50.84393" lon = "4.40555"><name>MIBU1LS1</name><desc>19.3 km Bd Brand Whitlock
Images:3967
First:22.06.2025 07:33:47
Last:22.06.2025 11:04:34
Duration:03:30:47
</desc></wpt>
<wpt lat = "50.84393" lon = "4.40555"><name>MIBU1LS2</name><desc>19.3 km Bd Brand Whitlock
Images:2776
First:21.06.2025 12:22:25
Last:22.06.2025 11:09:42
Duration:22:47:17
</desc></wpt>
<wpt lat = "50.88153" lon = "4.37391"><name>PBO1</name><desc>7.0 km before finish Docks
Images:7467
First:21.06.2025 11:07:30
Last:22.06.2025 11:28:24
Duration:1.00:20:54
</desc></wpt>
<wpt lat = "50.89339" lon = "4.36095"><name>TID1</name><desc>4.7 km before finish Tour Japonaise
Images:5882
First:21.06.2025 23:51:55
Last:22.06.2025 11:43:29
Duration:11:51:34
</desc></wpt>
<wpt lat = "50.89339" lon = "4.36095"><name>TID1LS1</name><desc>4.7 km before finish Tour Japonaise
Images:1300
First:22.06.2025 00:00:00
Last:22.06.2025 11:38:21
Duration:11:38:21
</desc></wpt>
<wpt lat = "50.88862" lon = "4.35624"><name>FVE1</name><desc>4.0 km before finish Av. du Parc Royal
Images:6994
First:22.06.2025 09:40:37
Last:22.06.2025 11:48:44
Duration:02:08:07
</desc></wpt>
<wpt lat = "50.89980" lon = "4.34191"><name>DAV1</name><desc>Finish
Images:9288
First:22.06.2025 07:05:09
Last:22.06.2025 11:58:19
Duration:04:53:10
</desc></wpt>
</gpx>