<?xml version='1.0' encoding='utf-8'?>
<gpx version="1.1" creator="Infofile GPX Generator">
<wpt lat = "51.66121" lon = "-0.96980"><name>TOMY1</name><desc>Km 1 of 100K & 50K Saturday
Images:2670
First:12.07.2025 06:06:19
Last:12.07.2025 10:55:48
Duration:04:49:29
</desc></wpt>
<wpt lat = "51.64234" lon = "-0.98812"><name>JOEM1</name><desc>Km 3.5 of 100K & 50K Saturday
Images:6756
First:12.07.2025 06:37:50
Last:12.07.2025 09:25:25
Duration:02:47:35
</desc></wpt>
<wpt lat = "51.61902" lon = "-1.01464"><name>KYY1</name><desc>Km 7.6 of 100K & 50K Saturday
Images:8160
First:12.07.2025 07:02:35
Last:12.07.2025 10:21:02
Duration:03:18:27
</desc></wpt>
<wpt lat = "51.60855" lon = "-1.01499"><name>WIN1</name><desc>Km 8.8 of 100K & 50K Saturday
Images:10422
First:12.07.2025 07:04:36
Last:12.07.2025 10:41:09
Duration:03:36:33
</desc></wpt>
<wpt lat = "51.60246" lon = "-1.02186"><name>CNS1</name><desc>Km 9.6 of 100K & 50K Saturday
Images:6708
First:12.07.2026 06:07:07
Last:12.07.2026 10:59:28
Duration:04:52:21
</desc></wpt>
<wpt lat = "51.59720" lon = "-1.02886"><name>SHP1</name><desc>Km 10.7 of 100K & 50K Saturday
Images:5783
First:12.07.2025 06:38:04
Last:12.07.2025 11:29:07
Duration:04:51:03
</desc></wpt>
<wpt lat = "51.58678" lon = "-1.03001"><name>PARO1</name><desc>Km 11.9 of 100K & 50K Saturday
Images:9261
First:12.07.2025 07:22:53
Last:12.07.2025 11:49:22
Duration:04:26:29
</desc></wpt>
<wpt lat = "51.58678" lon = "-1.03001"><name>PARO1LS1</name><desc>Km 11.9 of 100K & 50K Saturday
Images:1621
First:12.07.2025 07:22:48
Last:12.07.2025 11:37:12
Duration:04:14:24
</desc></wpt>
<wpt lat = "51.58678" lon = "-1.03001"><name>PARO1LS2</name><desc>Km 11.9 of 100K & 50K Saturday
Images:1672
First:12.07.2025 07:20:29
Last:12.07.2025 11:29:15
Duration:04:08:46
</desc></wpt>
<wpt lat = "51.55173" lon = "-1.40224"><name>TOMY2</name><desc>Km 50 of 100K & Finish of 50K Saturday
Images:5701
First:12.07.2025 10:40:13
Last:12.07.2025 21:48:24
Duration:11:08:11
</desc></wpt>
<wpt lat = "51.55656" lon = "-1.49064"><name>JOEM2</name><desc>Km 56 of 100K  & 6 of 50K Sunday
Images:3935
First:12.07.2025 11:26:44
Last:12.07.2025 20:31:29
Duration:09:04:45
</desc></wpt>
<wpt lat = "51.51998" lon = "-1.68987"><name>WIN2</name><desc>Km 73.2 of 100K  & 23.2 of 50K Sunday
Images:7374
First:12.07.2025 12:53:53
Last:13.07.2025 12:55:56
Duration:1.00:02:03
</desc></wpt>
<wpt lat = "51.50949" lon = "-1.69290"><name>CNS2</name><desc>Km 75 of 100K  & 25 of 50K Sunday
Images:7185
First:12.07.2026 13:02:22
Last:13.07.2026 13:14:05
Duration:1.00:11:43
</desc></wpt>
<wpt lat = "51.47932" lon = "-1.75705"><name>MKH1</name><desc>Km 86.9 of 100K  & 36.9 of 50K Sunday
Images:1391
First:12.07.2025 12:33:16
Last:12.07.2025 20:31:38
Duration:07:58:22
</desc></wpt>
<wpt lat = "51.47932" lon = "-1.75705"><name>TOMY3</name><desc>Km 86.9 of 100K  & 36.9 of 50K Sunday
Images:1180
First:13.07.2025 06:40:12
Last:13.07.2025 16:16:42
Duration:09:36:30
</desc></wpt>
<wpt lat = "51.48576" lon = "-1.79101"><name>KYY2</name><desc>Km 89.4 of 100K  & 39.4 of 50K Sunday
Images:8950
First:12.07.2025 13:18:28
Last:13.07.2025 17:32:54
Duration:1.04:14:26
</desc></wpt>
<wpt lat = "51.42868" lon = "-1.85344"><name>SHP2</name><desc>Km 98.5 of 100K  & 48.5 of 50K Sunday
Images:3151
First:12.07.2025 14:14:50
Last:13.07.2025 20:07:03
Duration:1.05:52:13
</desc></wpt>
<wpt lat = "51.42868" lon = "-1.85344"><name>WIN3</name><desc>Km 98.5 of 100K  & 48.5 of 50K Sunday
Images:199
First:13.07.2025 15:22:26
Last:13.07.2025 16:53:34
Duration:01:31:08
</desc></wpt>
<wpt lat = "51.43419" lon = "-1.85296"><name>PARO2LS1</name><desc>Pre Finish of 100K and 50K Sunday
Images:1894
First:12.07.2025 15:56:43
Last:13.07.2025 19:14:14
Duration:1.03:17:31
</desc></wpt>
<wpt lat = "51.43419" lon = "-1.85296"><name>PARO2</name><desc>Finish
Images:3012
First:12.07.2025 14:11:33
Last:13.07.2025 11:50:58
Duration:21:39:25
</desc></wpt>
<wpt lat = "51.43419" lon = "-1.85296"><name>PARO2LS2</name><desc>Finish
Images:2363
First:12.07.2025 14:03:28
Last:13.07.2025 18:39:17
Duration:1.04:35:49
</desc></wpt>
<wpt lat = "51.43419" lon = "-1.85296"><name>MKH2</name><desc>Finish
Images:405
First:12.07.2025 21:26:53
Last:13.07.2025 08:33:36
Duration:11:06:43
</desc></wpt>
<wpt lat = "51.43419" lon = "-1.85296"><name>JOEM3</name><desc>Finish
Images:791
First:13.07.2025 07:09:50
Last:13.07.2025 20:25:32
Duration:13:15:42
</desc></wpt>
<wpt lat = "51.43419" lon = "-1.85296"><name>WIN4</name><desc>Finish
Images:241
First:13.07.2025 17:10:23
Last:13.07.2026 20:25:46
Duration:365.03:15:23
</desc></wpt>
<wpt lat = "51.43419" lon = "-1.85296"><name>PARO2DRONE2</name><desc>Impressions / Pano
Images:30
First:01.01.0001 23:00:00
Last:13.07.2025 17:21:58
Duration:739443.18:21:58
</desc></wpt>
</gpx>