<?xml version='1.0' encoding='utf-8'?>
<gpx version="1.1" creator="Infofile GPX Generator">
<wpt lat = "43.65596" lon = "5.58015"><name>ARF1</name><desc>Swim - Transition zone
Images:3286
First:18.05.2025 06:58:02
Last:18.05.2025 09:03:47
Duration:02:05:45
</desc></wpt>
<wpt lat = "43.65596" lon = "5.58015"><name>MAPA1</name><desc>Swim - Transition zone
Images:4287
First:18.05.2025 07:00:25
Last:18.05.2025 09:03:42
Duration:02:03:17
</desc></wpt>
<wpt lat = "43.65208" lon = "5.58249"><name>ALL1</name><desc>Bike - Transition zone
Images:5956
First:18.05.2025 06:46:46
Last:18.05.2025 09:05:00
Duration:02:18:14
</desc></wpt>
<wpt lat = "43.65208" lon = "5.58249"><name>ALL1LS1</name><desc>Bike - Transition zone
Images:2188
First:18.05.2025 07:07:35
Last:18.05.2025 09:04:59
Duration:01:57:24
</desc></wpt>
<wpt lat = "43.52657" lon = "5.44389"><name>ALL2</name><desc>Finish
Images:6586
First:18.05.2025 10:28:12
Last:18.05.2025 16:24:24
Duration:05:56:12
</desc></wpt>
<wpt lat = "43.52657" lon = "5.44389"><name>ALL2LS1</name><desc>Finish
Images:2345
First:18.05.2025 10:00:07
Last:18.05.2025 16:23:35
Duration:06:23:28
</desc></wpt>
<wpt lat = "43.52657" lon = "5.44389"><name>ARF2</name><desc>Finish
Images:6820
First:18.05.2025 10:12:27
Last:18.05.2025 16:24:07
Duration:06:11:40
</desc></wpt>
<wpt lat = "43.52657" lon = "5.44389"><name>CC2</name><desc>Finish
Images:3603
First:18.05.2025 10:52:43
Last:18.05.2025 16:24:03
Duration:05:31:20
</desc></wpt>
<wpt lat = "43.65596" lon = "5.58015"><name>CC1</name><desc>Swim - Start
Images:1655
First:18.05.2025 06:53:11
Last:18.05.2025 08:22:07
Duration:01:28:56
</desc></wpt>
<wpt lat = "43.65596" lon = "5.58015"><name>GABO1</name><desc>Swim - Start
Images:1441
First:18.05.2025 06:51:19
Last:18.05.2025 08:17:52
Duration:01:26:33
</desc></wpt>
<wpt lat = "43.51969" lon = "5.54055"><name>DART1</name><desc>Bike - 90.0 km
Images:8822
First:18.05.2025 08:01:35
Last:18.05.2025 13:21:19
Duration:05:19:44
</desc></wpt>
<wpt lat = "43.52233" lon = "5.46264"><name>GABO2</name><desc>Run - 15.0 km
Images:8919
First:18.05.2025 10:14:06
Last:18.05.2025 15:59:58
Duration:05:45:52
</desc></wpt>
<wpt lat = "43.51001" lon = "5.71695"><name>LEBE1</name><desc>Bike - 50.0 km
Images:4118
First:18.05.2025 08:47:28
Last:18.05.2025 12:12:25
Duration:03:24:57
</desc></wpt>
<wpt lat = "43.51001" lon = "5.71695"><name>LEBE1DRONE1</name><desc>Bike - 50.0 km
Images:41
First:18.05.2025 08:12:52
Last:18.05.2025 09:34:43
Duration:01:21:51
</desc></wpt>
<wpt lat = "43.51001" lon = "5.71695"><name>LEBE1LS1</name><desc>Bike - 50.0 km
Images:804
First:18.05.2025 07:47:31
Last:18.05.2025 12:15:54
Duration:04:28:23
</desc></wpt>
<wpt lat = "43.52533" lon = "5.44759"><name>MAPA2</name><desc>Run - 3.0 km
Images:11872
First:18.05.2025 09:54:37
Last:18.05.2025 16:16:50
Duration:06:22:13
</desc></wpt>
<wpt lat = "43.50480" lon = "5.61324"><name>PINO1</name><desc>Bike - 70.0 km
Images:4317
First:18.05.2025 09:04:39
Last:18.05.2025 13:01:09
Duration:03:56:30
</desc></wpt>
</gpx>