<?xml version='1.0' encoding='utf-8'?>
<gpx version="1.1" creator="Infofile GPX Generator">
<wpt lat = "47.43269" lon = "11.71126"><name>CHR1</name><desc>1,5KM Nach Pertisau
Images:1071
First:07.09.2025 09:55:45
Last:07.09.2025 10:18:52
Duration:00:23:07
</desc></wpt>
<wpt lat = "47.43269" lon = "11.71126"><name>CHR1LS1</name><desc>1,5KM Nach Pertisau
Images:411
First:07.09.2025 09:49:29
Last:07.09.2025 10:18:54
Duration:00:29:25
</desc></wpt>
<wpt lat = "47.43269" lon = "11.71126"><name>CHR1LS2</name><desc>1,5KM Nach Pertisau
Images:413
First:07.09.2025 09:50:48
Last:07.09.2025 10:19:21
Duration:00:28:33
</desc></wpt>
<wpt lat = "47.43011" lon = "11.73595"><name>EA1</name><desc>5KM Maurach Atoll
Images:1087
First:07.09.2025 10:16:19
Last:07.09.2025 10:42:01
Duration:00:25:42
</desc></wpt>
<wpt lat = "47.47988" lon = "11.69948"><name>EJ1</name><desc>18 KM Gaisalmsteig
Images:2769
First:07.09.2025 10:49:06
Last:07.09.2025 13:06:00
Duration:02:16:54
</desc></wpt>
<wpt lat = "47.47784" lon = "11.70135"><name>MADM1</name><desc>Vor der Gaisalm
Images:3627
First:07.09.2025 10:43:57
Last:07.09.2025 12:41:04
Duration:01:57:07
</desc></wpt>
<wpt lat = "47.46128" lon = "11.70287"><name>UEC1</name><desc>Nach der Gaisalm
Images:3090
First:07.09.2025 11:00:03
Last:07.09.2025 13:12:17
Duration:02:12:14
</desc></wpt>
<wpt lat = "47.46128" lon = "11.70287"><name>UEC1LS1</name><desc>Nach der Gaisalm
Images:1190
First:07.09.2025 10:17:30
Last:07.09.2025 13:12:34
Duration:02:55:04
</desc></wpt>
<wpt lat = "47.46128" lon = "11.70287"><name>UEC1LS2</name><desc>Nach der Gaisalm
Images:1211
First:07.09.2025 10:22:07
Last:07.09.2025 13:12:29
Duration:02:50:22
</desc></wpt>
<wpt lat = "47.46128" lon = "11.70287"><name>CHR2</name><desc>22KM Promenade
Images:2595
First:07.09.2025 11:24:45
Last:07.09.2025 13:28:15
Duration:02:03:30
</desc></wpt>
<wpt lat = "47.46128" lon = "11.70287"><name>CHR2DRONE1</name><desc>22KM Promenade
Images:19
First:07.09.2025 11:42:55
Last:07.09.2025 11:52:35
Duration:00:09:40
</desc></wpt>
<wpt lat = "47.46128" lon = "11.70287"><name>CHR2LS1</name><desc>22KM Promenade
Images:1176
First:07.09.2025 10:48:17
Last:07.09.2025 13:09:10
Duration:02:20:53
</desc></wpt>
<wpt lat = "47.46128" lon = "11.70287"><name>CHR2LS2</name><desc>22KM Promenade
Images:1206
First:07.09.2025 10:47:31
Last:07.09.2025 13:09:10
Duration:02:21:39
</desc></wpt>
<wpt lat = "47.44208" lon = "11.70032"><name>EA2</name><desc>Finish
Images:1608
First:07.09.2025 11:28:51
Last:07.09.2025 13:37:39
Duration:02:08:48
</desc></wpt>
</gpx>