<?xml version='1.0' encoding='utf-8'?>
<gpx version="1.1" creator="Infofile GPX Generator">
<wpt lat = "51.12044" lon = "2.63201"><name>SPSL1</name><desc>Start
Images:897
First:09.03.2025 08:08:22
Last:09.03.2025 11:37:26
Duration:03:29:04
</desc></wpt>
<wpt lat = "51.12044" lon = "2.63201"><name>GVDL1</name><desc>Start
Images:183
First:09.03.2025 07:53:20
Last:09.03.2025 09:09:58
Duration:01:16:38
</desc></wpt>
<wpt lat = "51.11615" lon = "2.62004"><name>AG1</name><desc>1,0 km
Images:351
First:09.03.2025 08:26:38
Last:09.03.2025 08:39:00
Duration:00:12:22
</desc></wpt>
<wpt lat = "51.11615" lon = "2.62004"><name>THL1</name><desc>1,0 km
Images:743
First:09.03.2025 08:21:02
Last:09.03.2025 08:39:11
Duration:00:18:09
</desc></wpt>
<wpt lat = "51.11252" lon = "2.61196"><name>SBG1</name><desc>2,0 km
Images:3409
First:08.03.2025 16:38:58
Last:09.03.2025 10:32:53
Duration:17:53:55
</desc></wpt>
<wpt lat = "51.11157" lon = "2.64738"><name>AG2</name><desc>Hoge Blekker
Images:3674
First:09.03.2025 09:56:58
Last:09.03.2025 12:04:05
Duration:02:07:07
</desc></wpt>
<wpt lat = "51.11157" lon = "2.64738"><name>AG2LS1</name><desc>Hoge Blekker
Images:1181
First:09.03.2025 09:57:01
Last:09.03.2025 11:58:27
Duration:02:01:26
</desc></wpt>
<wpt lat = "51.11157" lon = "2.64738"><name>AG2DRONE1</name><desc>Impressions / Pano
Images:15
First:09.03.2025 11:48:08
Last:09.03.2025 11:50:42
Duration:00:02:34
</desc></wpt>
<wpt lat = "51.10746" lon = "2.6331"><name>THL2</name><desc>Noordduinen
Images:5209
First:09.03.2025 08:41:18
Last:09.03.2025 11:52:59
Duration:03:11:41
</desc></wpt>
<wpt lat = "51.10746" lon = "2.6331"><name>THL2LS1</name><desc>Noordduinen
Images:831
First:09.03.2025 09:42:43
Last:09.03.2025 11:50:34
Duration:02:07:51
</desc></wpt>
<wpt lat = "51.12884" lon = "2.65527"><name>SBG2</name><desc>Schipgatduinen
Images:9929
First:09.03.2025 11:02:37
Last:09.03.2025 13:49:07
Duration:02:46:30
</desc></wpt>
<wpt lat = "51.12507" lon = "2.64521"><name>GVDL2</name><desc>1km before finish
Images:6886
First:09.03.2025 09:11:03
Last:09.03.2025 14:36:50
Duration:05:25:47
</desc></wpt>
<wpt lat = "51.12083" lon = "2.63349"><name>SPSL2</name><desc>Finish
Images:9914
First:09.03.2025 10:22:48
Last:09.03.2025 14:20:33
Duration:03:57:45
</desc></wpt>
<wpt lat = "51.12083" lon = "2.63349"><name>THL3</name><desc>Finish
Images:437
First:09.03.2025 13:13:53
Last:09.03.2025 13:31:29
Duration:00:17:36
</desc></wpt>
</gpx>