<?xml version='1.0' encoding='utf-8'?>
<gpx version="1.1" creator="Infofile GPX Generator">
<wpt lat = "53.07550" lon = "8.76744"><name>AJS1</name><desc>Start
Images:385
First:31.08.2025 07:31:19
Last:31.08.2025 08:58:49
Duration:01:27:30
</desc></wpt>
<wpt lat = "53.07550" lon = "8.76744"><name>BK1</name><desc>Start
Images:2494
First:31.08.2025 07:42:14
Last:31.08.2025 09:49:23
Duration:02:07:09
</desc></wpt>
<wpt lat = "53.07550" lon = "8.76744"><name>DWE1</name><desc>Start
Images:2238
First:31.08.2025 07:28:41
Last:31.08.2025 08:36:22
Duration:01:07:41
</desc></wpt>
<wpt lat = "52.94475" lon = "8.66663"><name>JKOR1</name><desc>KM 26 & 67
Images:8912
First:31.08.2025 07:38:22
Last:31.08.2025 13:47:15
Duration:06:08:53
</desc></wpt>
<wpt lat = "52.94475" lon = "8.66663"><name>JKOR1LS1</name><desc>KM 26 & 67
Images:1433
First:31.08.2025 07:40:09
Last:31.08.2025 11:43:16
Duration:04:03:07
</desc></wpt>
<wpt lat = "52.93848" lon = "8.66457"><name>PLA1</name><desc>KM 28 & 69
Images:2795
First:31.08.2025 08:39:05
Last:31.08.2025 11:29:23
Duration:02:50:18
</desc></wpt>
<wpt lat = "52.90036" lon = "8.61272"><name>PDD1</name><desc>KM 41 & 79
Images:3614
First:31.08.2025 07:54:47
Last:31.08.2025 12:08:41
Duration:04:13:54
</desc></wpt>
<wpt lat = "52.97227" lon = "8.62894"><name>THM1</name><desc>KM 52 & 91
Images:3545
First:31.08.2025 08:36:29
Last:31.08.2025 13:03:29
Duration:04:27:00
</desc></wpt>
<wpt lat = "52.97227" lon = "8.62894"><name>THM1LS1</name><desc>KM 52 & 91
Images:1210
First:31.08.2025 08:49:55
Last:31.08.2025 13:04:44
Duration:04:14:49
</desc></wpt>
<wpt lat = "53.07550" lon = "8.76744"><name>DWE2LS1</name><desc>Finish
Images:3411
First:31.08.2025 10:06:25
Last:31.08.2025 13:02:35
Duration:02:56:10
</desc></wpt>
<wpt lat = "53.07550" lon = "8.76744"><name>DWE2</name><desc>Finish
Images:2922
First:31.08.2025 10:27:15
Last:31.08.2025 13:01:43
Duration:02:34:28
</desc></wpt>
<wpt lat = "53.07550" lon = "8.76744"><name>DWE1LS1</name><desc>Finish
Images:3007
First:31.08.2025 10:04:07
Last:31.08.2025 13:01:40
Duration:02:57:33
</desc></wpt>
<wpt lat = "53.07550" lon = "8.76744"><name>BK2</name><desc>Finish
Images:6715
First:31.08.2025 10:27:15
Last:31.08.2025 12:50:00
Duration:02:22:45
</desc></wpt>
<wpt lat = "53.07550" lon = "8.76744"><name>AJS2</name><desc>Ceremony
Images:700
First:31.08.2025 10:20:53
Last:31.08.2025 13:16:05
Duration:02:55:12
</desc></wpt>
</gpx>