<?xml version='1.0' encoding='utf-8'?>
<gpx version="1.1" creator="Infofile GPX Generator">
<wpt lat = "47.74187" lon = "7.34063"><name>EVL2</name><desc>Impression
Images:167
First:23.03.2025 09:11:52
Last:23.03.2025 09:34:44
Duration:00:22:52
</desc></wpt>
<wpt lat = "47.73873" lon = "7.32070"><name>MAMO1</name><desc>Start
Images:424
First:23.03.2025 07:22:27
Last:23.03.2025 08:06:52
Duration:00:44:25
</desc></wpt>
<wpt lat = "47.73785" lon = "7.33258"><name>MAWI1</name><desc>6.0 km / 17.9 km
Images:4783
First:23.03.2025 08:23:47
Last:23.03.2025 10:35:29
Duration:02:11:42
</desc></wpt>
<wpt lat = "47.73785" lon = "7.33258"><name>MAWI1LS2</name><desc>6.0 km / 17.9 km
Images:5970
First:23.03.2025 07:55:25
Last:23.03.2025 10:33:57
Duration:02:38:32
</desc></wpt>
<wpt lat = "47.74187" lon = "7.34063"><name>BECK1</name><desc>6.9 km / 18.2 km
Images:7416
First:23.03.2025 07:40:20
Last:23.03.2025 10:37:38
Duration:02:57:18
</desc></wpt>
<wpt lat = "47.74187" lon = "7.34063"><name>BECK1LS2</name><desc>7.0 km / 18.3 km
Images:3621
First:23.03.2025 08:00:27
Last:23.03.2025 10:40:16
Duration:02:39:49
</desc></wpt>
<wpt lat = "47.74187" lon = "7.34063"><name>BECK1LS1</name><desc>7.0 km / 18.3 km
Images:3374
First:23.03.2025 08:05:17
Last:23.03.2025 10:39:03
Duration:02:33:46
</desc></wpt>
<wpt lat = "47.74470" lon = "7.33961"><name>EVL1</name><desc>7.5 km
Images:2459
First:23.03.2025 07:41:51
Last:23.03.2025 09:00:56
Duration:01:19:05
</desc></wpt>
<wpt lat = "47.74672" lon = "7.33921"><name>JNK1</name><desc>8.0 km Place de la Réunion
Images:1654
First:23.03.2025 08:04:16
Last:23.03.2025 09:03:12
Duration:00:58:56
</desc></wpt>
<wpt lat = "47.73873" lon = "7.32070"><name>MAMO3</name><desc>10.3 km
Images:1135
First:23.03.2025 08:31:42
Last:23.03.2025 08:59:24
Duration:00:27:42
</desc></wpt>
<wpt lat = "47.73852" lon = "7.33270"><name>EVL4</name><desc>19.5 km
Images:1929
First:23.03.2025 09:45:42
Last:23.03.2025 10:41:18
Duration:00:55:36
</desc></wpt>
<wpt lat = "47.73852" lon = "7.33270"><name>EVL3</name><desc>Ravitaillement
Images:18
First:23.03.2025 09:41:53
Last:23.03.2025 09:44:09
Duration:00:02:16
</desc></wpt>
<wpt lat = "47.73873" lon = "7.32070"><name>JNK2</name><desc>Finish
Images:433
First:23.03.2025 09:06:58
Last:23.03.2025 11:03:25
Duration:01:56:27
</desc></wpt>
<wpt lat = "47.73873" lon = "7.32070"><name>MAMO2</name><desc>Finish
Images:1924
First:23.03.2025 09:02:50
Last:23.03.2025 11:02:59
Duration:02:00:09
</desc></wpt>
</gpx>