<?xml version='1.0' encoding='utf-8'?>
<gpx version="1.1" creator="Infofile GPX Generator">
<wpt lat = "46.49291" lon = "9.90273"><name>EVL1</name><desc>Start Pontresina
Images:267
First:10.08.2025 09:27:34
Last:10.08.2025 10:01:33
Duration:00:33:59
</desc></wpt>
<wpt lat = "46.43170" lon = "9.76132"><name>LBL1</name><desc>Start Sils im Engadin
Images:346
First:10.08.2025 09:33:47
Last:10.08.2025 10:16:42
Duration:00:42:55
</desc></wpt>
<wpt lat = "46.42997" lon = "9.76154"><name>LBL2</name><desc>0.5 km
Images:946
First:10.08.2025 10:20:45
Last:10.08.2025 10:48:54
Duration:00:28:09
</desc></wpt>
<wpt lat = "46.49423" lon = "9.88993"><name>EVL2</name><desc>5.0 km Run Pontresina
Images:1002
First:10.08.2025 10:18:42
Last:10.08.2025 10:59:17
Duration:00:40:35
</desc></wpt>
<wpt lat = "46.49423" lon = "9.88993"><name>EVL2LS1</name><desc>5.0 km Run Pontresina
Images:339
First:10.08.2025 10:18:39
Last:10.08.2025 11:00:44
Duration:00:42:05
</desc></wpt>
<wpt lat = "46.45018" lon = "9.80608"><name>JNK1</name><desc>5.1 km Sommerlauf
Images:900
First:10.08.2025 10:11:57
Last:10.08.2025 12:03:00
Duration:01:51:03
</desc></wpt>
<wpt lat = "46.45018" lon = "9.80608"><name>JNK1LS1</name><desc>5.1 km Sommerlauf
Images:640
First:10.08.2025 10:33:09
Last:10.08.2025 11:10:36
Duration:00:37:27
</desc></wpt>
<wpt lat = "46.49925" lon = "9.88050"><name>EVL3</name><desc>18.4 km Sommerlauf
Images:1481
First:10.08.2025 11:14:31
Last:10.08.2025 13:07:19
Duration:01:52:48
</desc></wpt>
<wpt lat = "46.49925" lon = "9.88050"><name>EVL3LS1</name><desc>18.4 km Sommerlauf
Images:553
First:10.08.2025 11:13:27
Last:10.08.2025 13:08:21
Duration:01:54:54
</desc></wpt>
<wpt lat = "46.49185" lon = "9.84630"><name>MOG1</name><desc>21.0 km
Images:1658
First:10.08.2025 10:10:42
Last:10.08.2025 13:48:22
Duration:03:37:40
</desc></wpt>
<wpt lat = "46.49185" lon = "9.84630"><name>MOG1LS2</name><desc>21.0 km
Images:1595
First:10.08.2025 10:35:31
Last:10.08.2025 13:57:28
Duration:03:21:57
</desc></wpt>
<wpt lat = "46.49185" lon = "9.84630"><name>MOG1LS1</name><desc>21.0 km
Images:1595
First:10.08.2025 10:34:43
Last:10.08.2025 13:58:27
Duration:03:23:44
</desc></wpt>
<wpt lat = "46.48889" lon = "9.83932"><name>LBL3</name><desc>1.1 km vor Finish
Images:1767
First:10.08.2025 11:56:15
Last:10.08.2025 13:51:04
Duration:01:54:49
</desc></wpt>
<wpt lat = "46.48984" lon = "9.83877"><name>JNK2</name><desc>0.8 km vor Finish
Images:823
First:10.08.2025 12:03:23
Last:10.08.2025 13:38:57
Duration:01:35:34
</desc></wpt>
<wpt lat = "46.48984" lon = "9.83877"><name>JNK2LS1</name><desc>0.8 km vor Finish
Images:699
First:10.08.2025 11:57:31
Last:10.08.2025 13:13:11
Duration:01:15:40
</desc></wpt>
<wpt lat = "46.49032" lon = "9.83762"><name>MAWI1LS2</name><desc>Finish
Images:1115
First:10.08.2025 10:19:13
Last:10.08.2025 14:19:03
Duration:03:59:50
</desc></wpt>
<wpt lat = "46.49032" lon = "9.83762"><name>MAWI1</name><desc>Finish
Images:2556
First:10.08.2025 10:20:19
Last:10.08.2025 14:37:15
Duration:04:16:56
</desc></wpt>
<wpt lat = "46.49032" lon = "9.83762"><name>MAWI1LS1</name><desc>Finish
Images:618
First:10.08.2025 10:18:51
Last:10.08.2025 14:29:43
Duration:04:10:52
</desc></wpt>
<wpt lat = "46.49032" lon = "9.83762"><name>EVL4</name><desc>Finish Impressions
Images:25
First:10.08.2025 13:39:12
Last:10.08.2025 13:51:57
Duration:00:12:45
</desc></wpt>
<wpt lat = "46.49925" lon = "9.88050"><name>EVL3DRONE1</name><desc>Impressions / Pano
Images:7
First:10.08.2025 12:42:49
Last:10.08.2025 12:44:07
Duration:00:01:18
</desc></wpt>
<wpt lat = "46.49185" lon = "9.84630"><name>PANO1</name><desc>Impressions / Pano
Images:1
First:10.08.2025 10:25:02
Last:10.08.2025 10:25:02
Duration:00:00:00
</desc></wpt>
</gpx>