<?xml version='1.0' encoding='utf-8'?>
<gpx version="1.1" creator="Infofile GPX Generator">
<wpt lat = "57.94913" lon = "14.51630"><name>AGP1</name><desc>Bike - 56.0 km
Images:6504
First:06.07.2025 10:40:34
Last:06.07.2025 15:50:24
Duration:05:09:50
</desc></wpt>
<wpt lat = "57.86610" lon = "14.33444"><name>MIJ1</name><desc>Bike - 75.0 km
Images:4735
First:06.07.2025 09:34:27
Last:06.07.2025 14:33:25
Duration:04:58:58
</desc></wpt>
<wpt lat = "57.91975" lon = "14.62523"><name>BIL1</name><desc>Bike - 50.0 km
Images:3474
First:06.07.2025 07:57:33
Last:06.07.2025 13:37:12
Duration:05:39:39
</desc></wpt>
<wpt lat = "57.91975" lon = "14.62523"><name>BIL1LS1</name><desc>Bike - 50.0 km
Images:1978
First:06.07.2025 09:40:50
Last:06.07.2025 13:49:19
Duration:04:08:29
</desc></wpt>
<wpt lat = "57.78247" lon = "14.16588"><name>BIL2</name><desc>Finish
Images:910
First:06.07.2025 15:53:01
Last:06.07.2025 17:00:56
Duration:01:07:55
</desc></wpt>
<wpt lat = "57.78247" lon = "14.16588"><name>AWILL2</name><desc>Finish
Images:943
First:06.07.2025 17:31:57
Last:06.07.2025 18:24:25
Duration:00:52:28
</desc></wpt>
<wpt lat = "57.78247" lon = "14.16588"><name>FJO2</name><desc>Finish
Images:3739
First:06.07.2025 11:48:25
Last:06.07.2025 17:39:21
Duration:05:50:56
</desc></wpt>
<wpt lat = "57.76630" lon = "14.15368"><name>AWILL1</name><desc>Run - 12.0 km
Images:11658
First:06.07.2025 11:45:42
Last:06.07.2025 16:34:07
Duration:04:48:25
</desc></wpt>
<wpt lat = "57.77745" lon = "14.16333"><name>SMEE1</name><desc>Run - 12.0 km
Images:8476
First:06.07.2025 10:29:39
Last:06.07.2025 17:24:10
Duration:06:54:31
</desc></wpt>
<wpt lat = "57.78141" lon = "14.17004"><name>FJO1</name><desc>Swim - Start
Images:2143
First:06.07.2025 08:12:41
Last:06.07.2025 11:04:29
Duration:02:51:48
</desc></wpt>
</gpx>