<?xml version='1.0' encoding='utf-8'?>
<gpx version="1.1" creator="Infofile GPX Generator">
<wpt lat = "50.86249" lon = "5.82948"><name>LV1</name><desc>Cauberg 0.7 km
Images:857
First:07.06.2025 08:04:40
Last:07.06.2025 10:07:57
Duration:02:03:17
</desc></wpt>
<wpt lat = "50.86249" lon = "5.82948"><name>JOS1</name><desc>Cauberg 0.7 km
Images:535
First:07.06.2025 08:03:08
Last:07.06.2025 09:58:11
Duration:01:55:03
</desc></wpt>
<wpt lat = "50.86182" lon = "5.82687"><name>MK1</name><desc>km8.3/65 - 43,4/100 - 56,6//150
Images:1329
First:07.06.2025 08:13:09
Last:07.06.2025 10:05:16
Duration:01:52:07
</desc></wpt>
<wpt lat = "50.83802" lon = "5.85193"><name>JOS2</name><desc>km8.3/65 - 43,4/100 - 56,6//150
Images:889
First:07.06.2025 10:30:17
Last:07.06.2025 12:45:32
Duration:02:15:15
</desc></wpt>
<wpt lat = "50.83802" lon = "5.85193"><name>MK2</name><desc>km8.3/65 - 43,4/100 - 56,6//150
Images:1822
First:07.06.2025 10:18:29
Last:07.06.2025 12:51:08
Duration:02:32:39
</desc></wpt>
<wpt lat = "50.83802" lon = "5.85193"><name>MK2LS1</name><desc>km8.3/65 - 43,4/100 - 56,6//150
Images:302
First:07.06.2025 10:36:11
Last:07.06.2025 12:42:03
Duration:02:05:52
</desc></wpt>
<wpt lat = "50.83802" lon = "5.85193"><name>MK2LS2</name><desc>km8.3/65 - 43,4/100 - 56,6//150
Images:225
First:07.06.2025 10:52:56
Last:07.06.2025 12:39:37
Duration:01:46:41
</desc></wpt>
<wpt lat = "50.84364" lon = "5.85436"><name>LV2</name><desc>km 9/65 - 44,2/100 - 57,4//150
Images:1007
First:07.06.2025 10:18:31
Last:07.06.2025 12:51:09
Duration:02:32:38
</desc></wpt>
<wpt lat = "50.84364" lon = "5.85436"><name>LV2LS1</name><desc>km 9/65 - 44,2/100 - 57,4//150
Images:294
First:07.06.2025 10:27:10
Last:07.06.2025 12:45:03
Duration:02:17:53
</desc></wpt>
<wpt lat = "50.88304" lon = "5.81614"><name>JOS3</name><desc>3,5km to the finish
Images:425
First:07.06.2025 14:51:06
Last:07.06.2025 16:22:01
Duration:01:30:55
</desc></wpt>
<wpt lat = "50.88329" lon = "5.81552"><name>LV3</name><desc>3,5km to the finish
Images:908
First:07.06.2025 13:14:49
Last:07.06.2025 16:28:38
Duration:03:13:49
</desc></wpt>
<wpt lat = "50.88329" lon = "5.81552"><name>MK3</name><desc>3,5km to the finish
Images:1660
First:07.06.2025 13:23:28
Last:07.06.2025 16:22:00
Duration:02:58:32
</desc></wpt>
<wpt lat = "50.86455" lon = "5.83266"><name>JOS3IMP1</name><desc>Impressions / Pano
Images:108
First:07.06.2025 13:23:29
Last:07.06.2025 14:35:39
Duration:01:12:10
</desc></wpt>
<wpt lat = "50.86455" lon = "5.83266"><name>MK3IMP1</name><desc>Impressions / Pano
Images:30
First:07.06.2025 14:13:56
Last:07.06.2025 14:53:39
Duration:00:39:43
</desc></wpt>
<wpt lat = "50.86455" lon = "5.83266"><name>LV3IMP1</name><desc>Impressions / Pano
Images:45
First:07.06.2025 14:15:40
Last:07.06.2025 14:28:10
Duration:00:12:30
</desc></wpt>
<wpt lat = "50.86455" lon = "5.83266"><name>MK1DRONE1</name><desc>Impressions / Pano
Images:38
First:07.06.2025 12:23:16
Last:07.06.2025 15:07:21
Duration:02:44:05
</desc></wpt>
</gpx>