<?xml version='1.0' encoding='utf-8'?>
<gpx version="1.1" creator="Infofile GPX Generator">
<wpt lat = "50.80411" lon = "12.92527"><name>DG1</name><desc>Start
Images:1626
First:24.05.2025 04:00:49
Last:24.05.2025 05:47:24
Duration:01:46:35
</desc></wpt>
<wpt lat = "50.80150" lon = "12.92450"><name>THS1</name><desc>0,4 km nach Start
Images:1335
First:24.05.2025 04:11:01
Last:24.05.2025 05:44:56
Duration:01:33:55
</desc></wpt>
<wpt lat = "50.78128" lon = "12.94056"><name>TIM1</name><desc>4,2 km nach Start (Pfarrhübel)
Images:3965
First:24.05.2025 03:43:39
Last:24.05.2025 06:29:01
Duration:02:45:22
</desc></wpt>
<wpt lat = "50.74574" lon = "12.92169"><name>RJ1</name><desc>10,5 km nach Start (Aussichtspunkt Eisenweg)
Images:6633
First:24.05.2025 05:16:19
Last:24.05.2025 07:45:36
Duration:02:29:17
</desc></wpt>
<wpt lat = "50.74574" lon = "12.92169"><name>RJ1LS1</name><desc>10,5 km nach Start (Aussichtspunkt Eisenweg)
Images:1350
First:24.05.2025 05:43:38
Last:24.05.2025 07:48:43
Duration:02:05:05
</desc></wpt>
<wpt lat = "50.74574" lon = "12.92169"><name>RJ1LS2</name><desc>10,5 km nach Start (Aussichtspunkt Eisenweg)
Images:1350
First:24.05.2025 05:43:38
Last:24.05.2025 07:48:43
Duration:02:05:05
</desc></wpt>
<wpt lat = "50.72905" lon = "12.92690"><name>THO1LS1</name><desc>13,4 km nach Start (Teichhaus Burkhardtsdorf)
Images:1440
First:24.05.2025 05:48:28
Last:24.05.2025 07:53:47
Duration:02:05:19
</desc></wpt>
<wpt lat = "50.72905" lon = "12.92690"><name>THO1</name><desc>13,4 km nach Start (Teichhaus Burkhardtsdorf)
Images:2275
First:24.05.2025 05:27:12
Last:24.05.2025 07:53:41
Duration:02:26:29
</desc></wpt>
<wpt lat = "50.68420" lon = "12.91177"><name>THS2LS1</name><desc>21,1 km nach Start (Kirche Auersbach)
Images:2403
First:24.05.2025 07:34:55
Last:24.05.2025 10:24:08
Duration:02:49:13
</desc></wpt>
<wpt lat = "50.68420" lon = "12.91177"><name>THS2LS2</name><desc>21,1 km nach Start (Kirche Auersbach)
Images:866
First:24.05.2025 07:11:19
Last:24.05.2025 08:47:34
Duration:01:36:15
</desc></wpt>
<wpt lat = "50.68420" lon = "12.91177"><name>THS2</name><desc>21,1 km nach Start (Kirche Auersbach)
Images:4566
First:24.05.2025 07:03:18
Last:24.05.2025 10:10:40
Duration:03:07:22
</desc></wpt>
<wpt lat = "50.65045" lon = "12.89632"><name>DG2LS1</name><desc>26,4 km nach Start (Jugendherberge Hormersdorf)
Images:2406
First:24.05.2025 07:44:29
Last:24.05.2025 10:47:43
Duration:03:03:14
</desc></wpt>
<wpt lat = "50.65045" lon = "12.89632"><name>DG2</name><desc>26,4 km nach Start (Jugendherberge Hormersdorf)
Images:4161
First:24.05.2025 07:29:57
Last:24.05.2025 12:55:56
Duration:05:25:59
</desc></wpt>
<wpt lat = "50.62162" lon = "12.86801"><name>RJ2LS1</name><desc>32,8 km nach Start (Fernsehturm Geyer)
Images:1975
First:24.05.2025 08:56:10
Last:24.05.2025 12:42:35
Duration:03:46:25
</desc></wpt>
<wpt lat = "50.62162" lon = "12.86801"><name>RJ2LS2</name><desc>32,8 km nach Start (Fernsehturm Geyer)
Images:1270
First:24.05.2025 08:56:10
Last:24.05.2025 12:42:35
Duration:03:46:25
</desc></wpt>
<wpt lat = "50.62162" lon = "12.86801"><name>RJ2</name><desc>32,8 km nach Start (Fernsehturm Geyer)
Images:5200
First:24.05.2025 09:08:19
Last:24.05.2025 13:11:14
Duration:04:02:55
</desc></wpt>
<wpt lat = "50.58774" lon = "12.88316"><name>THO2LS1</name><desc>35,0 km nach Start (Waldrand bei Elterlein)
Images:1822
First:24.05.2025 08:31:16
Last:24.05.2025 14:01:15
Duration:05:29:59
</desc></wpt>
<wpt lat = "50.58774" lon = "12.88316"><name>THO2</name><desc>35,0 km nach Start (Waldrand bei Elterlein)
Images:3944
First:24.05.2025 08:40:10
Last:24.05.2025 13:58:53
Duration:05:18:43
</desc></wpt>
<wpt lat = "50.52600" lon = "12.90559"><name>TIM2LS1</name><desc>45,0 km nach Start (Crottendorfer Weg)
Images:10541
First:24.05.2025 09:02:45
Last:24.05.2025 16:19:13
Duration:07:16:28
</desc></wpt>
<wpt lat = "50.52600" lon = "12.90559"><name>TIM2LS2</name><desc>45,0 km nach Start (Crottendorfer Weg)
Images:5229
First:24.05.2025 09:02:51
Last:24.05.2025 16:19:19
Duration:07:16:28
</desc></wpt>
<wpt lat = "50.52548" lon = "12.90615"><name>TIM2</name><desc>45,0 km nach Start (Crottendorfer Weg)
Images:4948
First:24.05.2025 09:20:25
Last:24.05.2025 16:08:00
Duration:06:47:35
</desc></wpt>
<wpt lat = "50.42853" lon = "12.94955"><name>THS3LS1</name><desc>60,7 km nach Start (Reitweg)
Images:2918
First:24.05.2025 12:19:46
Last:24.05.2025 20:55:07
Duration:08:35:21
</desc></wpt>
<wpt lat = "50.42853" lon = "12.94955"><name>THS3LS2</name><desc>60,7 km nach Start (Reitweg)
Images:2759
First:24.05.2025 12:35:44
Last:24.05.2025 20:47:47
Duration:08:12:03
</desc></wpt>
<wpt lat = "50.42853" lon = "12.94955"><name>THS3</name><desc>60,7 km nach Start (Reitweg)
Images:5510
First:24.05.2025 12:31:09
Last:24.05.2025 21:00:21
Duration:08:29:12
</desc></wpt>
<wpt lat = "50.42853" lon = "12.94955"><name>THO3</name><desc>60,7 km nach Start (Reitweg)
Images:726
First:24.05.2025 16:09:21
Last:24.05.2025 17:18:36
Duration:01:09:15
</desc></wpt>
<wpt lat = "50.65045" lon = "12.89632"><name>DG3LS1</name><desc>Ziel
Images:8866
First:24.05.2025 12:36:38
Last:24.05.2025 20:53:57
Duration:08:17:19
</desc></wpt>
<wpt lat = "50.42720" lon = "12.95044"><name>DG3</name><desc>Ziel
Images:6092
First:24.05.2025 13:13:44
Last:24.05.2025 21:03:28
Duration:07:49:44
</desc></wpt>
<wpt lat = "50.42853" lon = "12.94955"><name>RJ3</name><desc>Impressionen
Images:59
First:24.05.2025 15:42:54
Last:24.05.2025 16:25:24
Duration:00:42:30
</desc></wpt>
<wpt lat = "50.42853" lon = "12.94955"><name>RJ3DRONE1</name><desc>Impressions / Pano
Images:22
First:24.05.2025 09:29:37
Last:24.05.2025 15:40:02
Duration:06:10:25
</desc></wpt>
</gpx>