<?xml version='1.0' encoding='utf-8'?>
<gpx version="1.1" creator="Infofile GPX Generator">
<wpt lat = "47.56411" lon = "10.22161"><name>ANFI1</name><desc>Bike - Kalvarienberg
Images:4996
First:17.08.2025 08:06:02
Last:17.08.2025 11:01:50
Duration:02:55:48
</desc></wpt>
<wpt lat = "47.56411" lon = "10.22161"><name>NJO2</name><desc>Bike - Kalvarienberg
Images:7125
First:17.08.2025 08:23:52
Last:17.08.2025 11:15:00
Duration:02:51:08
</desc></wpt>
<wpt lat = "47.57052" lon = "10.19146"><name>ANFI2</name><desc>Run - last 100 m
Images:6543
First:17.08.2025 11:47:55
Last:17.08.2025 15:20:30
Duration:03:32:35
</desc></wpt>
<wpt lat = "47.57052" lon = "10.19146"><name>NJO3</name><desc>Run - last 100 m
Images:45
First:17.08.2025 12:39:02
Last:17.08.2025 12:43:20
Duration:00:04:18
</desc></wpt>
<wpt lat = "47.57052" lon = "10.19146"><name>NJO3LS2</name><desc>Run - last 100 m
Images:2052
First:17.08.2025 12:22:07
Last:17.08.2025 15:27:41
Duration:03:05:34
</desc></wpt>
<wpt lat = "47.57022" lon = "10.19244"><name>BSI1</name><desc>Swim - Start
Images:1383
First:17.08.2025 07:44:45
Last:17.08.2025 10:21:43
Duration:02:36:58
</desc></wpt>
<wpt lat = "47.57022" lon = "10.19244"><name>MBRE3</name><desc>Swim - Start
Images:135
First:17.08.2025 07:43:09
Last:17.08.2025 07:55:22
Duration:00:12:13
</desc></wpt>
<wpt lat = "47.57022" lon = "10.19244"><name>NJO1</name><desc>Swim - Start
Images:4
First:17.08.2025 07:44:06
Last:17.08.2025 07:52:33
Duration:00:08:27
</desc></wpt>
<wpt lat = "47.56965" lon = "10.19246"><name>BSI2</name><desc>Finish
Images:10800
First:17.08.2025 10:28:12
Last:17.08.2025 16:54:08
Duration:06:25:56
</desc></wpt>
<wpt lat = "47.56965" lon = "10.19246"><name>NJO3LS1</name><desc>Finish
Images:1164
First:17.08.2025 12:03:19
Last:17.08.2025 16:24:25
Duration:04:21:06
</desc></wpt>
<wpt lat = "47.63957" lon = "10.24163"><name>FLOS1</name><desc>Bike - Lake
Images:14170
First:17.08.2025 07:28:10
Last:17.08.2025 12:27:48
Duration:04:59:38
</desc></wpt>
<wpt lat = "47.57116" lon = "10.19896"><name>MBRE1</name><desc>Bike - Transition zone
Images:1673
First:17.08.2025 08:17:43
Last:17.08.2025 10:26:39
Duration:02:08:56
</desc></wpt>
<wpt lat = "47.57287" lon = "10.19736"><name>MBRE2</name><desc>Run - Kuhsteig
Images:3619
First:17.08.2025 10:36:19
Last:17.08.2025 15:04:39
Duration:04:28:20
</desc></wpt>
<wpt lat = "47.57022" lon = "10.19244"><name>NJO1DRONE1</name><desc>Swim - Impressions / Pano
Images:22
First:17.08.2025 07:46:41
Last:17.08.2025 10:51:53
Duration:03:05:12
</desc></wpt>
<wpt lat = "47.64566" lon = "10.22182"><name>SIPE1</name><desc>Bike - corner
Images:13090
First:17.08.2025 08:44:06
Last:17.08.2025 12:47:45
Duration:04:03:39
</desc></wpt>
<wpt lat = "47.58799" lon = "10.18516"><name>TH1</name><desc>Bike - 180° corner
Images:3360
First:17.08.2025 09:15:04
Last:17.08.2025 13:49:10
Duration:04:34:06
</desc></wpt>
<wpt lat = "47.57007" lon = "10.19275"><name>SISA1</name><desc>Swim - Transition zone
Images:4378
First:17.08.2025 07:43:41
Last:17.08.2025 08:57:44
Duration:01:14:03
</desc></wpt>
<wpt lat = "47.57447" lon = "10.19372"><name>SISA2</name><desc>Swim - Transition zone
Images:1467
First:17.08.2025 09:09:52
Last:17.08.2025 10:13:19
Duration:01:03:27
</desc></wpt>
<wpt lat = "47.57769" lon = "10.19371"><name>SISA3</name><desc>Run - Last 2 km
Images:9795
First:17.08.2025 10:35:25
Last:17.08.2025 14:25:17
Duration:03:49:52
</desc></wpt>
</gpx>