<?xml version='1.0' encoding='utf-8'?>
<gpx version="1.1" creator="Infofile GPX Generator">
<wpt lat = "47.28053" lon = "12.47888"><name>LKE1</name><desc>Start
Images:652
First:21.06.2025 06:48:01
Last:21.06.2025 08:14:22
Duration:01:26:21
</desc></wpt>
<wpt lat = "47.28053" lon = "12.47888"><name>LKE2</name><desc>Finish
Images:1519
First:21.06.2025 13:36:08
Last:21.06.2025 20:13:53
Duration:06:37:45
</desc></wpt>
<wpt lat = "47.28053" lon = "12.47888"><name>UEC2LS1</name><desc>Finish
Images:731
First:21.06.2025 16:35:21
Last:21.06.2025 20:08:14
Duration:03:32:53
</desc></wpt>
<wpt lat = "47.28053" lon = "12.47888"><name>ULKE2</name><desc>Finish
Images:129
First:21.06.2025 14:59:45
Last:21.06.2025 16:10:58
Duration:01:11:13
</desc></wpt>
<wpt lat = "47.27169" lon = "12.47028"><name>MSCH1</name><desc>3,2 km
Images:1311
First:21.06.2025 07:36:42
Last:21.06.2025 09:01:03
Duration:01:24:21
</desc></wpt>
<wpt lat = "47.27505" lon = "12.55873"><name>MSCH2</name><desc>41,5 km
Images:693
First:21.06.2025 12:00:56
Last:21.06.2025 19:08:23
Duration:07:07:27
</desc></wpt>
<wpt lat = "47.29915" lon = "12.43317"><name>UEC1</name><desc>25,0 km
Images:1336
First:21.06.2025 07:21:40
Last:21.06.2025 14:26:53
Duration:07:05:13
</desc></wpt>
<wpt lat = "47.29915" lon = "12.43317"><name>UEC1LS2</name><desc>25,0 km
Images:557
First:21.06.2025 10:43:55
Last:21.06.2025 14:12:36
Duration:03:28:41
</desc></wpt>
<wpt lat = "47.29915" lon = "12.43317"><name>UEC1LS1</name><desc>25,0 km
Images:666
First:21.06.2025 10:27:11
Last:21.06.2025 14:26:24
Duration:03:59:13
</desc></wpt>
<wpt lat = "47.30663" lon = "12.41331"><name>EJ1</name><desc>20,0 km
Images:1557
First:21.06.2025 06:03:55
Last:21.06.2025 13:46:08
Duration:07:42:13
</desc></wpt>
<wpt lat = "47.27187" lon = "12.47342"><name>ULKE1</name><desc>2,8 km
Images:993
First:21.06.2025 07:31:23
Last:21.06.2025 08:25:42
Duration:00:54:19
</desc></wpt>
</gpx>