<?xml version='1.0' encoding='utf-8'?>
<gpx version="1.1" creator="Infofile GPX Generator">
<wpt lat = "46.63644" lon = "8.60306"><name>CC1</name><desc>3.0 km
Images:214
First:06.09.2025 06:07:59
Last:06.09.2025 06:23:27
Duration:00:15:28
</desc></wpt>
<wpt lat = "46.58983" lon = "8.49005"><name>CC2</name><desc>201.0 km
Images:1217
First:06.09.2025 09:25:08
Last:06.09.2025 12:56:42
Duration:03:31:34
</desc></wpt>
<wpt lat = "46.63817" lon = "8.58996"><name>CC3</name><desc>Herotent
Images:3172
First:06.09.2025 13:27:23
Last:06.09.2025 21:20:27
Duration:07:53:04
</desc></wpt>
<wpt lat = "46.55901" lon = "8.55930"><name>CVG1</name><desc>14.0 km
Images:1332
First:06.09.2025 07:09:54
Last:06.09.2025 08:19:48
Duration:01:09:54
</desc></wpt>
<wpt lat = "46.54974" lon = "8.56623"><name>CVG2</name><desc>56.0 km
Images:1151
First:06.09.2025 12:06:02
Last:06.09.2025 19:09:46
Duration:07:03:44
</desc></wpt>
<wpt lat = "46.65105" lon = "8.68162"><name>DBOR2</name><desc>12.0 km
Images:2128
First:06.09.2025 06:44:44
Last:06.09.2025 08:40:20
Duration:01:55:36
</desc></wpt>
<wpt lat = "46.65929" lon = "8.66844"><name>DBOR3</name><desc>255.0 km
Images:1202
First:06.09.2025 15:31:04
Last:06.09.2025 20:56:11
Duration:05:25:07
</desc></wpt>
<wpt lat = "46.73995" lon = "8.45433"><name>DIG1</name><desc>26.0 km
Images:9981
First:06.09.2025 06:18:53
Last:06.09.2025 16:59:20
Duration:10:40:27
</desc></wpt>
<wpt lat = "46.73995" lon = "8.45433"><name>DIG1DRONE1</name><desc>26.0 km
Images:35
First:06.09.2025 10:04:46
Last:06.09.2025 10:05:45
Duration:00:00:59
</desc></wpt>
<wpt lat = "46.73995" lon = "8.45433"><name>DIG1LS1</name><desc>26.0 km
Images:1066
First:06.09.2025 06:47:23
Last:06.09.2025 11:24:45
Duration:04:37:22
</desc></wpt>
<wpt lat = "46.7388" lon = "8.45112"><name>YMD1</name><desc>26.0 km
Images:7
First:06.09.2025 07:49:18
Last:06.09.2025 07:53:09
Duration:00:03:51
</desc></wpt>
<wpt lat = "46.7388" lon = "8.45112"><name>YMD1LS1</name><desc>26.0 km
Images:1246
First:06.09.2025 06:19:57
Last:06.09.2025 07:48:13
Duration:01:28:16
</desc></wpt>
<wpt lat = "46.7388" lon = "8.45112"><name>YMD1DRONE1</name><desc>26.0 km
Images:19
First:06.09.2025 07:31:39
Last:06.09.2025 10:29:14
Duration:02:57:35
</desc></wpt>
<wpt lat = "46.57684" lon = "8.38543"><name>DIG2</name><desc>190.0 km
Images:3197
First:06.09.2025 16:59:21
Last:06.09.2025 19:46:59
Duration:02:47:38
</desc></wpt>
<wpt lat = "46.57684" lon = "8.38543"><name>DIG2LS1</name><desc>190.0 km
Images:7349
First:06.09.2025 11:24:45
Last:06.09.2025 19:27:31
Duration:08:02:46
</desc></wpt>
<wpt lat = "46.50058" lon = "8.29888"><name>LBL1</name><desc>Start
Images:332
First:06.09.2025 07:41:26
Last:06.09.2025 09:08:47
Duration:01:27:21
</desc></wpt>
<wpt lat = "46.63879" lon = "8.58967"><name>MAPP1</name><desc>Start
Images:773
First:06.09.2025 05:15:05
Last:06.09.2025 06:32:15
Duration:01:17:10
</desc></wpt>
<wpt lat = "46.55981" lon = "8.35579"><name>LBL2</name><desc>180.0 km
Images:9410
First:06.09.2025 09:33:03
Last:06.09.2025 19:42:51
Duration:10:09:48
</desc></wpt>
<wpt lat = "46.56768" lon = "8.35712"><name>LBO1</name><desc>185.0 km
Images:1501
First:06.09.2025 07:24:14
Last:06.09.2025 12:38:34
Duration:05:14:20
</desc></wpt>
<wpt lat = "46.55776" lon = "8.35294"><name>LBO2</name><desc>178.0 km
Images:2656
First:06.09.2025 13:16:55
Last:06.09.2025 18:54:06
Duration:05:37:11
</desc></wpt>
<wpt lat = "46.48014" lon = "8.40008"><name>LLM1</name><desc>152.0 km
Images:4700
First:06.09.2025 07:43:52
Last:06.09.2025 17:13:23
Duration:09:29:31
</desc></wpt>
<wpt lat = "46.48229" lon = "8.38437"><name>LUJ1</name><desc>153.0 km
Images:4205
First:06.09.2025 09:02:22
Last:06.09.2025 20:10:27
Duration:11:08:05
</desc></wpt>
<wpt lat = "46.48229" lon = "8.38437"><name>LUJ1LS1</name><desc>153.0 km
Images:5839
First:06.09.2025 09:07:38
Last:06.09.2025 17:45:52
Duration:08:38:14
</desc></wpt>
<wpt lat = "46.63879" lon = "8.58967"><name>MAPP2</name><desc>Finish
Images:4508
First:06.09.2025 10:30:54
Last:06.09.2025 21:30:46
Duration:10:59:52
</desc></wpt>
<wpt lat = "46.63879" lon = "8.58967"><name>MAPP2LS1</name><desc>Finish
Images:4527
First:06.09.2025 10:14:25
Last:06.09.2025 19:20:04
Duration:09:05:39
</desc></wpt>
<wpt lat = "46.47867" lon = "8.37524"><name>PINO1</name><desc>154.0 km
Images:4601
First:06.09.2025 09:01:48
Last:06.09.2025 17:49:46
Duration:08:47:58
</desc></wpt>
<wpt lat = "46.58993" lon = "8.48303"><name>YMD2</name><desc>198.0 km
Images:3108
First:06.09.2025 10:32:55
Last:06.09.2025 19:54:45
Duration:09:21:50
</desc></wpt>
<wpt lat = "46.58993" lon = "8.48303"><name>YMD2LS1</name><desc>198.0 km
Images:3171
First:06.09.2025 09:38:33
Last:06.09.2025 20:01:37
Duration:10:23:04
</desc></wpt>
</gpx>