<?xml version='1.0' encoding='utf-8'?>
<gpx version="1.1" creator="Infofile GPX Generator">
<wpt lat = "51.02270" lon = "13.79711"><name>REM1LS1</name><desc>Hindernis 5: Schaumparty
Images:2237
First:23.08.2025 09:43:48
Last:23.08.2025 15:08:45
Duration:05:24:57
</desc></wpt>
<wpt lat = "51.02270" lon = "13.79711"><name>REM1</name><desc>Hindernis 5: Schaumparty
Images:14043
First:23.08.2025 09:45:38
Last:23.08.2025 15:07:53
Duration:05:22:15
</desc></wpt>
<wpt lat = "51.02095" lon = "13.80044"><name>STH1</name><desc>Hindernis 6: Schlammbecken
Images:6456
First:23.08.2025 09:51:32
Last:23.08.2025 15:13:18
Duration:05:21:46
</desc></wpt>
<wpt lat = "51.02095" lon = "13.80044"><name>CHSA1</name><desc>Hindernis 6: Schlammbecken
Images:4849
First:23.08.2025 08:52:18
Last:23.08.2025 15:13:23
Duration:06:21:05
</desc></wpt>
<wpt lat = "51.01994" lon = "13.79671"><name>DAR1LS1</name><desc>Laufstrecke
Images:1862
First:23.08.2025 10:07:26
Last:23.08.2025 15:48:47
Duration:05:41:21
</desc></wpt>
<wpt lat = "51.01994" lon = "13.79671"><name>DAR1LS2</name><desc>Laufstrecke
Images:1151
First:23.08.2025 08:47:21
Last:23.08.2025 13:27:29
Duration:04:40:08
</desc></wpt>
<wpt lat = "51.01781" lon = "13.80063"><name>ROH1LS1</name><desc>Laufstrecke
Images:3622
First:23.08.2025 09:01:24
Last:23.08.2025 15:30:22
Duration:06:28:58
</desc></wpt>
<wpt lat = "51.01781" lon = "13.80063"><name>ROH1LS2</name><desc>Laufstrecke
Images:3054
First:23.08.2025 09:08:18
Last:23.08.2025 15:57:35
Duration:06:49:17
</desc></wpt>
<wpt lat = "51.01969" lon = "13.79278"><name>JMU1</name><desc>Hindernis 8: Gitterbecken
Images:3957
First:23.08.2025 10:01:21
Last:23.08.2025 15:35:25
Duration:05:34:04
</desc></wpt>
<wpt lat = "51.01979" lon = "13.79538"><name>MIKO1</name><desc>Hindernis 8: Gitterbecken
Images:7463
First:23.08.2025 10:02:27
Last:23.08.2025 15:36:20
Duration:05:33:53
</desc></wpt>
<wpt lat = "51.01744" lon = "13.79764"><name>ROH1LS3</name><desc>Hindernis 9: Krabbelstrecke
Images:7300
First:23.08.2025 10:34:04
Last:23.08.2025 15:50:30
Duration:05:16:26
</desc></wpt>
<wpt lat = "51.01744" lon = "13.79764"><name>ROH1</name><desc>Hindernis 9: Krabbelstrecke
Images:14764
First:23.08.2025 09:39:23
Last:23.08.2025 15:47:16
Duration:06:07:53
</desc></wpt>
<wpt lat = "51.01748" lon = "13.80016"><name>HV1</name><desc>Hindernis 9: Krabbelstrecke
Images:8812
First:23.08.2025 09:48:57
Last:23.08.2025 15:47:19
Duration:05:58:22
</desc></wpt>
<wpt lat = "51.01765" lon = "13.80055"><name>HV1LS1</name><desc>Hindernis 9: Krabbelstrecke
Images:5598
First:23.08.2025 09:07:23
Last:23.08.2025 15:57:47
Duration:06:50:24
</desc></wpt>
<wpt lat = "51.01666" lon = "13.80103"><name>MAWA1</name><desc>Hindernis 10: Seiltanz
Images:11140
First:23.08.2025 09:52:24
Last:23.08.2025 15:53:39
Duration:06:01:15
</desc></wpt>
<wpt lat = "51.02344" lon = "13.79575"><name>KMI1</name><desc>Hindernis 13: Tauchbecken
Images:6421
First:23.08.2025 09:44:11
Last:23.08.2025 16:13:37
Duration:06:29:26
</desc></wpt>
<wpt lat = "51.02344" lon = "13.79575"><name>PMA1</name><desc>Hindernis 13: Tauchbecken
Images:12938
First:23.08.2025 09:45:01
Last:23.08.2025 16:13:21
Duration:06:28:20
</desc></wpt>
<wpt lat = "51.02024" lon = "13.79326"><name>SLE1LS1</name><desc>Hindernis 15: Containerrutsche
Images:1757
First:23.08.2025 08:55:49
Last:23.08.2025 15:55:29
Duration:06:59:40
</desc></wpt>
<wpt lat = "51.02024" lon = "13.79326"><name>SLE1</name><desc>Hindernis 15: Containerrutsche
Images:10082
First:23.08.2025 10:22:41
Last:23.08.2025 16:27:29
Duration:06:04:48
</desc></wpt>
<wpt lat = "51.02059" lon = "13.79552"><name>STEL1LS1</name><desc>Ziel
Images:2219
First:23.08.2025 08:42:38
Last:23.08.2025 16:29:24
Duration:07:46:46
</desc></wpt>
<wpt lat = "51.02059" lon = "13.79552"><name>TIH1LS1</name><desc>Ziel
Images:2367
First:31.12.2012 23:00:29
Last:23.08.2025 16:33:47
Duration:4617.17:33:18
</desc></wpt>
<wpt lat = "51.02059" lon = "13.79552"><name>STEL1</name><desc>Ziel
Images:8008
First:23.08.2025 09:34:33
Last:23.08.2025 16:28:22
Duration:06:53:49
</desc></wpt>
<wpt lat = "51.02059" lon = "13.79552"><name>DAR1</name><desc>Herotent
Images:2464
First:23.08.2025 09:03:07
Last:23.08.2025 16:29:29
Duration:07:26:22
</desc></wpt>
<wpt lat = "51.02059" lon = "13.79552"><name>TIH1</name><desc>Herotent
Images:2681
First:23.08.2025 09:12:28
Last:23.08.2025 16:14:33
Duration:07:02:05
</desc></wpt>
<wpt lat = "51.02059" lon = "13.79552"><name>TIM1</name><desc>Impressionen
Images:671
First:23.08.2025 09:31:53
Last:23.08.2025 14:59:38
Duration:05:27:45
</desc></wpt>
<wpt lat = "51.02059" lon = "13.79552"><name>TIM1DRONE1</name><desc>Impressions / Pano
Images:5
First:23.08.2025 14:45:40
Last:23.08.2025 14:47:57
Duration:00:02:17
</desc></wpt>
</gpx>