<?xml version='1.0' encoding='utf-8'?>
<gpx version="1.1" creator="Infofile GPX Generator">
<wpt lat = "50.18316" lon = "3.47113"><name>TOBB1</name><desc>26,0 km /170km, Chem. Nungesser
Images:2579
First:12.04.2025 00:15:34
Last:12.04.2025 08:57:23
Duration:08:41:49
</desc></wpt>
<wpt lat = "50.18316" lon = "3.47113"><name>TOBB1DRONE1</name><desc>26,0 km /170km, Chem. Nungesser
Images:22
First:12.04.2025 08:16:04
Last:12.04.2025 08:25:22
Duration:00:09:18
</desc></wpt>
<wpt lat = "50.18316" lon = "3.47113"><name>TOBB1LS2</name><desc>26,0 km /170km, Chem. Nungesser
Images:1557
First:12.04.2025 00:17:53
Last:12.04.2025 09:07:17
Duration:08:49:24
</desc></wpt>
<wpt lat = "50.18316" lon = "3.47118"><name>CAR1</name><desc>26,0 km /170km, Chem. Nungesser
Images:896
First:12.04.2025 07:20:32
Last:12.04.2025 09:09:54
Duration:01:49:22
</desc></wpt>
<wpt lat = "50.18316" lon = "3.47113"><name>TOBB1LS1</name><desc>26,0 km /170km, Chem. Nungesser
Images:1341
First:12.04.2025 06:50:27
Last:12.04.2025 09:01:02
Duration:02:10:35
</desc></wpt>
<wpt lat = "50.18412" lon = "3.47183"><name>MIBU1</name><desc>26,2 km /170, Chem. Nungesser
Images:4754
First:11.04.2025 22:09:15
Last:12.04.2025 08:57:39
Duration:10:48:24
</desc></wpt>
<wpt lat = "50.18412" lon = "3.47183"><name>MIBU1LS1</name><desc>26,2 km /170, Chem. Nungesser
Images:1549
First:11.04.2025 22:05:12
Last:12.04.2025 09:01:08
Duration:10:55:56
</desc></wpt>
<wpt lat = "50.67545" lon = "3.20232"><name>TB1</name><desc>Start
Images:4862
First:11.04.2025 22:16:04
Last:12.04.2025 10:44:24
Duration:12:28:20
</desc></wpt>
<wpt lat = "50.67641" lon = "3.20176"><name>SBG1</name><desc>Start
Images:10495
First:12.04.2025 06:51:17
Last:12.04.2025 10:42:46
Duration:03:51:29
</desc></wpt>
<wpt lat = "50.64071" lon = "3.23515"><name>BAR1</name><desc>4,9 km /145km, 170km, Chau. de Verdun
Images:7322
First:12.04.2025 00:36:05
Last:12.04.2025 12:56:42
Duration:12:20:37
</desc></wpt>
<wpt lat = "50.64071" lon = "3.23515"><name>BAR1LS1</name><desc>4,9 km /145km, 170km, Chau. de Verdun
Images:7197
First:12.04.2025 00:21:09
Last:12.04.2025 12:28:22
Duration:12:07:13
</desc></wpt>
<wpt lat = "50.64026" lon = "3.23546"><name>BC1</name><desc>4,9 km /145km, 170km, Chau. de Verdun
Images:5283
First:12.04.2025 07:02:13
Last:12.04.2025 10:56:20
Duration:03:54:07
</desc></wpt>
<wpt lat = "50.58669" lon = "3.27177"><name>PBO1</name><desc>13,0 km /70+145, Grand Rue avant La Brouette
Images:6619
First:12.04.2025 06:45:54
Last:12.04.2025 11:01:08
Duration:04:15:14
</desc></wpt>
<wpt lat = "50.58727" lon = "3.27091"><name>ACCA1</name><desc>13,0 km /70+145, Grand Rue avant La Brouette
Images:5241
First:12.04.2025 06:32:01
Last:12.04.2025 10:58:09
Duration:04:26:08
</desc></wpt>
<wpt lat = "50.57114" lon = "3.25089"><name>DIER1</name><desc>16,6 km /70 +145, Cysoing à Bourghelles
Images:5390
First:12.04.2025 06:40:41
Last:12.04.2025 11:31:14
Duration:04:50:33
</desc></wpt>
<wpt lat = "50.57104" lon = "3.25126"><name>SDT1</name><desc>16,6 km /70 +145, Cysoing à Bourghelles
Images:2440
First:12.04.2025 07:38:49
Last:12.04.2025 10:24:39
Duration:02:45:50
</desc></wpt>
<wpt lat = "50.57104" lon = "3.25126"><name>SDT1LS1</name><desc>16,6 km /70 +145, Cysoing à Bourghelles
Images:3318
First:11.04.2025 14:47:44
Last:12.04.2025 10:28:43
Duration:19:40:59
</desc></wpt>
<wpt lat = "50.57104" lon = "3.25126"><name>SDT1LS2</name><desc>16,6 km /70 +145, Cysoing à Bourghelles
Images:2915
First:12.04.2025 07:20:18
Last:12.04.2025 10:29:04
Duration:03:08:46
</desc></wpt>
<wpt lat = "50.40045" lon = "3.41152"><name>SPSL1</name><desc>53,0 km /145, 80/170, Trouee d'Aremberg
Images:4829
First:12.04.2025 07:05:32
Last:12.04.2025 11:01:27
Duration:03:55:55
</desc></wpt>
<wpt lat = "50.40045" lon = "3.41152"><name>SPSL1LS1</name><desc>53,0 km /145, 80/170, Trouee d'Aremberg
Images:163
First:12.04.2025 07:12:56
Last:12.04.2025 11:15:30
Duration:04:02:34
</desc></wpt>
<wpt lat = "50.40064" lon = "3.41163"><name>GVDL1</name><desc>53,0 km /145, 80/170, Trouee d'Aremberg
Images:4907
First:12.04.2025 07:03:51
Last:12.04.2025 10:59:43
Duration:03:55:52
</desc></wpt>
<wpt lat = "50.58436" lon = "3.27206"><name>LMC1</name><desc>13,3 km /70+145 Grand Rue à l'intersection Rue de la Justice (Secteur pavé Eddy Merckx)
Images:6843
First:12.04.2025 06:19:10
Last:12.04.2025 11:33:06
Duration:05:13:56
</desc></wpt>
<wpt lat = "50.58040" lon = "3.27118"><name>TID1</name><desc>14,0 km /70+145, Camphin en Pevele
Images:4662
First:11.04.2025 23:56:18
Last:12.04.2025 10:00:22
Duration:10:04:04
</desc></wpt>
<wpt lat = "50.58040" lon = "3.27118"><name>TID1LS1</name><desc>14,0 km /70+145, Camphin en Pevele
Images:3759
First:11.04.2025 00:01:01
Last:12.04.2025 10:00:09
Duration:1.09:59:08
</desc></wpt>
<wpt lat = "50.58038" lon = "3.27133"><name>TLA1</name><desc>14,0 km /70+145, Camphin en Pevele
Images:14877
First:12.04.2025 06:27:09
Last:12.04.2025 12:29:05
Duration:06:01:56
</desc></wpt>
<wpt lat = "50.48867" lon = "3.17619"><name>CAR2</name><desc>93,4 km /145, 122/170, Voie du Metz
Images:5642
First:12.04.2025 10:31:35
Last:12.04.2025 14:36:59
Duration:04:05:24
</desc></wpt>
<wpt lat = "50.48915" lon = "3.17481"><name>MIBU2LS1</name><desc>94,0 km /145, 122/170, Voie du Metz
Images:6129
First:12.04.2025 10:49:33
Last:12.04.2025 14:08:08
Duration:03:18:35
</desc></wpt>
<wpt lat = "50.48927" lon = "3.17421"><name>MIBU2</name><desc>94,1 km /145, 121/170, AUCHY-LEZ-ORCHIES à BERSEE
Images:4064
First:12.04.2025 11:01:48
Last:12.04.2025 13:47:18
Duration:02:45:30
</desc></wpt>
<wpt lat = "50.48927" lon = "3.17421"><name>TOBB2</name><desc>94,1 km /145, 121/170, AUCHY-LEZ-ORCHIES à BERSEE
Images:4494
First:12.04.2025 11:00:35
Last:12.04.2025 14:07:30
Duration:03:06:55
</desc></wpt>
<wpt lat = "50.48927" lon = "3.17421"><name>TOBB2LS1</name><desc>94,1 km /145, 121/170, AUCHY-LEZ-ORCHIES à BERSEE
Images:3981
First:12.04.2025 10:34:17
Last:12.04.2025 14:08:21
Duration:03:34:04
</desc></wpt>
<wpt lat = "50.48927" lon = "3.17421"><name>TOBB2LS2</name><desc>94,1 km /145, 121/170, AUCHY-LEZ-ORCHIES à BERSEE
Images:4289
First:12.04.2025 10:39:16
Last:12.04.2025 14:10:47
Duration:03:31:31
</desc></wpt>
<wpt lat = "50.53631" lon = "3.17749"><name>BAR2</name><desc>38,5 km /70, 113,9/145, 142/170, Moulin de Vertain
Images:4401
First:12.04.2025 00:15:57
Last:12.04.2025 14:53:41
Duration:14:37:44
</desc></wpt>
<wpt lat = "50.53631" lon = "3.17749"><name>BC2</name><desc>38,5 km /70, 113,9/145, 142/170, Moulin de Vertain
Images:4571
First:12.04.2025 11:56:59
Last:12.04.2025 14:45:34
Duration:02:48:35
</desc></wpt>
<wpt lat = "50.57292" lon = "3.24456"><name>SPSL2</name><desc>46,5 km /70, 121,8/145, 150/170
Images:3814
First:12.04.2025 12:39:24
Last:12.04.2025 14:48:59
Duration:02:09:35
</desc></wpt>
<wpt lat = "50.57292" lon = "3.24456"><name>SPSL2LS1</name><desc>46,5 km /70, 121,8/145, 150/170
Images:125
First:12.04.2025 12:28:25
Last:12.04.2025 13:47:06
Duration:01:18:41
</desc></wpt>
<wpt lat = "50.57292" lon = "3.24456"><name>GVDL2</name><desc>46,5 km /70, 121,8/145, 150/170
Images:2271
First:12.04.2025 12:28:21
Last:12.04.2025 14:48:33
Duration:02:20:12
</desc></wpt>
<wpt lat = "50.57156" lon = "3.24948"><name>SDT2</name><desc>47,0 km /70, 122,3/145, 150,5/170
Images:4546
First:12.04.2025 10:55:37
Last:12.04.2025 15:07:43
Duration:04:12:06
</desc></wpt>
<wpt lat = "50.57156" lon = "3.24948"><name>SDT2LS1</name><desc>47,0 km /70, 122,3/145, 150,5/170
Images:7159
First:12.04.2025 10:38:39
Last:12.04.2025 15:00:17
Duration:04:21:38
</desc></wpt>
<wpt lat = "50.57156" lon = "3.24948"><name>SDT2LS2</name><desc>47,0 km /70, 122,3/145, 150,5/170
Images:6177
First:12.04.2025 10:35:45
Last:12.04.2025 15:00:18
Duration:04:24:33
</desc></wpt>
<wpt lat = "50.57151" lon = "3.24998"><name>DIER2</name><desc>47,0 km /70, 122,3/145, 150,5/170
Images:4572
First:12.04.2025 11:36:13
Last:12.04.2025 14:47:11
Duration:03:10:58
</desc></wpt>
<wpt lat = "50.58568" lon = "3.26857"><name>PBO2</name><desc>50,8 km /70, 126,1/145, 154,2/170,  CAMPHIN-EN-PEVELE
Images:6910
First:01.01.2000 23:33:11
Last:12.04.2025 15:03:38
Duration:9232.15:30:27
</desc></wpt>
<wpt lat = "50.58568" lon = "3.26857"><name>ACCA2</name><desc>50,8 km /70, 126,1/145, 154,2/170,  CAMPHIN-EN-PEVELE
Images:6434
First:12.04.2025 11:18:09
Last:12.04.2025 15:02:03
Duration:03:43:54
</desc></wpt>
<wpt lat = "50.58553" lon = "3.27202"><name>LMC2</name><desc>50,2 km /70, 125,5/145, 153,6/170, Grand Rue à l'intersection Rue de la Justice (Secteur pavé Eddy Merckx)
Images:8840
First:12.04.2025 10:51:13
Last:12.04.2025 15:07:27
Duration:04:16:14
</desc></wpt>
<wpt lat = "50.58553" lon = "3.27202"><name>LMC2LS1</name><desc>50,2 km /70, 125,5/145, 153,6/170, Grand Rue à l'intersection Rue de la Justice (Secteur pavé Eddy Merckx)
Images:10
First:12.04.2025 10:51:13
Last:12.04.2025 11:33:06
Duration:00:41:53
</desc></wpt>
<wpt lat = "50.59140" lon = "3.22779"><name>TLA2</name><desc>54,9 km /70, 130,3/145, 158,5/170, Carrefour de L'Arbre
Images:10499
First:12.04.2025 12:29:06
Last:12.04.2025 15:22:36
Duration:02:53:30
</desc></wpt>
<wpt lat = "50.59085" lon = "3.23014"><name>TID2</name><desc>55,4 km /70, 130,8/145, 159/170, Gruson
Images:11320
First:12.04.2025 10:40:21
Last:12.04.2025 15:37:38
Duration:04:57:17
</desc></wpt>
<wpt lat = "50.59085" lon = "3.23014"><name>TID2LS1</name><desc>55,4 km /70, 130,8/145, 159/170, Gruson
Images:7650
First:12.04.2025 10:40:15
Last:12.04.2025 15:29:04
Duration:04:48:49
</desc></wpt>
<wpt lat = "50.67774" lon = "3.20592"><name>SBG2</name><desc>Finish
Images:17465
First:12.04.2025 11:13:16
Last:12.04.2025 15:58:20
Duration:04:45:04
</desc></wpt>
<wpt lat = "50.67774" lon = "3.20592"><name>TB2</name><desc>Finish
Images:11989
First:12.04.2025 11:07:20
Last:12.04.2025 15:58:19
Duration:04:50:59
</desc></wpt>
<wpt lat = "50.67774" lon = "3.20592"><name>TB2LS1</name><desc>Finish
Images:4349
First:11.04.2025 22:21:32
Last:12.04.2025 16:04:34
Duration:17:43:02
</desc></wpt>
</gpx>