<?xml version='1.0' encoding='utf-8'?>
<gpx version="1.1" creator="Infofile GPX Generator">
<wpt lat = "47.94898" lon = "6.95899"><name>DABI1</name><desc>Start
Images:2271
First:29.06.2025 06:29:51
Last:29.06.2025 08:59:15
Duration:02:29:24
</desc></wpt>
<wpt lat = "47.94175" lon = "6.96192"><name>MAWI1LS1</name><desc>km1.0 (all tracks)
Images:1259
First:29.06.2025 07:30:12
Last:29.06.2025 08:06:31
Duration:00:36:19
</desc></wpt>
<wpt lat = "47.94175" lon = "6.96192"><name>MAWI1LS2</name><desc>km1.0 (all tracks)
Images:1179
First:29.06.2025 07:30:30
Last:29.06.2025 08:03:58
Duration:00:33:28
</desc></wpt>
<wpt lat = "47.94175" lon = "6.96192"><name>MAWI1</name><desc>km1.0 (all tracks)
Images:4509
First:29.06.2025 07:22:54
Last:29.06.2025 07:54:48
Duration:00:31:54
</desc></wpt>
<wpt lat = "47.92525" lon = "6.95613"><name>HS1</name><desc>km3.0 (all tracks but 50k)
Images:872
First:29.06.2025 07:30:29
Last:29.06.2025 08:09:00
Duration:00:38:31
</desc></wpt>
<wpt lat = "47.92525" lon = "6.95613"><name>HS1LS2</name><desc>km3.0 (all tracks but 50k)
Images:1037
First:29.06.2025 06:41:46
Last:29.06.2025 07:53:28
Duration:01:11:42
</desc></wpt>
<wpt lat = "47.92525" lon = "6.95613"><name>HS1LS1</name><desc>km3.0 (all tracks but 50k)
Images:1207
First:29.06.2025 07:06:22
Last:29.06.2025 08:15:59
Duration:01:09:37
</desc></wpt>
<wpt lat = "47.91764" lon = "6.94696"><name>BP1</name><desc>km5.0 (all tracks but 50K)
Images:1541
First:29.06.2025 07:38:58
Last:29.06.2025 08:16:18
Duration:00:37:20
</desc></wpt>
<wpt lat = "47.91764" lon = "6.94696"><name>BP1DRONE1</name><desc>km5.0 (all tracks but 50K)
Images:8
First:29.06.2025 07:52:29
Last:29.06.2025 11:03:05
Duration:03:10:36
</desc></wpt>
<wpt lat = "47.91764" lon = "6.94696"><name>BP1LS2</name><desc>km5.0 (all tracks but 50K)
Images:1488
First:29.06.2025 07:07:29
Last:29.06.2025 08:21:00
Duration:01:13:31
</desc></wpt>
<wpt lat = "47.91764" lon = "6.94696"><name>BP1LS1</name><desc>km5.0 (all tracks but 50K)
Images:1437
First:29.06.2025 07:03:10
Last:29.06.2025 08:25:27
Duration:01:22:17
</desc></wpt>
<wpt lat = "47.87982" lon = "7.03716"><name>MRO1</name><desc>km37.0 (all tracks)
Images:2492
First:29.06.2025 06:42:58
Last:29.06.2025 10:24:10
Duration:03:41:12
</desc></wpt>
<wpt lat = "47.90481" lon = "7.08724"><name>DIG1</name><desc>Col du Haag, km47.0 (all tracks)
Images:5171
First:29.06.2025 08:39:05
Last:29.06.2025 11:51:28
Duration:03:12:23
</desc></wpt>
<wpt lat = "47.90481" lon = "7.08724"><name>DIG1LS2</name><desc>Col du Haag, km47.0 (all tracks)
Images:5077
First:29.06.2025 08:55:56
Last:29.06.2025 11:44:43
Duration:02:48:47
</desc></wpt>
<wpt lat = "47.90481" lon = "7.08724"><name>DIG1LS1</name><desc>Col du Haag, km47.0 (all tracks)
Images:4469
First:29.06.2025 09:06:09
Last:29.06.2025 11:44:44
Duration:02:38:35
</desc></wpt>
<wpt lat = "47.90584" lon = "7.08950"><name>JNK1</name><desc>Col du Haag, km47.5 (all tracks)
Images:3778
First:29.06.2025 09:11:59
Last:29.06.2025 12:00:51
Duration:02:48:52
</desc></wpt>
<wpt lat = "47.90584" lon = "7.08950"><name>JNK1LS1</name><desc>Col du Haag, km47.5 (all tracks)
Images:371
First:29.06.2025 10:38:45
Last:29.06.2025 12:40:52
Duration:02:02:07
</desc></wpt>
<wpt lat = "47.90901" lon = "7.06699"><name>RONS1</name><desc>km50.5 (all tracks)
Images:8107
First:28.06.2025 22:06:01
Last:29.06.2025 13:03:22
Duration:14:57:21
</desc></wpt>
<wpt lat = "47.90901" lon = "7.06699"><name>RONS1LS2</name><desc>km50.5 (all tracks)
Images:460
First:29.06.2025 09:13:37
Last:29.06.2025 11:55:54
Duration:02:42:17
</desc></wpt>
<wpt lat = "47.90901" lon = "7.06699"><name>RONS1LS1</name><desc>km50.5 (all tracks)
Images:2424
First:29.06.2025 08:44:17
Last:29.06.2025 12:08:36
Duration:03:24:19
</desc></wpt>
<wpt lat = "47.91212" lon = "7.04872"><name>TE1</name><desc>km52.0 (all tracks)
Images:4442
First:29.06.2025 08:28:04
Last:29.06.2025 12:17:31
Duration:03:49:27
</desc></wpt>
<wpt lat = "47.92376" lon = "7.02816"><name>TE2</name><desc>15.5km before Finish (145K)
Images:3253
First:29.06.2025 12:28:30
Last:29.06.2025 16:30:19
Duration:04:01:49
</desc></wpt>
<wpt lat = "47.92499" lon = "7.02057"><name>JNK2</name><desc>15km before Finish (145K)
Images:817
First:29.06.2025 12:49:45
Last:29.06.2025 16:06:04
Duration:03:16:19
</desc></wpt>
<wpt lat = "47.92499" lon = "7.02057"><name>JNK2LS1</name><desc>15km before Finish (145K)
Images:941
First:29.06.2025 12:43:24
Last:29.06.2025 16:15:48
Duration:03:32:24
</desc></wpt>
<wpt lat = "47.92557" lon = "7.00881"><name>RONS2LS1</name><desc>14km before Finish (145K)
Images:1810
First:29.06.2025 12:39:48
Last:29.06.2025 16:03:43
Duration:03:23:55
</desc></wpt>
<wpt lat = "47.92557" lon = "7.00881"><name>RONS2LS2</name><desc>14km before Finish (145K)
Images:2364
First:29.06.2025 12:38:14
Last:29.06.2025 16:27:33
Duration:03:49:19
</desc></wpt>
<wpt lat = "47.92557" lon = "7.00881"><name>RONS2</name><desc>14km before Finish (145K)
Images:3072
First:29.06.2025 13:05:27
Last:29.06.2025 16:40:09
Duration:03:34:42
</desc></wpt>
<wpt lat = "47.92877" lon = "7.00904"><name>DIG2</name><desc>13.0km before Finish (50K/70K/145K)
Images:1261
First:29.06.2025 13:21:19
Last:29.06.2025 16:26:07
Duration:03:04:48
</desc></wpt>
<wpt lat = "47.92877" lon = "7.00904"><name>DIG2LS2</name><desc>13.0km before Finish (50K/70K/145K)
Images:1013
First:29.06.2025 12:45:00
Last:29.06.2025 16:25:57
Duration:03:40:57
</desc></wpt>
<wpt lat = "47.92877" lon = "7.00904"><name>DIG2LS1</name><desc>13.0km before Finish (50K/70K/145K)
Images:937
First:29.06.2025 13:06:24
Last:29.06.2025 16:25:59
Duration:03:19:35
</desc></wpt>
<wpt lat = "47.99378" lon = "6.95743"><name>BP2LS2</name><desc>7.0km before Finish (100K/170K)
Images:1562
First:29.06.2025 09:36:29
Last:29.06.2025 16:57:17
Duration:07:20:48
</desc></wpt>
<wpt lat = "47.99378" lon = "6.95743"><name>BP2</name><desc>7.0km before Finish (100K/170K)
Images:2342
First:29.06.2025 10:03:25
Last:29.06.2025 16:36:38
Duration:06:33:13
</desc></wpt>
<wpt lat = "47.99378" lon = "6.95743"><name>BP2LS1</name><desc>7.0km before Finish (100K/170K)
Images:3408
First:29.06.2025 09:14:53
Last:29.06.2025 16:49:38
Duration:07:34:45
</desc></wpt>
<wpt lat = "47.95785" lon = "6.98280"><name>HS2</name><desc>6.0km before Finish (50K/70K/145K)
Images:1874
First:29.06.2025 09:33:02
Last:29.06.2025 16:26:30
Duration:06:53:28
</desc></wpt>
<wpt lat = "47.95785" lon = "6.98280"><name>HS2LS2</name><desc>6.0km before Finish (50K/70K/145K)
Images:1951
First:29.06.2025 09:12:43
Last:29.06.2025 16:26:43
Duration:07:14:00
</desc></wpt>
<wpt lat = "47.95785" lon = "6.98280"><name>HS2LS1</name><desc>6.0km before Finish (50K/70K/145K)
Images:1845
First:29.06.2025 09:12:20
Last:29.06.2025 16:25:55
Duration:07:13:35
</desc></wpt>
<wpt lat = "47.98730" lon = "6.96589"><name>MAWI2</name><desc>4.0km before Finish (100K/170K)
Images:2872
First:29.06.2025 10:27:01
Last:29.06.2025 17:05:09
Duration:06:38:08
</desc></wpt>
<wpt lat = "47.98730" lon = "6.96589"><name>MAWI2LS2</name><desc>4.0km before Finish (100K/170K)
Images:1216
First:29.06.2025 10:18:37
Last:29.06.2025 17:14:34
Duration:06:55:57
</desc></wpt>
<wpt lat = "47.98730" lon = "6.96589"><name>MAWI2LS1</name><desc>4.0km before Finish (100K/170K)
Images:1812
First:29.06.2025 10:41:02
Last:29.06.2025 17:14:28
Duration:06:33:26
</desc></wpt>
<wpt lat = "47.94906" lon = "6.96115"><name>DABI2</name><desc>Finish
Images:5255
First:29.06.2025 10:20:37
Last:29.06.2025 17:17:46
Duration:06:57:09
</desc></wpt>
<wpt lat = "47.94906" lon = "6.96115"><name>DABI2LS1</name><desc>Finish
Images:3414
First:29.06.2025 10:22:42
Last:29.06.2025 17:12:36
Duration:06:49:54
</desc></wpt>
<wpt lat = "47.94906" lon = "6.96115"><name>MRO2</name><desc>Finish
Images:4707
First:29.06.2025 11:36:12
Last:29.06.2025 17:05:57
Duration:05:29:45
</desc></wpt>
</gpx>