<?xml version='1.0' encoding='utf-8'?>
<gpx version="1.1" creator="Infofile GPX Generator">
<wpt lat = "51.20626" lon = "3.22136"><name>APBO1</name><desc>0,3km (HM+M)
Images:6077
First:12.10.2025 09:20:55
Last:12.10.2025 10:34:04
Duration:01:13:09
</desc></wpt>
<wpt lat = "51.20626" lon = "3.22136"><name>APBO1LS1</name><desc>0,3km (HM+M)
Images:89
First:12.10.2025 09:25:58
Last:12.10.2025 10:05:12
Duration:00:39:14
</desc></wpt>
<wpt lat = "51.20861" lon = "3.22490"><name>BTOG1</name><desc>0,61km (HM+M)
Images:4749
First:12.10.2025 10:02:07
Last:12.10.2025 10:36:46
Duration:00:34:39
</desc></wpt>
<wpt lat = "51.20861" lon = "3.22490"><name>BTOG1LS1</name><desc>0,61km (HM+M)
Images:575
First:12.10.2025 09:52:59
Last:12.10.2025 10:39:12
Duration:00:46:13
</desc></wpt>
<wpt lat = "51.20833" lon = "3.22518"><name>BNWO1</name><desc>0,71km (HM+M)
Images:4249
First:12.10.2025 10:02:28
Last:12.10.2025 10:37:06
Duration:00:34:38
</desc></wpt>
<wpt lat = "51.20833" lon = "3.22518"><name>BNWO1LS1</name><desc>0,71km (HM+M)
Images:841
First:12.10.2025 09:48:44
Last:12.10.2025 10:38:54
Duration:00:50:10
</desc></wpt>
<wpt lat = "51.20833" lon = "3.22518"><name>BNWO1LS2</name><desc>0,71km (HM+M)
Images:930
First:12.10.2025 09:54:10
Last:12.10.2025 10:43:21
Duration:00:49:11
</desc></wpt>
<wpt lat = "51.20692" lon = "3.22709"><name>BEVI1</name><desc>0,88km (HM+M)
Images:955
First:12.10.2025 09:34:18
Last:12.10.2025 10:54:21
Duration:01:20:03
</desc></wpt>
<wpt lat = "51.20694" lon = "3.22714"><name>BTID1</name><desc>0,94km (HM+M)
Images:4943
First:12.10.2025 09:02:37
Last:12.10.2025 11:01:05
Duration:01:58:28
</desc></wpt>
<wpt lat = "51.20694" lon = "3.22714"><name>BTID1LS1</name><desc>0,94km (HM+M)
Images:1132
First:12.10.2025 09:46:41
Last:12.10.2025 10:38:51
Duration:00:52:10
</desc></wpt>
<wpt lat = "51.20294" lon = "3.23387"><name>ADAV1</name><desc>2,93km (HM+M); 37,06km (M)
Images:6900
First:12.10.2025 09:33:08
Last:12.10.2025 15:42:24
Duration:06:09:16
</desc></wpt>
<wpt lat = "51.20294" lon = "3.23387"><name>ADAV1LS1</name><desc>2,93km (HM+M); 37,06km (M)
Images:6074
First:12.10.2025 09:19:39
Last:12.10.2025 15:42:55
Duration:06:23:16
</desc></wpt>
<wpt lat = "51.20294" lon = "3.23387"><name>ADAV1LS2</name><desc>2,93km (HM+M); 37,06km (M)
Images:5832
First:12.10.2025 09:13:31
Last:12.10.2025 15:42:37
Duration:06:29:06
</desc></wpt>
<wpt lat = "51.20294" lon = "3.23387"><name>AFVE1</name><desc>2,93km (HM+M); 37,06km (M)
Images:7937
First:12.10.2025 09:17:54
Last:12.10.2025 15:41:49
Duration:06:23:55
</desc></wpt>
<wpt lat = "51.21203" lon = "3.22695"><name>BEVI2</name><desc>20,65km (HM+M); 41,05km (M)
Images:5633
First:12.10.2025 11:01:21
Last:12.10.2025 16:26:24
Duration:05:25:03
</desc></wpt>
<wpt lat = "51.21203" lon = "3.22695"><name>BTID2</name><desc>20,65km (HM+M); 41,05km (M)
Images:12807
First:12.10.2025 11:01:29
Last:12.10.2025 16:25:44
Duration:05:24:15
</desc></wpt>
<wpt lat = "51.21203" lon = "3.22695"><name>BTID2LS1</name><desc>20,65km (HM+M); 41,05km (M)
Images:8873
First:12.10.2025 11:11:23
Last:12.10.2025 16:26:01
Duration:05:14:38
</desc></wpt>
<wpt lat = "51.20996" lon = "3.22446"><name>BNWO2</name><desc>20,9km (HM); 42,05km (M)
Images:9940
First:12.10.2025 11:31:58
Last:12.10.2025 16:20:45
Duration:04:48:47
</desc></wpt>
<wpt lat = "51.20996" lon = "3.22446"><name>BNWO2LS1</name><desc>20,9km (HM); 42,05km (M)
Images:5504
First:12.10.2025 11:05:03
Last:12.10.2025 16:27:43
Duration:05:22:40
</desc></wpt>
<wpt lat = "51.20996" lon = "3.22446"><name>BNWO2LS2</name><desc>20,9km (HM); 42,05km (M)
Images:6017
First:12.10.2025 11:28:02
Last:12.10.2025 16:31:30
Duration:05:03:28
</desc></wpt>
<wpt lat = "51.20996" lon = "3.22446"><name>BTOG2</name><desc>20,9km (HM); 42,05km (M)
Images:13267
First:12.10.2025 11:07:15
Last:12.10.2025 16:28:24
Duration:05:21:09
</desc></wpt>
<wpt lat = "51.20996" lon = "3.22446"><name>BTOG2LS1</name><desc>20,9km (HM); 42,05km (M)
Images:5029
First:12.10.2025 10:59:25
Last:12.10.2025 16:03:37
Duration:05:04:12
</desc></wpt>
<wpt lat = "51.20996" lon = "3.22446"><name>BTOG2LS2</name><desc>20,9km (HM); 42,05km (M)
Images:5126
First:12.10.2025 10:59:38
Last:12.10.2025 16:03:36
Duration:05:03:58
</desc></wpt>
<wpt lat = "51.21376" lon = "3.23943"><name>AKDA1</name><desc>4,8km (HM+M); 39,3km (M)
Images:14354
First:12.10.2025 08:42:36
Last:12.10.2025 16:07:07
Duration:07:24:31
</desc></wpt>
<wpt lat = "51.21376" lon = "3.23943"><name>ATB1</name><desc>4,8km (HM+M); 39,3km (M)
Images:16467
First:12.10.2025 08:48:44
Last:12.10.2025 16:05:19
Duration:07:16:35
</desc></wpt>
<wpt lat = "51.21376" lon = "3.23943"><name>ATB1LS1</name><desc>4,8km (HM+M); 39,3km (M)
Images:17105
First:12.10.2025 09:21:47
Last:12.10.2025 16:05:49
Duration:06:44:02
</desc></wpt>
<wpt lat = "51.21630" lon = "3.23778"><name>AACE1</name><desc>5,72km (HM+M); 39,83km (M)
Images:8559
First:12.10.2025 09:01:22
Last:12.10.2025 16:08:15
Duration:07:06:53
</desc></wpt>
<wpt lat = "51.21630" lon = "3.23778"><name>ASPSL1</name><desc>5,72km (HM+M); 39,83km (M)
Images:9056
First:12.10.2025 08:46:22
Last:12.10.2025 16:08:09
Duration:07:21:47
</desc></wpt>
<wpt lat = "51.21630" lon = "3.23778"><name>ASPSL2</name><desc>5,72km (HM+M); 39,83km (M)
Images:1198
First:12.10.2025 09:30:18
Last:12.10.2025 11:13:36
Duration:01:43:18
</desc></wpt>
<wpt lat = "51.20908" lon = "3.22460"><name>AACCA2</name><desc>Finish
Images:39485
First:12.10.2025 11:07:53
Last:12.10.2025 16:29:12
Duration:05:21:19
</desc></wpt>
<wpt lat = "51.20908" lon = "3.22460"><name>APBO2</name><desc>Finish
Images:13156
First:12.10.2025 11:05:44
Last:12.10.2025 15:28:07
Duration:04:22:23
</desc></wpt>
<wpt lat = "51.20908" lon = "3.22460"><name>APBO2LS1</name><desc>Finish
Images:11401
First:12.10.2025 11:04:26
Last:12.10.2025 16:14:57
Duration:05:10:31
</desc></wpt>
<wpt lat = "51.20479" lon = "3.21753"><name>AACCA1</name><desc>Start
Images:1224
First:12.10.2025 09:03:08
Last:12.10.2025 10:32:15
Duration:01:29:07
</desc></wpt>
</gpx>