<?xml version='1.0' encoding='utf-8'?>
<gpx version="1.1" creator="Infofile GPX Generator">
<wpt lat = "31.47107" lon = "152.93288"><name>BSZ1</name><desc>Bike - 40.0 km
Images:628
First:04.05.2025 06:08:28
Last:04.05.2025 09:23:34
Duration:03:15:06
</desc></wpt>
<wpt lat = "31.47107" lon = "152.93288"><name>BSZ3</name><desc>Bike - 40.0 km
Images:492
First:04.05.2025 12:26:09
Last:04.05.2025 14:44:39
Duration:02:18:30
</desc></wpt>
<wpt lat = "31.47107" lon = "152.93288"><name>BSZ2</name><desc>Bike - 40.2 km
Images:1854
First:04.05.2025 09:24:05
Last:04.05.2025 16:25:24
Duration:07:01:19
</desc></wpt>
<wpt lat = "-31.47415" lon = "152.93340"><name>BSZ4</name><desc>Bike - 171.0 km
Images:736
First:04.05.2025 07:46:34
Last:04.05.2025 15:29:17
Duration:07:42:43
</desc></wpt>
<wpt lat = "-31.42785" lon = "152.90873"><name>BSZ5</name><desc>Finish
Images:1654
First:04.05.2025 18:58:42
Last:05.05.2025 00:31:16
Duration:05:32:34
</desc></wpt>
<wpt lat = "-31.42785" lon = "152.90873"><name>JEK5LS1</name><desc>Finish
Images:2469
First:04.05.2025 04:22:56
Last:04.05.2025 21:43:54
Duration:17:20:58
</desc></wpt>
<wpt lat = "-31.42785" lon = "152.90873"><name>JEK5LS2</name><desc>Finish
Images:778
First:04.05.2025 17:31:24
Last:04.05.2025 21:45:07
Duration:04:13:43
</desc></wpt>
<wpt lat = "-31.42785" lon = "152.90873"><name>MTS1</name><desc>Finish
Images:8538
First:03.05.2025 21:05:39
Last:05.05.2025 06:39:48
Duration:1.09:34:09
</desc></wpt>
<wpt lat = "-31.42785" lon = "152.90873"><name>AKC3</name><desc>Finish
Images:2590
First:04.05.2025 10:05:55
Last:04.05.2025 17:57:49
Duration:07:51:54
</desc></wpt>
<wpt lat = "-31.42785" lon = "152.90873"><name>TOSC5</name><desc>Finish
Images:220
First:04.05.2025 17:09:30
Last:04.05.2025 19:02:43
Duration:01:53:13
</desc></wpt>
<wpt lat = "-31.42785" lon = "152.90873"><name>TOSC8</name><desc>Finish
Images:138
First:04.05.2025 20:10:13
Last:04.05.2025 23:50:29
Duration:03:40:16
</desc></wpt>
<wpt lat = "-31.42785" lon = "152.90873"><name>PBOY4</name><desc>Finish
Images:1641
First:04.05.2025 17:56:06
Last:04.05.2025 21:43:31
Duration:03:47:25
</desc></wpt>
<wpt lat = "-31.42785" lon = "152.90873"><name>AMI3</name><desc>Finish
Images:804
First:04.05.2025 21:34:57
Last:05.05.2025 00:31:09
Duration:02:56:12
</desc></wpt>
<wpt lat = "-31.47482" lon = "152.93649"><name>JEK1</name><desc>Bike - 10.0 km
Images:5978
First:04.05.2025 05:56:54
Last:04.05.2025 09:26:19
Duration:03:29:25
</desc></wpt>
<wpt lat = "-31.47565" lon = "152.93667"><name>JEK1LS1</name><desc>Bike - 10.1 km
Images:2035
First:04.05.2025 10:38:17
Last:04.05.2025 14:13:06
Duration:03:34:49
</desc></wpt>
<wpt lat = "-31.47565" lon = "152.93664"><name>JEK2</name><desc>Bike - 10.1 km
Images:940
First:04.05.2025 09:26:37
Last:04.05.2025 09:52:25
Duration:00:25:48
</desc></wpt>
<wpt lat = "-31.47482" lon = "152.93649"><name>JEK1DRONE1</name><desc>Bike - Impressions / Pano
Images:19
First:04.05.2025 06:18:49
Last:04.05.2025 06:28:34
Duration:00:09:45
</desc></wpt>
<wpt lat = "-31.47565" lon = "152.93667"><name>JEK5IMP1</name><desc>Bike - Impressions / Pano
Images:67
First:04.05.2025 21:15:39
Last:04.05.2025 21:47:56
Duration:00:32:17
</desc></wpt>
<wpt lat = "-31.47552" lon = "152.93687"><name>JEK3</name><desc>Bike - 142.8 km
Images:1967
First:04.05.2025 09:52:37
Last:04.05.2025 10:52:28
Duration:00:59:51
</desc></wpt>
<wpt lat = "-31.47552" lon = "152.93687"><name>JEK4</name><desc>Bike - 142.8 km
Images:4550
First:04.05.2025 12:24:21
Last:04.05.2025 16:01:31
Duration:03:37:10
</desc></wpt>
<wpt lat = "-31.43113" lon = "152.90528"><name>MTS2</name><desc>Run - 187.3 km
Images:743
First:04.05.2025 04:21:22
Last:04.05.2025 21:49:08
Duration:17:27:46
</desc></wpt>
<wpt lat = "-31.42995" lon = "152.89958"><name>AKC1</name><desc>Bike - Transition zone
Images:134
First:04.05.2025 08:42:14
Last:04.05.2025 09:37:18
Duration:00:55:04
</desc></wpt>
<wpt lat = "-31.42995" lon = "152.89958"><name>AKC2</name><desc>Bike - Transition zone
Images:1014
First:04.05.2025 06:43:17
Last:04.05.2025 08:39:09
Duration:01:55:52
</desc></wpt>
<wpt lat = "-31.42995" lon = "152.89958"><name>CLK1</name><desc>Bike - Transition zone
Images:2599
First:04.05.2025 05:34:39
Last:04.05.2025 09:07:47
Duration:03:33:08
</desc></wpt>
<wpt lat = "-31.42914" lon = "152.91687"><name>TOSC1</name><desc>Bike - 46.2 km
Images:282
First:03.05.2025 17:36:15
Last:04.05.2025 10:56:22
Duration:17:20:07
</desc></wpt>
<wpt lat = "-31.42912" lon = "152.91019"><name>TOSC2</name><desc>Bike - 4.0 km
Images:295
First:04.05.2025 07:29:57
Last:04.05.2025 12:38:36
Duration:05:08:39
</desc></wpt>
<wpt lat = "-31.42912" lon = "152.91019"><name>TOSC2LS2</name><desc>Bike - 179.0 km
Images:2414
First:04.05.2025 14:01:25
Last:04.05.2025 15:52:06
Duration:01:50:41
</desc></wpt>
<wpt lat = "-31.42912" lon = "152.91019"><name>TOSC2LS1</name><desc>Bike - 135.0 km
Images:554
First:04.05.2025 12:38:38
Last:04.05.2025 14:00:18
Duration:01:21:40
</desc></wpt>
<wpt lat = "-31.43031" lon = "152.91871"><name>TOSC3</name><desc>Bike - 136.0 km
Images:47
First:04.05.2025 07:49:38
Last:04.05.2025 07:59:48
Duration:00:10:10
</desc></wpt>
<wpt lat = "-31.43031" lon = "152.91871"><name>TOSC4</name><desc>Bike - 178.0 km
Images:7544
First:04.05.2025 08:07:10
Last:04.05.2025 09:58:13
Duration:01:51:03
</desc></wpt>
<wpt lat = "-31.42892" lon = "152.91367"><name>TOSC6</name><desc>Bike - 152.0 km
Images:5368
First:04.05.2025 11:11:05
Last:04.05.2025 15:58:30
Duration:04:47:25
</desc></wpt>
<wpt lat = "-31.42919" lon = "152.90931"><name>TOSC7</name><desc>Bike - 152.4 km
Images:506
First:04.05.2025 16:09:12
Last:04.05.2025 16:27:56
Duration:00:18:44
</desc></wpt>
<wpt lat = "-31.42995" lon = "152.89958"><name>TOSC1IMP1</name><desc>Bike - 0.0 km
Images:33
First:04.05.2025 10:06:34
Last:04.05.2025 10:58:51
Duration:00:52:17
</desc></wpt>
<wpt lat = "-31.42684" lon = "152.91204"><name>CLK2</name><desc>Run - 52.6 km
Images:5575
First:04.05.2025 09:09:28
Last:04.05.2025 14:24:59
Duration:05:15:31
</desc></wpt>
<wpt lat = "-31.42684" lon = "152.91204"><name>CLK3</name><desc>Run - 52.6 km
Images:482
First:04.05.2025 14:25:23
Last:04.05.2025 23:16:53
Duration:08:51:30
</desc></wpt>
<wpt lat = "-31.43056" lon = "152.90569"><name>CLK5</name><desc>Run - 186.0 km
Images:203
First:04.05.2025 19:26:01
Last:04.05.2025 20:57:47
Duration:01:31:46
</desc></wpt>
<wpt lat = "-31.44502" lon = "152.92734"><name>PBOY1</name><desc>Bike - 6.4 km
Images:3251
First:04.05.2025 06:19:19
Last:04.05.2025 09:10:23
Duration:02:51:04
</desc></wpt>
<wpt lat = "-31.44502" lon = "152.92734"><name>PBOY2</name><desc>Bike - 44.0 km
Images:1423
First:04.05.2025 05:58:54
Last:04.05.2025 12:20:49
Duration:06:21:55
</desc></wpt>
<wpt lat = "-31.44502" lon = "152.92734"><name>PBOY3</name><desc>Bike - 138.3 km
Images:2174
First:04.05.2025 12:24:38
Last:04.05.2025 15:45:20
Duration:03:20:42
</desc></wpt>
<wpt lat = "-31.43013" lon = "152.90571"><name>AMI1</name><desc>Run - 55.0 km
Images:81
First:02.05.2025 20:33:42
Last:04.05.2025 07:28:21
Duration:1.10:54:39
</desc></wpt>
<wpt lat = "-31.43013" lon = "152.90571"><name>AMI2LS1</name><desc>Run - 55.0 km
Images:7763
First:04.05.2025 07:53:03
Last:04.05.2025 17:02:01
Duration:09:08:58
</desc></wpt>
<wpt lat = "-31.43013" lon = "152.90571"><name>AMI2</name><desc>Run - 187.0 km
Images:18190
First:04.05.2025 08:56:33
Last:04.05.2025 20:17:50
Duration:11:21:17
</desc></wpt>
</gpx>