<?xml version='1.0' encoding='utf-8'?>
<gpx version="1.1" creator="Infofile GPX Generator">
<wpt lat = "48.39599" lon = "15.5873"><name>MDO1IMP1</name><desc>Impressions / Pano
Images:89
First:13.07.2025 07:54:25
Last:13.07.2025 08:58:07
Duration:01:03:42
</desc></wpt>
<wpt lat = "48.41074" lon = "15.49848"><name>BS1IMP1</name><desc>Impressions / Pano
Images:14
First:13.07.2025 08:01:56
Last:13.07.2025 10:08:08
Duration:02:06:12
</desc></wpt>
<wpt lat = "48.41074" lon = "15.49848"><name>EHL1DRONE1</name><desc>Impressions / Pano
Images:97
First:13.07.2025 07:45:21
Last:13.07.2025 13:30:37
Duration:05:45:16
</desc></wpt>
<wpt lat = "48.39855" lon = "15.57445"><name>MDO1</name><desc>Mittel-/Langdistanz km 1,0
Images:1006
First:13.07.2025 09:02:51
Last:13.07.2025 09:16:35
Duration:00:13:44
</desc></wpt>
<wpt lat = "48.40908" lon = "15.50598"><name>BS1</name><desc>Mittel-/Langdistanz km 8,5
Images:607
First:13.07.2025 08:41:56
Last:13.07.2025 09:24:26
Duration:00:42:30
</desc></wpt>
<wpt lat = "48.40908" lon = "15.50598"><name>BS1LS1</name><desc>Mittel-/Langdistanz km 8,5
Images:579
First:13.07.2025 08:25:10
Last:13.07.2025 09:25:52
Duration:01:00:42
</desc></wpt>
<wpt lat = "48.41074" lon = "15.49848"><name>EHL1</name><desc>Mittel-/Langdistanz km 9
Images:1356
First:13.07.2025 08:56:36
Last:13.07.2025 09:26:42
Duration:00:30:06
</desc></wpt>
<wpt lat = "48.41074" lon = "15.49848"><name>EHL1LS1</name><desc>Mittel-/Langdistanz km 9
Images:1519
First:13.07.2025 08:54:47
Last:13.07.2025 09:26:26
Duration:00:31:39
</desc></wpt>
<wpt lat = "48.41074" lon = "15.49848"><name>EHL1LS2</name><desc>Mittel-/Langdistanz km 9
Images:767
First:13.07.2025 08:42:00
Last:13.07.2025 11:09:49
Duration:02:27:49
</desc></wpt>
<wpt lat = "48.2923" lon = "15.40786"><name>THO2</name><desc>Mitteldistanz km 72,0 / Langdistanz km 168,5
Images:1841
First:13.07.2025 11:36:39
Last:13.07.2025 18:07:27
Duration:06:30:48
</desc></wpt>
<wpt lat = "48.2923" lon = "15.40786"><name>THO2LS1</name><desc>Mitteldistanz km 72,0 / Langdistanz km 168,5
Images:1152
First:13.07.2025 14:19:22
Last:13.07.2025 17:23:25
Duration:03:04:03
</desc></wpt>
<wpt lat = "48.32397" lon = "15.47655"><name>BS2</name><desc>Mitteldistanz km 81,5 / Langdistanz km 178,0
Images:5143
First:13.07.2025 11:28:28
Last:13.07.2025 17:33:23
Duration:06:04:55
</desc></wpt>
<wpt lat = "48.32397" lon = "15.47655"><name>BS2LS1</name><desc>Mitteldistanz km 81,5 / Langdistanz km 178,0
Images:2314
First:13.07.2025 10:51:38
Last:13.07.2025 17:35:07
Duration:06:43:29
</desc></wpt>
<wpt lat = "48.31241" lon = "15.48372"><name>EHL2</name><desc>Mitteldistanz km 84,5 / Langdistanz km 180,5
Images:4222
First:13.07.2025 11:24:32
Last:13.07.2025 17:47:30
Duration:06:22:58
</desc></wpt>
<wpt lat = "48.31241" lon = "15.48372"><name>EHL2LS1</name><desc>Mitteldistanz km 84,5 / Langdistanz km 180,5
Images:2110
First:13.07.2025 11:04:37
Last:13.07.2025 12:17:08
Duration:01:12:31
</desc></wpt>
<wpt lat = "48.31241" lon = "15.48372"><name>EHL2LS2</name><desc>Mitteldistanz km 84,5 / Langdistanz km 180,5
Images:3667
First:13.07.2025 11:10:36
Last:13.07.2025 17:43:44
Duration:06:33:08
</desc></wpt>
<wpt lat = "48.36607" lon = "15.51189"><name>DG2</name><desc>Mitteldistanz km 94,5 / Langdistanz km 190,5
Images:5017
First:13.07.2025 11:30:51
Last:13.07.2025 18:11:27
Duration:06:40:36
</desc></wpt>
<wpt lat = "48.36607" lon = "15.51189"><name>DG2LS1</name><desc>Mitteldistanz km 94,5 / Langdistanz km 190,5
Images:1583
First:13.07.2025 11:15:19
Last:13.07.2025 18:13:01
Duration:06:57:42
</desc></wpt>
<wpt lat = "48.39599" lon = "15.5873"><name>MDO2</name><desc>Finish
Images:6491
First:13.07.2025 09:28:51
Last:13.07.2025 18:40:49
Duration:09:11:58
</desc></wpt>
<wpt lat = "48.39599" lon = "15.5873"><name>MDO2LS1</name><desc>Finish
Images:1501
First:13.07.2025 09:52:22
Last:13.07.2025 18:38:14
Duration:08:45:52
</desc></wpt>
<wpt lat = "48.39599" lon = "15.5873"><name>MDO2LS2</name><desc>Finish
Images:1182
First:13.07.2025 10:12:23
Last:13.07.2025 18:19:24
Duration:08:07:01
</desc></wpt>
<wpt lat = "48.36366" lon = "15.53071"><name>DG1</name><desc>Kurzdistanz km 10,5
Images:2005
First:13.07.2025 09:25:15
Last:13.07.2025 11:15:24
Duration:01:50:09
</desc></wpt>
<wpt lat = "48.36366" lon = "15.53071"><name>DG1LS1</name><desc>Kurzdistanz km 10,5
Images:479
First:13.07.2025 09:13:33
Last:13.07.2025 09:59:30
Duration:00:45:57
</desc></wpt>
<wpt lat = "48.29374" lon = "15.40764"><name>THO1</name><desc>Kurzdistanz km 29,0
Images:1759
First:13.07.2025 09:45:04
Last:13.07.2025 11:28:19
Duration:01:43:15
</desc></wpt>
</gpx>