<?xml version='1.0' encoding='utf-8'?>
<gpx version="1.1" creator="Infofile GPX Generator">
<wpt lat = "50.44737" lon = "4.86238"><name>ALN1</name><desc>Swim - Start
Images:8733
First:08.06.2025 09:29:17
Last:08.06.2025 12:29:35
Duration:03:00:18
</desc></wpt>
<wpt lat = "50.44737" lon = "4.86238"><name>BAR1</name><desc>Swim - Start
Images:1037
First:08.06.2025 08:35:10
Last:08.06.2025 12:01:12
Duration:03:26:02
</desc></wpt>
<wpt lat = "50.44737" lon = "4.86238"><name>KJ1</name><desc>Swim - Start
Images:1212
First:08.06.2025 09:23:22
Last:08.06.2025 11:10:23
Duration:01:47:01
</desc></wpt>
<wpt lat = "50.45692" lon = "4.85561"><name>ALN1DRONE1</name><desc>Bike - 0,5 km before finish
Images:16
First:08.06.2025 12:51:07
Last:08.06.2025 14:27:36
Duration:01:36:29
</desc></wpt>
<wpt lat = "50.45692" lon = "4.85561"><name>ALN2</name><desc>Bike - 0,5 km before finish
Images:6041
First:08.06.2025 13:37:22
Last:08.06.2025 16:45:11
Duration:03:07:49
</desc></wpt>
<wpt lat = "50.45692" lon = "4.85561"><name>ALN2LS2</name><desc>Bike - 0,5 km before finish
Images:1188
First:08.06.2025 13:21:40
Last:08.06.2025 16:11:36
Duration:02:49:56
</desc></wpt>
<wpt lat = "50.45692" lon = "4.85561"><name>ALN2LS1</name><desc>Bike - 0,5 km before finish
Images:1598
First:08.06.2025 13:25:39
Last:08.06.2025 16:09:05
Duration:02:43:26
</desc></wpt>
<wpt lat = "50.45671" lon = "4.85682"><name>BAR2</name><desc>Finish
Images:3819
First:08.06.2025 12:01:12
Last:08.06.2025 17:01:53
Duration:05:00:41
</desc></wpt>
<wpt lat = "50.4561" lon = "4.86493"><name>DRI1</name><desc>Run - 800,0 m before Kayak
Images:7246
First:08.06.2025 09:08:56
Last:08.06.2025 12:26:27
Duration:03:17:31
</desc></wpt>
<wpt lat = "50.45934" lon = "4.85386"><name>DRI2</name><desc>Bike - 1,8 km before finish
Images:3273
First:08.06.2025 12:27:04
Last:08.06.2025 16:18:09
Duration:03:51:05
</desc></wpt>
<wpt lat = "50.45934" lon = "4.85386"><name>DRI2LS1</name><desc>Bike - 1,8 km before finish
Images:5376
First:08.06.2025 12:31:09
Last:08.06.2025 16:27:53
Duration:03:56:44
</desc></wpt>
<wpt lat = "50.45934" lon = "4.85386"><name>KJ2</name><desc>Bike - 1,8 km before finish
Images:2907
First:08.06.2025 11:34:53
Last:08.06.2025 16:26:32
Duration:04:51:39
</desc></wpt>
</gpx>