<?xml version='1.0' encoding='utf-8'?>
<gpx version="1.1" creator="Infofile GPX Generator">
<wpt lat = "-33.86142" lon = "151.21204"><name>AAURL3</name><desc>0.5 km
Images:3227
First:04.05.2025 06:08:28
Last:04.05.2025 09:30:01
Duration:03:21:33
</desc></wpt>
<wpt lat = "-33.86142" lon = "151.21204"><name>AROST1</name><desc>0.5 km
Images:45196
First:04.05.2025 05:59:00
Last:04.05.2025 09:28:39
Duration:03:29:39
</desc></wpt>
<wpt lat = "-33.86142" lon = "151.21204"><name>AWTT1</name><desc>0.5 km
Images:9474
First:04.05.2025 06:21:13
Last:04.05.2025 11:46:27
Duration:05:25:14
</desc></wpt>
<wpt lat = "-33.86588" lon = "151.19670"><name>CBRON1</name><desc>10.0 km
Images:11473
First:04.05.2025 06:29:45
Last:04.05.2025 10:29:36
Duration:03:59:51
</desc></wpt>
<wpt lat = "-33.86588" lon = "151.19670"><name>CBRON1LS1</name><desc>10.0 km
Images:4507
First:04.05.2025 06:50:02
Last:04.05.2025 10:38:48
Duration:03:48:46
</desc></wpt>
<wpt lat = "-33.86588" lon = "151.19670"><name>CDEA1</name><desc>10.0 km
Images:10364
First:04.05.2025 05:56:08
Last:04.05.2025 10:43:34
Duration:04:47:26
</desc></wpt>
<wpt lat = "-33.86745" lon = "151.19579"><name>CCTM1</name><desc>10.5 km
Images:10549
First:04.05.2025 06:31:41
Last:04.05.2025 10:46:02
Duration:04:14:21
</desc></wpt>
<wpt lat = "-33.86315" lon = "151.19374"><name>CTPA1</name><desc>10.5 km
Images:16239
First:04.05.2025 06:56:27
Last:04.05.2025 10:39:55
Duration:03:43:28
</desc></wpt>
<wpt lat = "-33.86315" lon = "151.19374"><name>CTPA1LS1</name><desc>10.5 km
Images:3535
First:04.05.2025 06:42:11
Last:04.05.2025 10:37:09
Duration:03:54:58
</desc></wpt>
<wpt lat = "-33.87343" lon = "151.20016"><name>CLMLS1</name><desc>11.2 km
Images:16547
First:04.05.2025 06:06:07
Last:04.05.2025 10:54:00
Duration:04:47:53
</desc></wpt>
<wpt lat = "-33.87328" lon = "151.20149"><name>CKH1</name><desc>11.4 km
Images:23149
First:04.05.2025 06:19:56
Last:04.05.2025 10:54:16
Duration:04:34:20
</desc></wpt>
<wpt lat = "-33.87123" lon = "151.20216"><name>CHMT1</name><desc>11.6 km
Images:28582
First:04.05.2025 06:25:00
Last:04.05.2025 10:56:35
Duration:04:31:35
</desc></wpt>
<wpt lat = "-33.85623" lon = "151.20051"><name>ACRBR1</name><desc>13.4 km
Images:20765
First:04.05.2025 05:49:14
Last:04.05.2025 11:17:35
Duration:05:28:21
</desc></wpt>
<wpt lat = "-33.85457" lon = "151.20988"><name>AIDS1</name><desc>15.0 km
Images:8293
First:04.05.2025 05:50:41
Last:04.05.2025 09:58:02
Duration:04:07:21
</desc></wpt>
<wpt lat = "-33.85457" lon = "151.20988"><name>AIDS2</name><desc>15.0 km
Images:8052
First:04.05.2025 08:21:00
Last:04.05.2025 09:57:54
Duration:01:36:54
</desc></wpt>
<wpt lat = "-33.85457" lon = "151.20988"><name>AIDS3</name><desc>15.0 km
Images:4902
First:04.05.2025 10:01:12
Last:04.05.2025 11:23:07
Duration:01:21:55
</desc></wpt>
<wpt lat = "-33.85457" lon = "151.20988"><name>ATOB1</name><desc>15.0 km
Images:33044
First:04.05.2025 06:32:38
Last:04.05.2025 11:25:09
Duration:04:52:31
</desc></wpt>
<wpt lat = "-33.85457" lon = "151.20988"><name>ATOB1LS1</name><desc>15.0 km
Images:10920
First:03.05.2025 20:40:57
Last:04.05.2025 09:36:08
Duration:12:55:11
</desc></wpt>
<wpt lat = "-33.85457" lon = "151.20988"><name>AWP1</name><desc>15.0 km
Images:16021
First:03.05.2025 20:07:48
Last:04.05.2025 11:26:03
Duration:15:18:15
</desc></wpt>
<wpt lat = "-33.85386" lon = "151.20870"><name>AVN1</name><desc>15.1 km
Images:23480
First:03.05.2025 20:48:51
Last:04.05.2025 11:09:21
Duration:14:20:30
</desc></wpt>
<wpt lat = "-33.85386" lon = "151.20870"><name>AVN1LS1</name><desc>15.1 km
Images:13344
First:04.05.2025 06:14:36
Last:04.05.2025 11:35:49
Duration:05:21:13
</desc></wpt>
<wpt lat = "-33.85633" lon = "151.20677"><name>AJV1</name><desc>15.5 km
Images:9670
First:04.05.2025 06:16:36
Last:04.05.2025 11:30:37
Duration:05:14:01
</desc></wpt>
<wpt lat = "-33.85633" lon = "151.20677"><name>AJV1LS1</name><desc>15.5 km
Images:6650
First:04.05.2025 05:57:13
Last:04.05.2025 11:29:27
Duration:05:32:14
</desc></wpt>
<wpt lat = "-33.86142" lon = "151.21204"><name>AAURL2</name><desc>17.2 km
Images:2870
First:04.05.2025 09:30:14
Last:04.05.2025 11:46:12
Duration:02:15:58
</desc></wpt>
<wpt lat = "-33.86142" lon = "151.21204"><name>AROST2</name><desc>17.2 km
Images:12624
First:04.05.2025 09:28:39
Last:04.05.2025 11:45:39
Duration:02:17:00
</desc></wpt>
<wpt lat = "-33.86492" lon = "151.21260"><name>BIAK1</name><desc>17.5 km
Images:32233
First:04.05.2025 06:12:51
Last:04.05.2025 11:54:34
Duration:05:41:43
</desc></wpt>
<wpt lat = "-33.86690" lon = "151.21489"><name>BIGM1</name><desc>18.5 km
Images:11373
First:04.05.2025 05:06:15
Last:04.05.2025 12:01:52
Duration:06:55:37
</desc></wpt>
<wpt lat = "-33.86690" lon = "151.21489"><name>BIGM1LS1</name><desc>18.5 km
Images:5355
First:05.04.2025 06:51:08
Last:05.04.2025 09:50:35
Duration:02:59:27
</desc></wpt>
<wpt lat = "-33.86690" lon = "151.21489"><name>BIGM1LS2</name><desc>18.5 km
Images:4588
First:04.05.2025 05:08:59
Last:04.05.2025 11:35:57
Duration:06:26:58
</desc></wpt>
<wpt lat = "-33.86700" lon = "151.21489"><name>BESF1</name><desc>18.6 km
Images:18593
First:04.05.2025 06:20:12
Last:04.05.2025 11:54:50
Duration:05:34:38
</desc></wpt>
<wpt lat = "-33.86695" lon = "151.21505"><name>BVFV1</name><desc>18.6 km
Images:21450
First:04.05.2025 06:12:51
Last:04.05.2025 11:54:34
Duration:05:41:43
</desc></wpt>
<wpt lat = "-33.85978" lon = "151.22204"><name>BEAP2</name><desc>19.5 km
Images:22562
First:04.05.2025 06:08:20
Last:04.05.2025 12:10:48
Duration:06:02:28
</desc></wpt>
<wpt lat = "-33.85978" lon = "151.22204"><name>BEAP3</name><desc>19.5 km
Images:3201
First:04.05.2025 09:11:22
Last:04.05.2025 10:24:21
Duration:01:12:59
</desc></wpt>
<wpt lat = "-33.85984" lon = "151.22212"><name>BMFS1</name><desc>19.5 km
Images:16928
First:04.05.2025 05:07:26
Last:04.05.2025 12:10:20
Duration:07:02:54
</desc></wpt>
<wpt lat = "-33.86297" lon = "151.22166"><name>DIAF1</name><desc>19.9 km
Images:16238
First:04.05.2025 06:51:20
Last:04.05.2025 12:15:06
Duration:05:23:46
</desc></wpt>
<wpt lat = "-33.86886" lon = "151.21615"><name>BRIT1</name><desc>20.8 km
Images:8100
First:04.05.2025 07:41:48
Last:04.05.2025 11:53:05
Duration:04:11:17
</desc></wpt>
<wpt lat = "-33.86932" lon = "151.21522"><name>DKIR1</name><desc>20.8 km
Images:26651
First:04.05.2025 06:54:49
Last:04.05.2025 12:27:05
Duration:05:32:16
</desc></wpt>
<wpt lat = "-33.86784" lon = "151.21597"><name>BCSM1</name><desc>21.1 km
Images:39432
First:04.05.2025 06:14:46
Last:04.05.2025 11:36:24
Duration:05:21:38
</desc></wpt>
<wpt lat = "-33.87035" lon = "151.19911"><name>CNIF1</name><desc>5.5 km
Images:25239
First:04.05.2025 06:17:17
Last:04.05.2025 10:07:05
Duration:03:49:48
</desc></wpt>
<wpt lat = "-33.86801" lon = "151.18759"><name>CNCJ1</name><desc>8.0 km
Images:12178
First:03.05.2025 21:01:34
Last:04.05.2025 10:25:00
Duration:13:23:26
</desc></wpt>
<wpt lat = "-33.86785" lon = "151.21528"><name>DABR2</name><desc>Ceremony
Images:504
First:04.05.2025 10:12:26
Last:04.05.2025 12:28:10
Duration:02:15:44
</desc></wpt>
<wpt lat = "-33.86785" lon = "151.21528"><name>DBRE3</name><desc>Ceremony
Images:75
First:04.05.2025 10:17:51
Last:04.05.2025 10:58:42
Duration:00:40:51
</desc></wpt>
<wpt lat = "-33.86785" lon = "151.21528"><name>DJUBA1</name><desc>Ceremony
Images:722
First:04.05.2025 06:50:33
Last:04.05.2025 09:20:46
Duration:02:30:13
</desc></wpt>
<wpt lat = "-33.86785" lon = "151.21528"><name>DMALO1</name><desc>Ceremony
Images:1277
First:04.05.2025 06:15:45
Last:04.05.2025 11:53:06
Duration:05:37:21
</desc></wpt>
<wpt lat = "-33.86788" lon = "151.21521"><name>BCSM2</name><desc>Finish
Images:9250
First:04.05.2025 05:53:12
Last:04.05.2025 11:56:28
Duration:06:03:16
</desc></wpt>
<wpt lat = "-33.86785" lon = "151.21528"><name>DABR1</name><desc>Finish
Images:2784
First:04.05.2025 06:37:25
Last:04.05.2025 10:06:44
Duration:03:29:19
</desc></wpt>
<wpt lat = "-33.86785" lon = "151.21528"><name>DABR1LS1</name><desc>Finish
Images:13798
First:04.05.2025 06:10:48
Last:04.05.2025 11:45:01
Duration:05:34:13
</desc></wpt>
<wpt lat = "-33.86785" lon = "151.21528"><name>DBRE1</name><desc>Finish
Images:3406
First:04.05.2025 06:53:28
Last:04.05.2025 09:55:08
Duration:03:01:40
</desc></wpt>
<wpt lat = "-33.86785" lon = "151.21528"><name>DBRE2</name><desc>Finish
Images:5170
First:04.05.2025 11:16:15
Last:04.05.2025 12:29:00
Duration:01:12:45
</desc></wpt>
<wpt lat = "-33.86785" lon = "151.21528"><name>DCVO3</name><desc>Finish
Images:1970
First:04.05.2025 11:48:18
Last:04.05.2025 12:25:02
Duration:00:36:44
</desc></wpt>
<wpt lat = "-33.86785" lon = "151.21528"><name>DDTT1</name><desc>Finish
Images:9880
First:04.05.2025 05:24:26
Last:04.05.2025 12:10:07
Duration:06:45:41
</desc></wpt>
<wpt lat = "-33.86785" lon = "151.21528"><name>DJUBA3</name><desc>Finish
Images:3700
First:04.05.2025 09:22:14
Last:04.05.2025 09:54:11
Duration:00:31:57
</desc></wpt>
<wpt lat = "-33.86785" lon = "151.21528"><name>DMALO2</name><desc>Finish
Images:312
First:04.05.2025 09:33:14
Last:04.05.2025 10:04:04
Duration:00:30:50
</desc></wpt>
<wpt lat = "-33.86785" lon = "151.21528"><name>DPAC3</name><desc>Finish
Images:3093
First:04.05.2025 10:01:56
Last:04.05.2025 12:29:38
Duration:02:27:42
</desc></wpt>
<wpt lat = "-33.86785" lon = "151.21528"><name>DRCT1</name><desc>Finish
Images:6630
First:04.05.2025 05:25:49
Last:04.05.2025 12:29:25
Duration:07:03:36
</desc></wpt>
<wpt lat = "-33.86785" lon = "151.21528"><name>DSNT1</name><desc>Finish
Images:11634
First:04.05.2025 06:41:39
Last:04.05.2025 12:23:05
Duration:05:41:26
</desc></wpt>
<wpt lat = "-33.86785" lon = "151.21528"><name>DTKU1</name><desc>Finish
Images:7628
First:04.05.2025 06:46:00
Last:04.05.2025 12:34:26
Duration:05:48:26
</desc></wpt>
<wpt lat = "-33.86785" lon = "151.21528"><name>DZMO1</name><desc>Finish
Images:4749
First:04.05.2025 06:53:00
Last:04.05.2025 12:29:17
Duration:05:36:17
</desc></wpt>
<wpt lat = "-33.86785" lon = "151.21528"><name>DJUBA2</name><desc>Impressions / Pano
Images:198
First:04.05.2025 10:05:25
Last:04.05.2025 11:44:12
Duration:01:38:47
</desc></wpt>
<wpt lat = "-33.86291" lon = "151.21339"><name>DCVO1</name><desc>Start
Images:757
First:04.05.2025 04:35:05
Last:04.05.2025 06:36:08
Duration:02:01:03
</desc></wpt>
<wpt lat = "-33.86291" lon = "151.21339"><name>DCVO2</name><desc>Start
Images:31529
First:04.05.2025 06:39:00
Last:04.05.2025 11:48:18
Duration:05:09:18
</desc></wpt>
<wpt lat = "-33.86291" lon = "151.21339"><name>DJBR1</name><desc>Start
Images:4157
First:04.05.2025 05:51:19
Last:04.05.2025 09:16:47
Duration:03:25:28
</desc></wpt>
<wpt lat = "-33.86291" lon = "151.21339"><name>DPAC1</name><desc>Start
Images:5177
First:04.05.2025 06:12:21
Last:04.05.2025 09:24:25
Duration:03:12:04
</desc></wpt>
<wpt lat = "-33.86291" lon = "151.21339"><name>DPAC2</name><desc>Start
Images:32
First:04.05.2025 05:48:41
Last:04.05.2025 06:08:21
Duration:00:19:40
</desc></wpt>
</gpx>