<?xml version='1.0' encoding='utf-8'?>
<gpx version="1.1" creator="Infofile GPX Generator">
<wpt lat = "51.32927" lon = "8.00570"><name>CZE1</name><desc>Start
Images:168
First:26.04.2025 09:49:44
Last:26.04.2025 11:28:03
Duration:01:38:19
</desc></wpt>
<wpt lat = "51.29007" lon = "7.97162"><name>DPH1</name><desc>6.0 km
Images:1381
First:26.04.2025 09:58:52
Last:26.04.2025 11:51:48
Duration:01:52:56
</desc></wpt>
<wpt lat = "51.29007" lon = "7.97162"><name>KOLSI1</name><desc>6.0 km
Images:1150
First:25.04.2025 22:42:34
Last:26.04.2025 12:16:42
Duration:13:34:08
</desc></wpt>
<wpt lat = "51.29007" lon = "7.97162"><name>KOLSI1DRONE1</name><desc>Impressions / Pano
Images:32
First:29.03.2025 08:54:40
Last:29.03.2025 10:01:18
Duration:01:06:38
</desc></wpt>
<wpt lat = "51.25813" lon = "7.97412"><name>HM1DRONE1</name><desc>Impressions / Pano
Images:13
First:26.04.2025 11:06:37
Last:26.04.2025 14:15:21
Duration:03:08:44
</desc></wpt>
<wpt lat = "51.25821" lon = "7.98274"><name>MANK1</name><desc>23.0 km / 43.0 km / 84.0 km
Images:1171
First:26.04.2025 10:03:21
Last:26.04.2025 16:23:02
Duration:06:19:41
</desc></wpt>
<wpt lat = "51.29043" lon = "7.97167"><name>HM1LS1</name><desc>23.5 km / 43.5 km / 84.5 km
Images:953
First:26.04.2025 10:27:04
Last:26.04.2025 16:24:31
Duration:05:57:27
</desc></wpt>
<wpt lat = "51.29043" lon = "7.97167"><name>HM1LS2</name><desc>23.5 km / 43.5 km / 84.5 km
Images:999
First:26.04.2025 10:05:54
Last:26.04.2025 16:24:31
Duration:06:18:37
</desc></wpt>
<wpt lat = "51.25813" lon = "7.97412"><name>HM1</name><desc>23.5 km / 43.5 km / 84.5 km
Images:3510
First:26.04.2025 10:48:31
Last:26.04.2025 16:24:42
Duration:05:36:11
</desc></wpt>
<wpt lat = "51.25863" lon = "7.95549"><name>CZE2</name><desc>48.0 km / 94.0 km Bergsprint
Images:918
First:26.04.2025 12:19:51
Last:26.04.2025 16:37:00
Duration:04:17:09
</desc></wpt>
<wpt lat = "51.26174" lon = "7.95428"><name>DPH2</name><desc>0.1 km vor dem Ziel
Images:3061
First:26.04.2025 12:22:05
Last:26.04.2025 16:56:35
Duration:04:34:30
</desc></wpt>
<wpt lat = "51.26173" lon = "7.95264"><name>KOLSI2</name><desc>Finish
Images:9583
First:26.04.2025 10:25:54
Last:26.04.2025 17:15:12
Duration:06:49:18
</desc></wpt>
</gpx>