<?xml version='1.0' encoding='utf-8'?>
<gpx version="1.1" creator="Infofile GPX Generator">
<wpt lat = "36.84036" lon = "-2.94382"><name>AMMO1</name><desc>Start
Images:211
First:07.06.2025 07:20:22
Last:07.06.2025 10:06:14
Duration:02:45:52
</desc></wpt>
<wpt lat = "36.83301" lon = "-2.95257"><name>JCFJ1</name><desc>1,4 km
Images:623
First:07.06.2025 07:31:35
Last:07.06.2025 08:54:25
Duration:01:22:50
</desc></wpt>
<wpt lat = "36.83301" lon = "-2.95000"><name>JCFJ1LS1</name><desc>1,5 km
Images:424
First:07.06.2025 07:27:32
Last:07.06.2025 08:14:04
Duration:00:46:32
</desc></wpt>
<wpt lat = "36.82809" lon = "-2.95247"><name>JMCA1</name><desc>1,9 km
Images:418
First:07.06.2025 08:01:13
Last:07.06.2025 09:52:36
Duration:01:51:23
</desc></wpt>
<wpt lat = "36.82794" lon = "-2.95245"><name>JMCA1LS1</name><desc>2,0 km
Images:513
First:07.06.2025 07:49:59
Last:07.06.2025 09:12:28
Duration:01:22:29
</desc></wpt>
<wpt lat = "36.74757" lon = "-3.03078"><name>IME1</name><desc>18,5 km
Images:434
First:07.06.2025 00:45:18
Last:07.06.2025 08:47:29
Duration:08:02:11
</desc></wpt>
<wpt lat = "36.74756" lon = "-3.04264"><name>JMB1</name><desc>19,0 km
Images:485
First:07.06.2025 08:10:55
Last:07.06.2025 10:27:15
Duration:02:16:20
</desc></wpt>
<wpt lat = "37.09460" lon = "-3.05982"><name>JMB2</name><desc>125,0 km Gran Fondo
Images:1918
First:07.06.2025 12:11:54
Last:07.06.2025 16:00:03
Duration:03:48:09
</desc></wpt>
<wpt lat = "37.03816" lon = "-3.00190"><name>IME2</name><desc>142,0 km Gran Fondo
Images:851
First:07.06.2025 10:31:04
Last:07.06.2025 16:46:34
Duration:06:15:30
</desc></wpt>
<wpt lat = "36.88644" lon = "-3.02244"><name>JCFJ2</name><desc>128,0 km Medio Fondo
Images:4762
First:07.06.2025 08:55:52
Last:07.06.2025 16:21:40
Duration:07:25:48
</desc></wpt>
<wpt lat = "36.88644" lon = "-3.02244"><name>JCFJ2LS1</name><desc>129,0 km Medio Fondo
Images:774
First:07.06.2025 09:26:49
Last:07.06.2025 16:29:57
Duration:07:03:08
</desc></wpt>
<wpt lat = "36.84670" lon = "-3.00960"><name>JMCA2</name><desc>135,0 km Medio Fondo
Images:3001
First:07.06.2025 12:01:35
Last:07.06.2025 16:49:44
Duration:04:48:09
</desc></wpt>
<wpt lat = "36.84670" lon = "-3.00960"><name>JMCA2LS1</name><desc>134,0 km Medio Fondo
Images:665
First:07.06.2025 10:29:53
Last:07.06.2025 16:35:18
Duration:06:05:25
</desc></wpt>
<wpt lat = "36.84036" lon = "-2.94382"><name>AMMO2</name><desc>Finish
Images:3122
First:07.06.2025 12:25:18
Last:07.06.2025 18:14:00
Duration:05:48:42
</desc></wpt>
</gpx>