<?xml version='1.0' encoding='utf-8'?>
<gpx version="1.1" creator="Infofile GPX Generator">
<wpt lat = "51.02157" lon = "6.92979"><name>GAC1</name><desc>Start
Images:2809
First:13.09.2025 12:44:14
Last:13.09.2025 14:32:03
Duration:01:47:49
</desc></wpt>
<wpt lat = "51.02158" lon = "6.92590"><name>HOLY1</name><desc>HOLY Creator Run
Images:3442
First:12.09.2025 22:33:54
Last:13.09.2025 20:12:56
Duration:21:39:02
</desc></wpt>
<wpt lat = "51.03319" lon = "6.91038"><name>AG2DRONE1</name><desc>Impressions / Pano
Images:26
First:13.09.2025 15:54:43
Last:13.09.2025 16:01:18
Duration:00:06:35
</desc></wpt>
<wpt lat = "51.03319" lon = "6.91038"><name>AG2LS1</name><desc>Obstacle 1 Krabbelnetz
Images:1871
First:13.09.2025 14:25:13
Last:13.09.2025 15:51:43
Duration:01:26:30
</desc></wpt>
<wpt lat = "51.03315" lon = "6.91054"><name>MW1</name><desc>Obstacle 1 Matsch
Images:4930
First:13.09.2025 08:11:04
Last:13.09.2025 16:38:08
Duration:08:27:04
</desc></wpt>
<wpt lat = "51.03315" lon = "6.91054"><name>MW1LS2</name><desc>Obstacle 1 Matsch
Images:4750
First:13.09.2025 08:14:42
Last:13.09.2025 16:30:15
Duration:08:15:33
</desc></wpt>
<wpt lat = "51.03315" lon = "6.91054"><name>MW1LS1</name><desc>Obstacle 1 Matsch
Images:2393
First:13.09.2025 14:03:30
Last:13.09.2025 16:30:15
Duration:02:26:45
</desc></wpt>
<wpt lat = "51.03319" lon = "6.91038"><name>AG1</name><desc>Obstacle 1 Strom
Images:2144
First:13.09.2025 14:10:10
Last:13.09.2025 16:38:03
Duration:02:27:53
</desc></wpt>
<wpt lat = "51.03319" lon = "6.91038"><name>AG1LS2</name><desc>Obstacle 1 Strom
Images:719
First:13.09.2025 13:55:05
Last:13.09.2025 16:29:52
Duration:02:34:47
</desc></wpt>
<wpt lat = "51.03319" lon = "6.91038"><name>AG1LS1</name><desc>Obstacle 1 Strom
Images:1219
First:13.09.2025 13:55:37
Last:13.09.2025 16:29:30
Duration:02:33:53
</desc></wpt>
<wpt lat = "51.02144" lon = "6.92873"><name>OT1</name><desc>Obstacle 4 Klettern
Images:5873
First:13.09.2025 11:47:55
Last:13.09.2025 17:15:08
Duration:05:27:13
</desc></wpt>
<wpt lat = "51.02144" lon = "6.92873"><name>OT1LS1</name><desc>Obstacle 4 Klettern
Images:4311
First:13.09.2025 11:33:55
Last:13.09.2025 17:25:12
Duration:05:51:17
</desc></wpt>
<wpt lat = "51.02144" lon = "6.92873"><name>FCO1</name><desc>Obstacle 4 Wasserfall
Images:5803
First:13.09.2025 12:46:09
Last:13.09.2025 17:28:48
Duration:04:42:39
</desc></wpt>
<wpt lat = "51.02044" lon = "6.92480"><name>JKE1</name><desc>Obstacle 4 Wasserüberquerung
Images:4902
First:13.09.2025 13:58:00
Last:13.09.2025 17:08:12
Duration:03:10:12
</desc></wpt>
<wpt lat = "51.02044" lon = "6.92480"><name>JKE1LS2</name><desc>Obstacle 4 Wasserüberquerung
Images:53
First:13.09.2025 20:12:16
Last:13.09.2025 20:12:56
Duration:00:00:40
</desc></wpt>
<wpt lat = "51.02044" lon = "6.92480"><name>JKE1LS1</name><desc>Obstacle 4 Wasserüberquerung
Images:68
First:12.09.2025 22:27:41
Last:13.09.2025 17:16:13
Duration:18:48:32
</desc></wpt>
<wpt lat = "51.02149" lon = "6.92899"><name>RUA1</name><desc>Obstacle 5 Colonia
Images:4859
First:13.09.2025 14:41:30
Last:13.09.2025 17:12:58
Duration:02:31:28
</desc></wpt>
<wpt lat = "51.02179" lon = "6.92894"><name>MIJA1</name><desc>Obstacle 5 Rutsche
Images:2833
First:13.09.2025 10:15:40
Last:13.09.2025 17:16:17
Duration:07:00:37
</desc></wpt>
<wpt lat = "51.02158" lon = "6.92590"><name>ST1</name><desc>Obstacle 6 Klettern
Images:3943
First:13.09.2025 13:28:12
Last:13.09.2025 17:10:17
Duration:03:42:05
</desc></wpt>
<wpt lat = "51.02158" lon = "6.92590"><name>ST1LS1</name><desc>Obstacle 6 Klettern
Images:841
First:13.09.2025 11:33:15
Last:13.09.2025 15:37:50
Duration:04:04:35
</desc></wpt>
<wpt lat = "51.02157" lon = "6.92979"><name>MBEN1LS1</name><desc>Finish
Images:1618
First:13.09.2025 14:34:47
Last:13.09.2025 17:17:01
Duration:02:42:14
</desc></wpt>
<wpt lat = "51.02157" lon = "6.92979"><name>MBEN1</name><desc>Finish
Images:7801
First:13.09.2025 14:01:50
Last:13.09.2025 17:16:45
Duration:03:14:55
</desc></wpt>
<wpt lat = "51.02157" lon = "6.92979"><name>GAC2</name><desc>Finish
Images:8030
First:13.09.2025 14:44:01
Last:13.09.2025 17:18:58
Duration:02:34:57
</desc></wpt>
</gpx>