<?xml version='1.0' encoding='utf-8'?>
<gpx version="1.1" creator="Infofile GPX Generator">
<wpt lat = "49.43344" lon = "10.91214"><name>DAR1</name><desc>Mudders on the Rocks
Images:10638
First:13.09.2025 09:34:40
Last:13.09.2025 15:45:40
Duration:06:11:00
</desc></wpt>
<wpt lat = "49.43344" lon = "10.91214"><name>DAR1LS1</name><desc>Mudders on the Rocks
Images:1150
First:13.09.2025 09:25:42
Last:13.09.2025 15:45:24
Duration:06:19:42
</desc></wpt>
<wpt lat = "49.43362" lon = "10.91606"><name>MIH1</name><desc>Wheeltransport
Images:13139
First:13.09.2025 08:54:22
Last:13.09.2025 15:53:08
Duration:06:58:46
</desc></wpt>
<wpt lat = "49.43423" lon = "10.92008"><name>DASC1</name><desc>Sand Uphill
Images:5311
First:13.09.2025 09:18:15
Last:13.09.2025 16:16:17
Duration:06:58:02
</desc></wpt>
<wpt lat = "49.43376" lon = "10.92045"><name>DASC1LS1</name><desc>Einbetoniert
Images:4914
First:13.09.2025 09:15:15
Last:13.09.2025 16:10:23
Duration:06:55:08
</desc></wpt>
<wpt lat = "49.43296" lon = "10.92517"><name>JEM1</name><desc>Red Wall
Images:2713
First:13.09.2025 09:22:21
Last:13.09.2025 16:26:09
Duration:07:03:48
</desc></wpt>
<wpt lat = "49.43296" lon = "10.92517"><name>JEM1LS1</name><desc>Laufstrecke
Images:978
First:13.09.2025 08:50:16
Last:13.09.2025 15:19:00
Duration:06:28:44
</desc></wpt>
<wpt lat = "49.43273" lon = "10.92399"><name>SJK1</name><desc>Multi Rig
Images:1810
First:13.09.2025 08:17:17
Last:13.09.2025 16:37:39
Duration:08:20:22
</desc></wpt>
<wpt lat = "49.43145" lon = "10.91480"><name>MEKU1</name><desc>Halfpipe
Images:4590
First:13.09.2025 07:54:27
Last:13.09.2025 16:44:36
Duration:08:50:09
</desc></wpt>
<wpt lat = "49.43175" lon = "10.91239"><name>TIH1</name><desc>Obstacle 1
Images:6067
First:13.09.2025 08:49:01
Last:13.09.2025 16:47:26
Duration:07:58:25
</desc></wpt>
<wpt lat = "49.43136" lon = "10.91170"><name>THO1</name><desc>Herotent
Images:1971
First:13.09.2025 07:07:56
Last:13.09.2025 16:53:47
Duration:09:45:51
</desc></wpt>
<wpt lat = "49.43136" lon = "10.91170"><name>TIH1LS1</name><desc>Finish
Images:4392
First:13.09.2025 09:01:47
Last:13.09.2025 16:50:53
Duration:07:49:06
</desc></wpt>
<wpt lat = "49.43136" lon = "10.91170"><name>DAR1DRONE1</name><desc>Drohne
Images:12
First:13.09.2025 08:54:39
Last:13.09.2025 09:03:50
Duration:00:09:11
</desc></wpt>
</gpx>