<?xml version='1.0' encoding='utf-8'?>
<gpx version="1.1" creator="Infofile GPX Generator">
<wpt lat = "50.77067" lon = "4.53319"><name>ACCA1</name><desc>Start
Images:3870
First:19.04.2025 06:25:19
Last:19.04.2025 10:58:38
Duration:04:33:19
</desc></wpt>
<wpt lat = "50.77067" lon = "4.53319"><name>ACCA2</name><desc>Start
Images:4733
First:19.04.2025 11:02:40
Last:19.04.2025 16:00:01
Duration:04:57:21
</desc></wpt>
<wpt lat = "50.77272" lon = "4.5378"><name>TID1</name><desc>1,0 km
Images:4824
First:18.04.2025 21:39:42
Last:19.04.2025 10:50:43
Duration:13:11:01
</desc></wpt>
<wpt lat = "50.77272" lon = "4.5378"><name>TID1LS1</name><desc>1,0 km
Images:6666
First:18.04.2025 21:44:00
Last:19.04.2025 10:24:46
Duration:12:40:46
</desc></wpt>
<wpt lat = "50.82619" lon = "4.55554"><name>DIK1</name><desc>9,0 km
Images:8250
First:19.04.2025 07:54:01
Last:19.04.2025 10:21:11
Duration:02:27:10
</desc></wpt>
<wpt lat = "50.82619" lon = "4.55554"><name>DIK1DRONE1</name><desc>9,0 km
Images:5
First:19.04.2025 07:31:34
Last:19.04.2025 07:37:54
Duration:00:06:20
</desc></wpt>
<wpt lat = "50.82319" lon = "4.61324"><name>DAV1</name><desc>15,0 km
Images:3892
First:19.04.2025 07:53:15
Last:19.04.2025 11:13:15
Duration:03:20:00
</desc></wpt>
<wpt lat = "50.82319" lon = "4.61324"><name>DAV1LS1</name><desc>15,0 km
Images:1834
First:19.04.2025 07:55:22
Last:19.04.2025 10:58:38
Duration:03:03:16
</desc></wpt>
<wpt lat = "50.82319" lon = "4.61324"><name>DAV1LS2</name><desc>15,0 km
Images:1888
First:19.04.2025 07:50:23
Last:19.04.2025 10:58:45
Duration:03:08:22
</desc></wpt>
<wpt lat = "50.83716" lon = "4.64514"><name>FVE1</name><desc>19,0 km
Images:3146
First:19.04.2025 07:27:56
Last:19.04.2025 11:28:21
Duration:04:00:25
</desc></wpt>
<wpt lat = "50.76950" lon = "4.59786"><name>DAV2</name><desc>57,7 km
Images:4498
First:19.04.2025 12:07:17
Last:19.04.2025 14:55:49
Duration:02:48:32
</desc></wpt>
<wpt lat = "50.76950" lon = "4.59786"><name>DAV2LS1</name><desc>57,7 km
Images:5806
First:19.04.2025 12:01:43
Last:19.04.2025 15:09:15
Duration:03:07:32
</desc></wpt>
<wpt lat = "50.76950" lon = "4.59786"><name>DAV2LS2</name><desc>57,7 km
Images:5806
First:19.04.2025 12:01:43
Last:19.04.2025 15:09:15
Duration:03:07:32
</desc></wpt>
<wpt lat = "50.7698" lon = "4.59592"><name>FVE2</name><desc>58,0 km
Images:4542
First:19.04.2025 12:01:57
Last:19.04.2025 15:16:04
Duration:03:14:07
</desc></wpt>
<wpt lat = "50.78738" lon = "4.59635"><name>DIK2</name><desc>70,0 km
Images:7146
First:19.04.2025 11:10:38
Last:19.04.2025 15:34:32
Duration:04:23:54
</desc></wpt>
<wpt lat = "50.78738" lon = "4.59635"><name>DIK2DRONE1</name><desc>70,0 km
Images:7
First:19.04.2025 15:39:34
Last:19.04.2025 15:43:09
Duration:00:03:35
</desc></wpt>
<wpt lat = "50.78738" lon = "4.59635"><name>TID2</name><desc>70,0 km
Images:7379
First:19.04.2025 11:18:21
Last:19.04.2025 15:48:48
Duration:04:30:27
</desc></wpt>
<wpt lat = "50.78738" lon = "4.59635"><name>TID2LS1</name><desc>70,0 km
Images:5226
First:19.04.2025 11:13:10
Last:19.04.2025 15:48:40
Duration:04:35:30
</desc></wpt>
</gpx>