<?xml version='1.0' encoding='utf-8'?>
<gpx version="1.1" creator="Infofile GPX Generator">
<wpt lat = "46.62414" lon = "8.03415"><name>EB1</name><desc>Start
Images:749
First:09.08.2025 07:05:22
Last:09.08.2025 10:56:36
Duration:03:51:14
</desc></wpt>
<wpt lat = "46.66745" lon = "8.02643"><name>DART1</name><desc>Lake Bachsee / 50k - 80k
Images:1463
First:09.08.2025 09:35:36
Last:09.08.2025 12:26:36
Duration:02:51:00
</desc></wpt>
<wpt lat = "46.66745" lon = "8.02643"><name>DART1LS1</name><desc>Lake Bachsee / 50k - 80k
Images:1213
First:09.08.2025 08:56:31
Last:09.08.2025 13:18:37
Duration:04:22:06
</desc></wpt>
<wpt lat = "46.64503" lon = "8.04711"><name>ARF1</name><desc>First station /  19k - 30k - 45k - 50k - 80k
Images:1479
First:09.08.2025 08:08:13
Last:09.08.2025 12:40:50
Duration:04:32:37
</desc></wpt>
<wpt lat = "46.61566" lon = "8.00570"><name>GAT1</name><desc>5km before finish /  19k - 30k - 45k - 80k
Images:871
First:09.08.2025 08:36:08
Last:09.08.2025 16:24:31
Duration:07:48:23
</desc></wpt>
<wpt lat = "46.61566" lon = "8.00570"><name>GAT1DRONE1</name><desc>5km before finish /  19k - 30k - 45k - 80k
Images:55
First:09.08.2025 08:14:24
Last:09.08.2025 13:19:57
Duration:05:05:33
</desc></wpt>
<wpt lat = "46.66577" lon = "8.02923"><name>DART2</name><desc>Enduro - Stage 3
Images:412
First:09.08.2025 13:27:50
Last:09.08.2025 14:32:55
Duration:01:05:05
</desc></wpt>
<wpt lat = "46.66577" lon = "8.02923"><name>EB2LS2</name><desc>Enduro - Stage 3
Images:130
First:09.08.2025 13:19:26
Last:09.08.2025 14:44:02
Duration:01:24:36
</desc></wpt>
<wpt lat = "46.63663" lon = "8.04141"><name>ARF2</name><desc>Enduro - Stage 5
Images:603
First:09.08.2025 13:08:55
Last:09.08.2025 16:30:29
Duration:03:21:34
</desc></wpt>
<wpt lat = "46.62414" lon = "8.03415"><name>EB2</name><desc>Finish
Images:1544
First:09.08.2025 10:56:55
Last:09.08.2025 16:36:17
Duration:05:39:22
</desc></wpt>
<wpt lat = "46.62414" lon = "8.03415"><name>EB2LS1</name><desc>Finish
Images:425
First:09.07.2025 12:09:02
Last:09.07.2025 16:39:29
Duration:04:30:27
</desc></wpt>
</gpx>