<?xml version='1.0' encoding='utf-8'?>
<gpx version="1.1" creator="Infofile GPX Generator">
<wpt lat = "47.67519" lon = "12.46363"><name>IH1</name><desc>Start
Images:505
First:27.09.2025 05:36:50
Last:27.09.2025 10:21:47
Duration:04:44:57
</desc></wpt>
<wpt lat = "47.64999" lon = "12.50468"><name>CHR1</name><desc>8.5 km M, XL, XXL
Images:794
First:27.09.2025 07:49:35
Last:27.09.2025 10:02:55
Duration:02:13:20
</desc></wpt>
<wpt lat = "47.64999" lon = "12.50468"><name>CHR1LS2</name><desc>8.5 km M, XL, XXL
Images:224
First:27.09.2025 08:00:51
Last:27.09.2025 09:58:25
Duration:01:57:34
</desc></wpt>
<wpt lat = "47.64999" lon = "12.50468"><name>CHR1LS1</name><desc>8.5 km M, XL, XXL
Images:237
First:27.09.2025 07:49:10
Last:27.09.2025 09:56:35
Duration:02:07:25
</desc></wpt>
<wpt lat = "47.62211" lon = "12.51103"><name>COR1</name><desc>Gletscherblickweg
Images:1457
First:27.09.2025 08:08:25
Last:27.09.2025 16:36:41
Duration:08:28:16
</desc></wpt>
<wpt lat = "47.62211" lon = "12.51103"><name>COR1LS2</name><desc>Gletscherblickweg
Images:179
First:27.09.2025 08:52:14
Last:27.09.2025 11:40:50
Duration:02:48:36
</desc></wpt>
<wpt lat = "47.62211" lon = "12.51103"><name>COR1LS1</name><desc>Gletscherblickweg
Images:556
First:27.09.2025 08:54:35
Last:27.09.2025 15:01:32
Duration:06:06:57
</desc></wpt>
<wpt lat = "47.64453" lon = "12.50090"><name>CHR2</name><desc>HIndenburghütte
Images:2696
First:27.09.2025 10:06:46
Last:27.09.2025 17:21:04
Duration:07:14:18
</desc></wpt>
<wpt lat = "47.64453" lon = "12.50090"><name>CHR2LS2</name><desc>HIndenburghütte
Images:681
First:27.09.2025 10:27:27
Last:28.09.2025 04:49:59
Duration:18:22:32
</desc></wpt>
<wpt lat = "47.64453" lon = "12.50090"><name>CHR2LS1</name><desc>HIndenburghütte
Images:827
First:27.09.2025 10:21:39
Last:27.09.2025 17:13:26
Duration:06:51:47
</desc></wpt>
<wpt lat = "47.65187" lon = "12.47722"><name>MJO1</name><desc>Zwerchenbergalm
Images:3329
First:27.09.2025 10:00:30
Last:27.09.2025 18:11:51
Duration:08:11:21
</desc></wpt>
<wpt lat = "47.65726" lon = "12.47269"><name>TNS1</name><desc>Klausenbachklamm
Images:2315
First:26.09.2025 16:02:23
Last:27.09.2025 17:59:26
Duration:1.01:57:03
</desc></wpt>
<wpt lat = "47.67519" lon = "12.46363"><name>IH2</name><desc>Finish
Images:4720
First:27.09.2025 10:31:43
Last:27.09.2025 19:54:38
Duration:09:22:55
</desc></wpt>
<wpt lat = "47.62211" lon = "12.51103"><name>COR1DRONE1</name><desc>Impressions / Pano
Images:19
First:27.09.2025 10:52:57
Last:27.09.2025 11:04:04
Duration:00:11:07
</desc></wpt>
</gpx>