<?xml version='1.0' encoding='utf-8'?>
<gpx version="1.1" creator="Infofile GPX Generator">
<wpt lat = "47.58865" lon = "8.49836"><name>GUD1</name><desc>Start
Images:113
First:05.07.2025 12:39:56
Last:05.07.2025 13:00:46
Duration:00:20:50
</desc></wpt>
<wpt lat = "47.58831" lon = "8.50093"><name>ROH1</name><desc>Obstacle 2 Tauchbecken
Images:12329
First:05.07.2025 09:33:02
Last:05.07.2025 14:46:49
Duration:05:13:47
</desc></wpt>
<wpt lat = "47.58831" lon = "8.50093"><name>SBU1</name><desc>Obstacle 2 Tauchbecken
Images:8810
First:05.07.2025 09:46:47
Last:05.07.2025 14:46:55
Duration:05:00:08
</desc></wpt>
<wpt lat = "47.58802" lon = "8.49986"><name>ROH1LS1</name><desc>Laufstrecke nach Obstacle 2 Tauchbecken
Images:3373
First:05.07.2025 09:14:24
Last:05.07.2025 15:06:18
Duration:05:51:54
</desc></wpt>
<wpt lat = "47.58802" lon = "8.49986"><name>SBU1LS1</name><desc>Laufstrecke nach Obstacle 2 Tauchbecken
Images:3666
First:05.07.2025 09:16:24
Last:05.07.2025 15:05:14
Duration:05:48:50
</desc></wpt>
<wpt lat = "47.58712" lon = "8.49484"><name>BRP1</name><desc>Obstacle 4 Seiltanz
Images:12699
First:05.07.2025 08:42:50
Last:05.07.2025 14:56:06
Duration:06:13:16
</desc></wpt>
<wpt lat = "47.58385" lon = "8.49097"><name>HOH1</name><desc>Obstacle 5 Schaumparty
Images:8368
First:05.07.2025 09:35:20
Last:05.07.2025 15:10:55
Duration:05:35:35
</desc></wpt>
<wpt lat = "47.58386" lon = "8.48796"><name>THO1LS1</name><desc>Laufstrecke vor Obstacle 6 Krabbelstrecke
Images:7976
First:05.07.2025 09:50:33
Last:05.07.2025 14:05:23
Duration:04:14:50
</desc></wpt>
<wpt lat = "47.58386" lon = "8.48796"><name>HKU1</name><desc>Obstacle 6 Krabbelstrecke
Images:7384
First:05.07.2025 09:19:49
Last:05.07.2025 15:17:47
Duration:05:57:58
</desc></wpt>
<wpt lat = "47.58386" lon = "8.48796"><name>THO1</name><desc>Obstacle 6 Krabbelstrecke
Images:6364
First:05.07.2025 09:34:51
Last:05.07.2025 15:18:07
Duration:05:43:16
</desc></wpt>
<wpt lat = "47.58831" lon = "8.49869"><name>DASC1</name><desc>Obstacle 10 Schlammbecken
Images:14388
First:05.07.2025 09:26:49
Last:05.07.2025 15:57:36
Duration:06:30:47
</desc></wpt>
<wpt lat = "47.58884" lon = "8.49806"><name>RIS1</name><desc>Obstacle 11 Gitterbecken
Images:8027
First:05.07.2025 09:19:14
Last:05.07.2025 16:02:13
Duration:06:42:59
</desc></wpt>
<wpt lat = "47.58884" lon = "8.49806"><name>TIH1</name><desc>Obstacle 11 Gitterbecken
Images:6484
First:05.07.2025 09:33:24
Last:05.07.2025 16:02:24
Duration:06:29:00
</desc></wpt>
<wpt lat = "47.58914" lon = "8.49834"><name>TIH1LS1</name><desc>Laufstrecke nach Obstacle 12 Krabbelnetz
Images:7672
First:05.07.2025 09:25:27
Last:05.07.2025 16:04:39
Duration:06:39:12
</desc></wpt>
<wpt lat = "47.58909" lon = "8.49890"><name>ANPE1</name><desc>Obstacle 13 Container Rutsche
Images:2219
First:05.07.2025 08:58:26
Last:05.07.2025 16:05:42
Duration:07:07:16
</desc></wpt>
<wpt lat = "47.58909" lon = "8.49890"><name>RJ1</name><desc>Obstacle 13 Container Rutsche
Images:6761
First:05.07.2025 10:05:55
Last:05.07.2025 16:05:36
Duration:05:59:41
</desc></wpt>
<wpt lat = "47.58909" lon = "8.49890"><name>RJ1LS1</name><desc>Obstacle 13 Container Rutsche
Images:2415
First:05.07.2025 10:16:55
Last:05.07.2025 16:05:37
Duration:05:48:42
</desc></wpt>
<wpt lat = "47.58909" lon = "8.49890"><name>RJ1LS2</name><desc>Obstacle 13 Container Rutsche
Images:2432
First:05.07.2025 10:16:55
Last:05.07.2025 16:05:36
Duration:05:48:41
</desc></wpt>
<wpt lat = "47.58855" lon = "8.49938"><name>BS1LS1</name><desc>Laufstrecke nach Obstacle 14 Pool Party
Images:4539
First:05.07.2025 09:30:43
Last:05.07.2025 16:11:10
Duration:06:40:27
</desc></wpt>
<wpt lat = "47.58877" lon = "8.49953"><name>DAR1LS1</name><desc>Laufstrecke Amphitheater
Images:6325
First:05.07.2025 09:22:57
Last:05.07.2025 16:19:30
Duration:06:56:33
</desc></wpt>
<wpt lat = "47.58877" lon = "8.49953"><name>SK1LS1</name><desc>Laufstrecke Amphitheater
Images:2508
First:05.07.2025 08:48:31
Last:05.07.2025 14:01:36
Duration:05:13:05
</desc></wpt>
<wpt lat = "47.58855" lon = "8.49938"><name>SK1</name><desc>Finish
Images:5347
First:05.07.2025 09:13:26
Last:05.07.2025 16:15:02
Duration:07:01:36
</desc></wpt>
<wpt lat = "47.58855" lon = "8.49938"><name>GUD1LS1</name><desc>Finish
Images:5487
First:05.07.2025 10:22:25
Last:05.07.2025 16:30:51
Duration:06:08:26
</desc></wpt>
<wpt lat = "47.58855" lon = "8.49938"><name>GUD1LS2</name><desc>Finish
Images:5893
First:05.07.2025 09:21:01
Last:05.07.2025 16:32:58
Duration:07:11:57
</desc></wpt>
<wpt lat = "47.58855" lon = "8.49938"><name>BS1</name><desc>Herotent
Images:4189
First:05.07.2025 10:19:30
Last:05.07.2025 16:04:05
Duration:05:44:35
</desc></wpt>
<wpt lat = "47.58855" lon = "8.49938"><name>DAR1</name><desc>Herotent
Images:3664
First:05.07.2025 10:21:53
Last:05.07.2025 16:15:43
Duration:05:53:50
</desc></wpt>
<wpt lat = "47.58855" lon = "8.49938"><name>GUD1DRONE1</name><desc>Impressions / Pano
Images:9
First:05.07.2025 13:16:44
Last:05.07.2025 13:26:47
Duration:00:10:03
</desc></wpt>
</gpx>