<?xml version='1.0' encoding='utf-8'?>
<gpx version="1.1" creator="Infofile GPX Generator">
<wpt lat = "56.66263" lon = "16.36842"><name>AWIL1</name><desc>Swim - Start
Images:1553
First:16.08.2025 06:09:11
Last:16.08.2025 12:18:17
Duration:06:09:06
</desc></wpt>
<wpt lat = "56.66263" lon = "16.36842"><name>BIL1</name><desc>Swim - Start
Images:1163
First:16.08.2025 06:22:00
Last:16.08.2025 07:20:42
Duration:00:58:42
</desc></wpt>
<wpt lat = "56.66642" lon = "16.36496"><name>FJO1</name><desc>Swim - Exit
Images:1774
First:16.08.2025 06:44:46
Last:16.08.2025 09:34:35
Duration:02:49:49
</desc></wpt>
<wpt lat = "56.66641" lon = "16.36489"><name>DHD1</name><desc>Swim - Exit
Images:1999
First:16.08.2025 06:45:03
Last:16.08.2025 16:19:11
Duration:09:34:08
</desc></wpt>
<wpt lat = "56.66641" lon = "16.36489"><name>GWE1</name><desc>Swim - Exit
Images:2491
First:16.08.2025 07:23:41
Last:16.08.2025 12:06:17
Duration:04:42:36
</desc></wpt>
<wpt lat = "56.66647" lon = "16.36614"><name>JH1</name><desc>Bike - Transition zone
Images:7339
First:16.08.2025 07:35:24
Last:16.08.2025 09:45:28
Duration:02:10:04
</desc></wpt>
<wpt lat = "56.66647" lon = "16.36614"><name>JH1LS2</name><desc>Bike - Transition zone
Images:4094
First:16.08.2025 07:22:56
Last:16.08.2025 09:17:37
Duration:01:54:41
</desc></wpt>
<wpt lat = "56.66647" lon = "16.36614"><name>JH1LS1</name><desc>Bike - Transition zone
Images:4318
First:16.08.2025 07:19:40
Last:16.08.2025 09:43:07
Duration:02:23:27
</desc></wpt>
<wpt lat = "56.66636" lon = "16.36559"><name>CAGO1</name><desc>Bike - Transition zone
Images:2932
First:16.08.2025 06:58:43
Last:16.08.2025 09:41:32
Duration:02:42:49
</desc></wpt>
<wpt lat = "56.66830" lon = "16.36796"><name>BIL2</name><desc>Bike - 0,5 km / 179,5km Spectator Hotspot
Images:4783
First:16.08.2025 08:32:03
Last:16.08.2025 17:28:31
Duration:08:56:28
</desc></wpt>
<wpt lat = "56.66830" lon = "16.36796"><name>BIL2LS1</name><desc>Bike - 0,5 km / 179,5km Spectator Hotspot
Images:3868
First:16.08.2025 08:20:46
Last:16.08.2025 17:30:50
Duration:09:10:04
</desc></wpt>
<wpt lat = "56.39059" lon = "16.41301"><name>VB1</name><desc>Bike - 47,0 km Village
Images:4455
First:16.08.2025 08:31:46
Last:16.08.2025 14:57:32
Duration:06:25:46
</desc></wpt>
<wpt lat = "56.37367" lon = "16.41016"><name>EVL1</name><desc>Bike - 50,5 km
Images:4307
First:16.08.2025 07:28:32
Last:16.08.2025 13:39:47
Duration:06:11:15
</desc></wpt>
<wpt lat = "56.37367" lon = "16.41016"><name>EVL1LS1</name><desc>Bike - 50,5 km
Images:1567
First:16.08.2025 07:38:42
Last:16.08.2025 11:42:57
Duration:04:04:15
</desc></wpt>
<wpt lat = "56.37367" lon = "16.41016"><name>EVL1DRONE1</name><desc>Bike - Impressions / Pano
Images:18
First:16.08.2025 06:46:28
Last:16.08.2025 15:19:37
Duration:08:33:09
</desc></wpt>
<wpt lat = "56.66407" lon = "16.35787"><name>JH2</name><desc>Run - 1,0 km / 28,0 km / 41,5 km
Images:12431
First:16.08.2025 12:00:31
Last:31.12.2099 22:59:59
Duration:27165.10:59:28
</desc></wpt>
<wpt lat = "56.66341" lon = "16.35972"><name>JH2LS2</name><desc>Run - 0,9 km / 27,9 km / 41,4 km
Images:8943
First:16.08.2025 11:55:25
Last:16.08.2025 19:33:19
Duration:07:37:54
</desc></wpt>
<wpt lat = "56.66341" lon = "16.35972"><name>JH2LS1</name><desc>Run - 0,9 km / 27,9 km / 41,4 km
Images:10013
First:16.08.2025 11:52:05
Last:16.08.2025 20:49:09
Duration:08:57:04
</desc></wpt>
<wpt lat = "56.66717" lon = "16.36835"><name>GWE2</name><desc>Run - 3,1 km / 16,4km / 30,1 km
Images:2694
First:16.08.2025 10:38:11
Last:16.08.2025 21:38:39
Duration:11:00:28
</desc></wpt>
<wpt lat = "56.66717" lon = "16.36835"><name>BIL3</name><desc>Run - 3,1 km / 16,4km / 30,1 km
Images:623
First:16.08.2025 19:00:50
Last:16.08.2025 19:47:45
Duration:00:46:55
</desc></wpt>
<wpt lat = "56.68627" lon = "16.35881"><name>AWIL2</name><desc>Run - 5,5 km / 19,0 km / 32,5 km
Images:4190
First:16.08.2025 12:20:52
Last:16.08.2025 20:41:01
Duration:08:20:09
</desc></wpt>
<wpt lat = "56.69457" lon = "16.36248"><name>EVL2</name><desc>Run - 7,0 km / 33,9 km
Images:4354
First:16.08.2025 13:37:28
Last:16.08.2025 16:03:03
Duration:02:25:35
</desc></wpt>
<wpt lat = "56.69457" lon = "16.36248"><name>EVL2LS1</name><desc>Run - 7,0 km / 33,9 km
Images:2479
First:16.08.2025 13:31:06
Last:16.08.2025 16:04:53
Duration:02:33:47
</desc></wpt>
<wpt lat = "56.66488" lon = "16.36586"><name>CAGO2</name><desc>Run - 13,8 km / 27,3 km / 40,9 km
Images:13172
First:16.08.2025 11:18:04
Last:16.08.2025 23:04:15
Duration:11:46:11
</desc></wpt>
<wpt lat = "56.66438" lon = "16.36608"><name>DHD2</name><desc>Finish
Images:2941
First:16.08.2025 16:19:11
Last:16.08.2025 23:25:24
Duration:07:06:13
</desc></wpt>
<wpt lat = "56.66438" lon = "16.36608"><name>FJO2</name><desc>Finish
Images:5593
First:16.08.2025 13:52:12
Last:16.08.2025 23:24:11
Duration:09:31:59
</desc></wpt>
<wpt lat = "56.66438" lon = "16.36608"><name>VB2</name><desc>Finish
Images:1929
First:16.08.2025 17:24:30
Last:16.08.2025 18:22:09
Duration:00:57:39
</desc></wpt>
<wpt lat = "56.66438" lon = "16.36608"><name>EVL3</name><desc>Finish
Images:252
First:16.08.2025 21:00:17
Last:16.08.2025 21:26:55
Duration:00:26:38
</desc></wpt>
<wpt lat = "56.66438" lon = "16.36608"><name>BIL4</name><desc>Finish
Images:576
First:16.08.2025 20:47:01
Last:16.08.2025 21:27:40
Duration:00:40:39
</desc></wpt>
</gpx>