<?xml version='1.0' encoding='utf-8'?>
<gpx version="1.1" creator="Infofile GPX Generator">
<wpt lat = "47.92678" lon = "7.02810"><name>MAWI1IMP1</name><desc>Start
Images:86
First:19.07.2025 06:16:13
Last:19.07.2025 09:47:24
Duration:03:31:11
</desc></wpt>
<wpt lat = "47.92678" lon = "7.02810"><name>MAWI1</name><desc>Start
Images:682
First:19.07.2025 06:59:28
Last:19.07.2025 10:11:17
Duration:03:11:49
</desc></wpt>
<wpt lat = "47.92079" lon = "7.03991"><name>MOG1LS2</name><desc>km1.0 (63K, 42K, 14K)
Images:833
First:19.07.2025 06:25:15
Last:19.07.2025 10:24:14
Duration:03:58:59
</desc></wpt>
<wpt lat = "47.92079" lon = "7.03991"><name>MOG1</name><desc>km1.0 (63K, 42K, 14K)
Images:1132
First:19.07.2025 07:06:48
Last:19.07.2025 10:20:32
Duration:03:13:44
</desc></wpt>
<wpt lat = "47.92079" lon = "7.03991"><name>MOG1LS1</name><desc>km1.0 (63K, 42K, 14K)
Images:823
First:19.07.2025 06:27:10
Last:19.07.2025 10:25:48
Duration:03:58:38
</desc></wpt>
<wpt lat = "47.91154" lon = "7.04711"><name>HS1</name><desc>km3.0 (63K, 42K)
Images:446
First:19.07.2025 06:57:01
Last:19.07.2025 08:29:17
Duration:01:32:16
</desc></wpt>
<wpt lat = "47.91154" lon = "7.04711"><name>HS1LS2</name><desc>km3.0 (63K, 42K)
Images:702
First:19.07.2025 06:56:42
Last:19.07.2025 10:17:28
Duration:03:20:46
</desc></wpt>
<wpt lat = "47.91154" lon = "7.04711"><name>HS1LS1</name><desc>km3.0 (63K, 42K)
Images:108
First:19.07.2025 06:57:47
Last:19.07.2025 07:44:24
Duration:00:46:37
</desc></wpt>
<wpt lat = "47.92474" lon = "7.03253"><name>TE1</name><desc>km21.5/ km13.5/ 1km before Finish (80K, 63K/ 42K/ 24K, 14K)
Images:7489
First:19.07.2025 06:07:46
Last:19.07.2025 13:34:41
Duration:07:26:55
</desc></wpt>
<wpt lat = "47.92474" lon = "7.03253"><name>TE1LS2</name><desc>km21.5/ km13.5/ 1km before Finish (80K, 63K/ 42K/ 24K, 14K)
Images:645
First:19.07.2025 06:33:44
Last:19.07.2025 13:54:16
Duration:07:20:32
</desc></wpt>
<wpt lat = "47.92474" lon = "7.03253"><name>TE1LS1</name><desc>km21.5/ km13.5/ 1km before Finish (80K, 63K/ 42K/ 24K, 14K)
Images:1272
First:19.07.2025 06:11:26
Last:19.07.2025 14:09:10
Duration:07:57:44
</desc></wpt>
<wpt lat = "47.94712" lon = "7.04551"><name>BP1</name><desc>km26.0/ km18.0/ km5.0 (80K, 63K/ 42K/ 24K)
Images:2601
First:19.07.2025 07:27:45
Last:19.07.2025 10:21:36
Duration:02:53:51
</desc></wpt>
<wpt lat = "47.94712" lon = "7.04551"><name>BP1DRONE1</name><desc>km26.0/ km18.0/ km5.0 (80K, 63K/ 42K/ 24K)
Images:16
First:19.07.2025 06:24:18
Last:19.07.2025 19:51:08
Duration:13:26:50
</desc></wpt>
<wpt lat = "47.94712" lon = "7.04551"><name>BP1LS2</name><desc>km26.0/ km18.0/ km5.0 (80K, 63K/ 42K/ 24K)
Images:840
First:19.07.2025 06:36:34
Last:19.07.2025 10:31:59
Duration:03:55:25
</desc></wpt>
<wpt lat = "47.94712" lon = "7.04551"><name>BP1LS1</name><desc>km26.0/ km18.0/ km5.0 (80K, 63K/ 42K/ 24K)
Images:1100
First:19.07.2025 07:03:02
Last:19.07.2025 10:24:31
Duration:03:21:29
</desc></wpt>
<wpt lat = "47.96490" lon = "6.98840"><name>HS2</name><desc>km62.5/ km44.5/ km23.5/ km10.5 (80K/ 63K/ 42K/ 24K)
Images:1753
First:19.07.2025 09:35:34
Last:19.07.2025 17:16:11
Duration:07:40:37
</desc></wpt>
<wpt lat = "47.96490" lon = "6.98840"><name>HS2LS2</name><desc>km62.5/ km44.5/ km23.5/ km10.5 (80K/ 63K/ 42K/ 24K)
Images:498
First:19.07.2025 10:17:55
Last:19.07.2025 12:20:57
Duration:02:03:02
</desc></wpt>
<wpt lat = "47.96490" lon = "6.98840"><name>HS2LS1</name><desc>km62.5/ km44.5/ km23.5/ km10.5 (80K/ 63K/ 42K/ 24K)
Images:832
First:19.07.2025 09:11:10
Last:19.07.2025 12:23:50
Duration:03:12:40
</desc></wpt>
<wpt lat = "47.92545" lon = "6.99999"><name>MOG2</name><desc>4km before Finish (80K, 63K, 42K, 24K)
Images:1487
First:19.07.2025 11:00:15
Last:19.07.2025 20:33:14
Duration:09:32:59
</desc></wpt>
<wpt lat = "47.92545" lon = "6.99999"><name>MOG2LS2</name><desc>4km before Finish (80K, 63K, 42K, 24K)
Images:1207
First:19.07.2025 10:49:51
Last:19.07.2025 20:36:27
Duration:09:46:36
</desc></wpt>
<wpt lat = "47.92545" lon = "6.99999"><name>MOG2LS1</name><desc>4km before Finish (80K, 63K, 42K, 24K)
Images:1232
First:19.07.2025 10:50:11
Last:19.07.2025 20:09:35
Duration:09:19:24
</desc></wpt>
<wpt lat = "47.92345" lon = "7.02767"><name>TE2</name><desc>1.5km before Finish (80K, 63K, 42K)
Images:1794
First:19.07.2025 14:14:26
Last:19.07.2025 20:47:50
Duration:06:33:24
</desc></wpt>
<wpt lat = "47.92345" lon = "7.02767"><name>TE2LS2</name><desc>1.5km before Finish (80K, 63K, 42K)
Images:1999
First:19.07.2025 14:01:27
Last:19.07.2025 19:35:35
Duration:05:34:08
</desc></wpt>
<wpt lat = "47.92345" lon = "7.02767"><name>TE2LS1</name><desc>1.5km before Finish (80K, 63K, 42K)
Images:1831
First:19.07.2025 14:09:30
Last:19.07.2025 20:24:21
Duration:06:14:51
</desc></wpt>
<wpt lat = "47.92805" lon = "7.02662"><name>BP2</name><desc>0.2km before Finish
Images:1777
First:19.07.2025 11:25:06
Last:19.07.2025 20:08:25
Duration:08:43:19
</desc></wpt>
<wpt lat = "47.92805" lon = "7.02662"><name>BP2LS1</name><desc>0.2km before Finish
Images:1676
First:19.07.2025 11:10:25
Last:19.07.2025 20:43:16
Duration:09:32:51
</desc></wpt>
<wpt lat = "47.92749" lon = "7.02878"><name>BP2LS2</name><desc>Stairs to Finsih
Images:1918
First:19.07.2025 10:53:56
Last:19.07.2025 21:08:05
Duration:10:14:09
</desc></wpt>
<wpt lat = "47.92749" lon = "7.02878"><name>MAWI2</name><desc>Finish
Images:2942
First:19.07.2025 10:54:01
Last:19.07.2025 21:23:17
Duration:10:29:16
</desc></wpt>
<wpt lat = "47.92749" lon = "7.02878"><name>MAWI2LS1</name><desc>Finish
Images:1281
First:19.07.2025 06:14:22
Last:19.07.2025 20:36:59
Duration:14:22:37
</desc></wpt>
<wpt lat = "47.92749" lon = "7.02878"><name>MAWI2LS2</name><desc>Finish
Images:1310
First:19.07.2025 10:31:43
Last:19.07.2025 21:03:55
Duration:10:32:12
</desc></wpt>
</gpx>