<?xml version='1.0' encoding='utf-8'?>
<gpx version="1.1" creator="Infofile GPX Generator">
<wpt lat = "51.51356" lon = "-0.08883"><name>AH1</name><desc>4,7 km
Images:11823
First:27.09.2025 17:54:41
Last:28.09.2025 12:03:22
Duration:18:08:41
</desc></wpt>
<wpt lat = "51.51356" lon = "-0.08883"><name>STEM1</name><desc>4,7 km
Images:31518
First:28.09.2025 09:37:27
Last:28.09.2025 12:03:10
Duration:02:25:43
</desc></wpt>
<wpt lat = "51.50223" lon = "-0.14463"><name>BKO1</name><desc>Herotent Medals
Images:6192
First:28.09.2025 10:05:19
Last:28.09.2025 13:14:21
Duration:03:09:02
</desc></wpt>
<wpt lat = "51.50223" lon = "-0.14463"><name>GU1</name><desc>Herotent Medals
Images:3314
First:28.09.2025 08:48:34
Last:28.09.2025 13:07:40
Duration:04:19:06
</desc></wpt>
<wpt lat = "51.50223" lon = "-0.14463"><name>NLA1</name><desc>Herotent Medals
Images:7271
First:28.09.2025 08:42:46
Last:28.09.2025 13:04:23
Duration:04:21:37
</desc></wpt>
<wpt lat = "51.50223" lon = "-0.14463"><name>SHAK1</name><desc>Herotent Medals
Images:2649
First:28.09.2025 08:34:01
Last:28.09.2025 13:05:16
Duration:04:31:15
</desc></wpt>
<wpt lat = "51.50223" lon = "-0.14463"><name>SHP2</name><desc>Herotent Medals
Images:4059
First:28.09.2025 10:06:10
Last:28.09.2025 13:15:35
Duration:03:09:25
</desc></wpt>
<wpt lat = "51.51348" lon = "-0.11493"><name>CH1</name><desc>7,0 km
Images:16185
First:28.09.2025 08:37:55
Last:28.09.2025 12:32:31
Duration:03:54:36
</desc></wpt>
<wpt lat = "51.51348" lon = "-0.11493"><name>CH1LS1</name><desc>7,0 km
Images:8795
First:28.09.2025 09:40:10
Last:28.09.2025 12:15:48
Duration:02:35:38
</desc></wpt>
<wpt lat = "51.51348" lon = "-0.11493"><name>JUW1</name><desc>7,0 km
Images:19873
First:28.09.2025 08:41:06
Last:28.09.2025 12:15:27
Duration:03:34:21
</desc></wpt>
<wpt lat = "51.51348" lon = "-0.11493"><name>JUW1LS1</name><desc>7,0 km
Images:3972
First:28.09.2025 08:39:19
Last:28.09.2025 12:02:48
Duration:03:23:29
</desc></wpt>
<wpt lat = "51.50723" lon = "-0.12775"><name>CMS1</name><desc>8,2 km
Images:35420
First:28.09.2025 09:31:01
Last:28.09.2025 12:35:40
Duration:03:04:39
</desc></wpt>
<wpt lat = "51.50723" lon = "-0.12775"><name>CMS1LS1</name><desc>8,2 km
Images:3096
First:28.09.2025 09:54:16
Last:28.09.2025 12:17:21
Duration:02:23:05
</desc></wpt>
<wpt lat = "51.50723" lon = "-0.12775"><name>CNS1</name><desc>8,2 km
Images:17899
First:27.09.2025 22:00:12
Last:28.09.2025 12:26:37
Duration:14:26:25
</desc></wpt>
<wpt lat = "51.50115" lon = "-0.12718"><name>DP1</name><desc>9,1 km
Images:22921
First:28.09.2025 09:48:17
Last:28.09.2025 12:10:59
Duration:02:22:42
</desc></wpt>
<wpt lat = "51.50115" lon = "-0.12718"><name>CUP1</name><desc>9,1 km
Images:22431
First:28.09.2025 09:00:41
Last:28.09.2025 12:59:34
Duration:03:58:53
</desc></wpt>
<wpt lat = "51.50115" lon = "-0.12718"><name>DP1LS1</name><desc>9,1 km
Images:8649
First:28.09.2025 09:29:32
Last:28.09.2025 16:44:46
Duration:07:15:14
</desc></wpt>
<wpt lat = "51.50115" lon = "-0.12718"><name>KYY1</name><desc>9,1 km
Images:15387
First:28.09.2025 09:22:14
Last:28.09.2025 12:59:44
Duration:03:37:30
</desc></wpt>
<wpt lat = "51.50115" lon = "-0.12718"><name>RLW1</name><desc>9,1 km
Images:24709
First:28.09.2025 09:26:53
Last:28.09.2025 12:59:25
Duration:03:32:32
</desc></wpt>
<wpt lat = "51.50088" lon = "-0.13952"><name>DANO1</name><desc>Finish
Images:23776
First:28.09.2025 08:32:42
Last:28.09.2025 13:10:59
Duration:04:38:17
</desc></wpt>
<wpt lat = "51.50088" lon = "-0.13952"><name>DATI1</name><desc>Finish
Images:19781
First:28.09.2025 09:17:35
Last:28.09.2025 13:11:25
Duration:03:53:50
</desc></wpt>
<wpt lat = "51.50088" lon = "-0.13952"><name>DATI1LS1</name><desc>Finish
Images:5854
First:28.09.2025 09:46:22
Last:28.09.2025 12:30:27
Duration:02:44:05
</desc></wpt>
<wpt lat = "51.50088" lon = "-0.13952"><name>KMIN1</name><desc>Finish
Images:18642
First:27.09.2025 21:43:52
Last:28.09.2025 13:10:57
Duration:15:27:05
</desc></wpt>
<wpt lat = "51.50088" lon = "-0.13952"><name>LOT1</name><desc>Finish
Images:8242
First:28.09.2025 09:50:31
Last:28.09.2025 13:11:27
Duration:03:20:56
</desc></wpt>
<wpt lat = "51.50088" lon = "-0.13952"><name>LOT1LS1</name><desc>Finish
Images:6205
First:28.09.2025 09:50:30
Last:28.09.2025 12:49:25
Duration:02:58:55
</desc></wpt>
<wpt lat = "51.50088" lon = "-0.13952"><name>TOMY1</name><desc>Finish
Images:24031
First:28.09.2025 09:46:25
Last:28.09.2025 13:11:41
Duration:03:25:16
</desc></wpt>
<wpt lat = "51.50506" lon = "-0.13280"><name>SHP1</name><desc>Start
Images:1339
First:28.09.2025 09:04:43
Last:28.09.2025 10:04:06
Duration:00:59:23
</desc></wpt>
<wpt lat = "51.50236" lon = "-0.12609"><name>THB1</name><desc>8,8 km
Images:6190
First:28.09.2025 08:48:44
Last:28.09.2025 12:56:44
Duration:04:08:00
</desc></wpt>
<wpt lat = "51.50236" lon = "-0.12609"><name>WIN1</name><desc>8,8 km
Images:12142
First:28.09.2025 09:05:32
Last:28.09.2025 12:56:47
Duration:03:51:15
</desc></wpt>
<wpt lat = "51.50236" lon = "-0.12609"><name>WIN1LS1</name><desc>8,8 km
Images:4959
First:28.09.2025 09:14:31
Last:28.09.2025 12:43:14
Duration:03:28:43
</desc></wpt>
</gpx>