<?xml version='1.0' encoding='utf-8'?>
<gpx version="1.1" creator="Infofile GPX Generator">
<wpt lat = "50.57428" lon = "12.61005"><name>MIH2</name><desc>Start
Images:56
First:25.05.2025 09:19:09
Last:25.05.2025 09:39:46
Duration:00:20:37
</desc></wpt>
<wpt lat = "50.57428" lon = "12.61005"><name>MAE2</name><desc>Start
Images:90
First:25.05.2025 09:03:23
Last:25.05.2025 09:39:33
Duration:00:36:10
</desc></wpt>
<wpt lat = "50.57357" lon = "12.60888"><name>TIM1</name><desc>Hindernis 2 (AOK Plus Beetle Challenge)
Images:3200
First:25.05.2025 08:26:28
Last:25.05.2025 13:36:03
Duration:05:09:35
</desc></wpt>
<wpt lat = "50.57242" lon = "12.61052"><name>TIM1LS1</name><desc>Laufstrecke
Images:513
First:25.05.2025 08:36:50
Last:25.05.2025 11:15:01
Duration:02:38:11
</desc></wpt>
<wpt lat = "50.57242" lon = "12.61052"><name>TIM1LS2</name><desc>Laufstrecke
Images:959
First:25.05.2025 08:47:00
Last:25.05.2025 12:41:46
Duration:03:54:46
</desc></wpt>
<wpt lat = "50.57495" lon = "12.61064"><name>MAE1LS1</name><desc>Laufstrecke
Images:866
First:25.05.2025 09:21:22
Last:25.05.2025 12:58:48
Duration:03:37:26
</desc></wpt>
<wpt lat = "50.57373" lon = "12.61161"><name>DG1</name><desc>Hindernis 6 (MUC Containerschlacht)
Images:4483
First:25.05.2025 09:20:52
Last:25.05.2025 13:55:14
Duration:04:34:22
</desc></wpt>
<wpt lat = "50.57665" lon = "12.61625"><name>DASC1</name><desc>Hindernis 10 (STRÜDER Höllenrausch)
Images:11706
First:25.05.2025 08:36:21
Last:25.05.2025 14:01:58
Duration:05:25:37
</desc></wpt>
<wpt lat = "50.57542" lon = "12.61308"><name>MASCH1</name><desc>Hindernis 12 (Bergsicherung Sachsen Schlammgrube)
Images:7828
First:25.05.2025 08:53:28
Last:25.05.2025 14:12:15
Duration:05:18:47
</desc></wpt>
<wpt lat = "50.57579" lon = "12.61198"><name>LEKL1</name><desc>Hindernis 13 (Reifensandwich)
Images:2856
First:25.05.2025 08:51:09
Last:25.05.2025 14:12:12
Duration:05:21:03
</desc></wpt>
<wpt lat = "50.57477" lon = "12.60698"><name>LW1</name><desc>Hindernis 28 (Hangover)
Images:7637
First:25.05.2025 08:30:40
Last:25.05.2025 15:29:33
Duration:06:58:53
</desc></wpt>
<wpt lat = "50.57476" lon = "12.61024"><name>MAE1</name><desc>Hindernis 31 (Schlammschlacht)
Images:3590
First:25.05.2025 09:03:23
Last:25.05.2025 15:32:49
Duration:06:29:26
</desc></wpt>
<wpt lat = "50.57448" lon = "12.60983"><name>MAE1LS2</name><desc>Zieleinlauf
Images:668
First:25.05.2025 09:41:21
Last:25.05.2025 15:33:55
Duration:05:52:34
</desc></wpt>
<wpt lat = "50.57428" lon = "12.61005"><name>MIH1LS1</name><desc>Ziel
Images:3115
First:25.05.2025 09:35:21
Last:25.05.2025 15:37:26
Duration:06:02:05
</desc></wpt>
<wpt lat = "50.57428" lon = "12.61005"><name>MIH1</name><desc>Herotent
Images:1441
First:25.05.2025 09:10:50
Last:25.05.2025 15:35:16
Duration:06:24:26
</desc></wpt>
<wpt lat = "50.57428" lon = "12.61005"><name>TIM1DRONE1</name><desc>Impressions / Pano
Images:8
First:25.05.2025 09:14:07
Last:25.05.2025 09:17:39
Duration:00:03:32
</desc></wpt>
</gpx>