<?xml version='1.0' encoding='utf-8'?>
<gpx version="1.1" creator="Infofile GPX Generator">
<wpt lat = "63.43533" lon = "10.40863"><name>NJO2</name><desc>Flower bridge
Images:11384
First:06.09.2025 09:03:26
Last:06.09.2025 14:32:07
Duration:05:28:41
</desc></wpt>
<wpt lat = "63.43533" lon = "10.40863"><name>NJO2LS1</name><desc>Flower bridge
Images:9834
First:06.09.2025 08:49:08
Last:06.09.2025 14:38:32
Duration:05:49:24
</desc></wpt>
<wpt lat = "63.43533" lon = "10.40863"><name>BEG1</name><desc>Flower bridge
Images:7284
First:06.09.2025 09:03:01
Last:06.09.2025 14:27:12
Duration:05:24:11
</desc></wpt>
<wpt lat = "63.43041" lon = "10.39875"><name>EGA1</name><desc>Start
Images:405
First:06.09.2025 08:24:59
Last:06.09.2025 09:10:48
Duration:00:45:49
</desc></wpt>
<wpt lat = "63.43041" lon = "10.39875"><name>WKA1</name><desc>Start
Images:4016
First:06.09.2025 08:47:40
Last:06.09.2025 11:38:27
Duration:02:50:47
</desc></wpt>
<wpt lat = "63.42872" lon = "10.39623"><name>EGA2</name><desc>Last 100m
Images:25437
First:06.09.2025 09:38:05
Last:06.09.2025 16:20:12
Duration:06:42:07
</desc></wpt>
<wpt lat = "63.43041" lon = "10.39875"><name>BEG1DRONE1</name><desc>Impressions / Pano
Images:56
First:06.09.2025 08:48:08
Last:06.09.2025 14:23:36
Duration:05:35:28
</desc></wpt>
<wpt lat = "63.44197" lon = "10.41532"><name>MGR1</name><desc>Harbour
Images:20698
First:06.09.2025 08:46:18
Last:06.09.2025 14:48:38
Duration:06:02:20
</desc></wpt>
<wpt lat = "63.43158" lon = "10.37825"><name>AWIL1</name><desc>Harbour
Images:11267
First:06.09.2025 08:12:18
Last:06.09.2025 15:20:58
Duration:07:08:40
</desc></wpt>
<wpt lat = "63.43647" lon = "10.3941"><name>JEMS1</name><desc>Promenade
Images:10383
First:06.09.2025 09:17:04
Last:06.09.2025 15:01:48
Duration:05:44:44
</desc></wpt>
<wpt lat = "63.42324" lon = "10.39626"><name>EKA1</name><desc>Trondheim by the river
Images:10042
First:06.09.2025 08:53:06
Last:06.09.2025 16:03:30
Duration:07:10:24
</desc></wpt>
<wpt lat = "63.42383" lon = "10.39983"><name>AWEE1</name><desc>Trondheim city view
Images:14857
First:06.09.2025 08:46:36
Last:06.09.2025 15:58:12
Duration:07:11:36
</desc></wpt>
<wpt lat = "63.42828" lon = "10.40091"><name>IMOG1</name><desc>Old city bridge
Images:10638
First:06.09.2025 08:45:04
Last:06.09.2025 16:15:35
Duration:07:30:31
</desc></wpt>
<wpt lat = "63.43017" lon = "10.39523"><name>WKA2</name><desc>Finish
Images:11887
First:06.09.2025 11:42:42
Last:06.09.2025 16:22:04
Duration:04:39:22
</desc></wpt>
</gpx>