<?xml version='1.0' encoding='utf-8'?>
<gpx version="1.1" creator="Infofile GPX Generator">
<wpt lat = "-22.62114" lon = "17.09254"><name>CRF1</name><desc>Start and Imporessions
Images:34
First:05.12.2025 11:18:01
Last:05.12.2025 12:10:32
Duration:00:52:31
</desc></wpt>
<wpt lat = "-22.62114" lon = "17.09254"><name>NJO1</name><desc>Start and Impressions
Images:77
First:05.12.2025 11:42:50
Last:05.12.2025 12:17:54
Duration:00:35:04
</desc></wpt>
<wpt lat = "-22.71087" lon = "16.96449"><name>TAZ1</name><desc>22.0 km Supporter Fun
Images:1845
First:05.12.2025 13:45:12
Last:05.12.2025 15:59:41
Duration:02:14:29
</desc></wpt>
<wpt lat = "-22.71087" lon = "16.96449"><name>JHI1</name><desc>22.9 km Supporter Fun
Images:1028
First:05.12.2025 12:37:42
Last:05.12.2025 17:14:17
Duration:04:36:35
</desc></wpt>
<wpt lat = "-22.71087" lon = "16.96449"><name>JHI1LS1</name><desc>22.9 km Through the Supporters LS
Images:580
First:05.12.2025 12:11:05
Last:05.12.2025 16:00:50
Duration:03:49:45
</desc></wpt>
<wpt lat = "-23.02533" lon = "16.34299"><name>TAZ2</name><desc>On The Road Various
Images:333
First:05.12.2025 17:11:02
Last:05.12.2025 19:33:35
Duration:02:22:33
</desc></wpt>
<wpt lat = "-22.97060" lon = "16.45342"><name>NJO3</name><desc>36.3 km On The Road before Water Point 1
Images:111
First:05.12.2025 12:50:32
Last:05.12.2025 14:51:14
Duration:02:00:42
</desc></wpt>
<wpt lat = "-22.79419" lon = "16.88449"><name>NJO2</name><desc>88.8 km US Pass
Images:973
First:05.12.2025 15:08:35
Last:05.12.2025 19:06:51
Duration:03:58:16
</desc></wpt>
<wpt lat = "-22.97060" lon = "16.45342"><name>NJO2LS1</name><desc>88.8 km Us Pass LS
Images:902
First:05.12.2025 08:21:55
Last:05.12.2025 20:05:07
Duration:11:43:12
</desc></wpt>
<wpt lat = "-22.97360" lon = "16.44453"><name>CRF2</name><desc>89.9 km Us Pass
Images:608
First:05.12.2025 16:47:36
Last:05.12.2025 20:07:54
Duration:03:20:18
</desc></wpt>
<wpt lat = "-22.97060" lon = "16.45342"><name>CRF2DRONE1</name><desc>Drone Varios Distances
Images:28
First:05.12.2025 13:11:40
Last:06.12.2025 13:11:50
Duration:1.00:00:10
</desc></wpt>
<wpt lat = "-22.97060" lon = "16.45342"><name>NJO5</name><desc>Oasis Night Fun
Images:85
First:05.12.2025 19:06:53
Last:05.12.2025 23:24:05
Duration:04:17:12
</desc></wpt>
<wpt lat = "-23.02533" lon = "16.34299"><name>JHI2</name><desc>0.0 km Night Riders Various
Images:200
First:01.01.0001 23:00:00
Last:06.12.2025 01:34:29
Duration:739589.02:34:29
</desc></wpt>
<wpt lat = "-23.02533" lon = "16.34299"><name>JHI3</name><desc>On The Road and Waterpoint
Images:200
First:01.01.0001 23:00:00
Last:06.12.2025 01:34:29
Duration:739589.02:34:29
</desc></wpt>
<wpt lat = "-22.62926" lon = "14.80840"><name>JHI4</name><desc>357.0 km Moon Landscape
Images:820
First:01.01.0001 23:00:00
Last:06.12.2025 11:19:02
Duration:739589.12:19:02
</desc></wpt>
<wpt lat = "-22.62826" lon = "14.80723"><name>TAZ3</name><desc>357.0 km Sand and Rock Moonscape
Images:3990
First:06.12.2025 04:58:30
Last:06.12.2025 11:04:06
Duration:06:05:36
</desc></wpt>
<wpt lat = "-22.64672" lon = "14.52652"><name>CRF3</name><desc>400.8 km Wooden Bridge Finish Approach
Images:3235
First:06.12.2025 05:06:05
Last:06.12.2025 14:20:51
Duration:09:14:46
</desc></wpt>
<wpt lat = "-22.64562" lon = "14.52621"><name>NJO4</name><desc>Finish
Images:2283
First:06.12.2025 04:51:45
Last:06.12.2025 14:21:22
Duration:09:29:37
</desc></wpt>
<wpt lat = "-22.64562" lon = "14.52621"><name>NJO4LS1</name><desc>Finish
Images:672
First:06.12.2025 02:00:01
Last:06.12.2025 13:54:09
Duration:11:54:08
</desc></wpt>
</gpx>