<?xml version='1.0' encoding='utf-8'?>
<gpx version="1.1" creator="Infofile GPX Generator">
<wpt lat = "51.02140" lon = "13.79943"><name>CHSA1</name><desc>Hindernis 4 (Pyramide)
Images:5276
First:24.08.2025 09:47:39
Last:24.08.2025 16:33:50
Duration:06:46:11
</desc></wpt>
<wpt lat = "51.02271" lon = "13.79965"><name>ROH1</name><desc>Hindernis 5 (Schaumparty)
Images:20737
First:24.08.2025 09:25:20
Last:24.08.2025 16:36:17
Duration:07:10:57
</desc></wpt>
<wpt lat = "51.02271" lon = "13.79965"><name>ROH1LS2</name><desc>Hindernis 5 (Schaumparty)
Images:3577
First:24.08.2025 09:15:55
Last:24.08.2025 16:39:05
Duration:07:23:10
</desc></wpt>
<wpt lat = "51.02271" lon = "13.79965"><name>ROH1LS1</name><desc>Hindernis 5 (Schaumparty)
Images:4590
First:24.08.2025 09:15:34
Last:24.08.2025 16:38:52
Duration:07:23:18
</desc></wpt>
<wpt lat = "51.01975" lon = "13.79517"><name>MDO1LS1</name><desc>Laufstrecke
Images:3843
First:24.08.2025 09:09:42
Last:24.08.2025 16:58:23
Duration:07:48:41
</desc></wpt>
<wpt lat = "51.01966" lon = "13.79595"><name>STEL1LS1</name><desc>Laufstrecke
Images:1397
First:24.08.2025 09:07:37
Last:24.08.2025 13:31:12
Duration:04:23:35
</desc></wpt>
<wpt lat = "51.01780" lon = "13.80022"><name>SLE1LS1</name><desc>Laufstrecke
Images:10039
First:24.08.2025 09:57:59
Last:24.08.2025 17:15:23
Duration:07:17:24
</desc></wpt>
<wpt lat = "51.01780" lon = "13.79765"><name>REM1LS1</name><desc>Laufstrecke
Images:7036
First:24.08.2025 09:44:04
Last:24.08.2025 15:57:07
Duration:06:13:03
</desc></wpt>
<wpt lat = "51.01975" lon = "13.79517"><name>STEL1</name><desc>Hindernis 10 (Gitterbecken)
Images:5502
First:24.08.2025 09:20:58
Last:24.08.2025 17:00:07
Duration:07:39:09
</desc></wpt>
<wpt lat = "51.01975" lon = "13.79517"><name>MDO1</name><desc>Hindernis 10 (Gitterbecken)
Images:11151
First:24.08.2025 09:36:24
Last:24.08.2025 16:59:33
Duration:07:23:09
</desc></wpt>
<wpt lat = "51.01780" lon = "13.80022"><name>REM1</name><desc>Hindernis 11 (Krabbelstrecke)
Images:5164
First:24.08.2025 10:15:42
Last:24.08.2025 17:08:57
Duration:06:53:15
</desc></wpt>
<wpt lat = "51.01780" lon = "13.80022"><name>SLE1</name><desc>Hindernis 11 (Krabbelstrecke)
Images:8485
First:24.08.2025 10:15:39
Last:24.08.2025 17:08:35
Duration:06:52:56
</desc></wpt>
<wpt lat = "51.01799" lon = "13.80567"><name>JMU1</name><desc>Hindernis 13 (Ninja Jump)
Images:6934
First:24.08.2025 10:18:04
Last:24.08.2025 17:16:59
Duration:06:58:55
</desc></wpt>
<wpt lat = "51.02230" lon = "13.79659"><name>KMI1</name><desc>Hindernis 17 (Kletterwand)
Images:14910
First:24.08.2025 09:47:46
Last:24.08.2025 17:35:54
Duration:07:48:08
</desc></wpt>
<wpt lat = "51.02230" lon = "13.79659"><name>KZY1</name><desc>Hindernis 17 (Kletterwand)
Images:10933
First:24.08.2025 09:47:44
Last:24.08.2025 17:35:59
Duration:07:48:15
</desc></wpt>
<wpt lat = "51.02038" lon = "13.79726"><name>STH1</name><desc>Hindernis 18 (Piratenplanke)
Images:7385
First:24.08.2025 09:59:54
Last:24.08.2025 17:40:58
Duration:07:41:04
</desc></wpt>
<wpt lat = "51.02026" lon = "13.79580"><name>MAWA1</name><desc>Hindernis 18 (Containerrutsche)
Images:9781
First:24.08.2025 10:01:45
Last:24.08.2025 17:45:14
Duration:07:43:29
</desc></wpt>
<wpt lat = "51.02067" lon = "13.79535"><name>DG1LS1</name><desc>Ziel
Images:4553
First:24.08.2025 09:21:40
Last:24.08.2025 17:46:16
Duration:08:24:36
</desc></wpt>
<wpt lat = "51.02067" lon = "13.79535"><name>HV1LS1</name><desc>Ziel
Images:3563
First:24.08.2025 08:39:32
Last:24.08.2025 17:46:16
Duration:09:06:44
</desc></wpt>
<wpt lat = "51.02067" lon = "13.79535"><name>MIKO1</name><desc>Ziel
Images:5544
First:24.08.2025 09:52:38
Last:24.08.2025 17:46:16
Duration:07:53:38
</desc></wpt>
<wpt lat = "51.02067" lon = "13.79535"><name>DG1</name><desc>Herotent
Images:5247
First:24.08.2025 10:06:31
Last:24.08.2025 17:45:10
Duration:07:38:39
</desc></wpt>
<wpt lat = "51.02067" lon = "13.79535"><name>HV1</name><desc>Herotent
Images:3115
First:24.08.2025 09:03:04
Last:24.08.2025 17:47:20
Duration:08:44:16
</desc></wpt>
<wpt lat = "51.02067" lon = "13.79535"><name>TIM1</name><desc>Impressionen
Images:351
First:24.08.2025 10:18:22
Last:24.08.2025 15:41:53
Duration:05:23:31
</desc></wpt>
<wpt lat = "51.02067" lon = "13.79535"><name>TIM1DRONE1</name><desc>Impressions / Pano
Images:10
First:24.08.2025 15:26:49
Last:24.08.2025 15:33:49
Duration:00:07:00
</desc></wpt>
</gpx>