<?xml version='1.0' encoding='utf-8'?>
<gpx version="1.1" creator="Infofile GPX Generator">
<wpt lat = "51.28928" lon = "12.42616"><name>ALES1</name><desc>Start
Images:731
First:25.05.2025 08:47:27
Last:25.05.2025 09:52:23
Duration:01:04:56
</desc></wpt>
<wpt lat = "51.28928" lon = "12.42616"><name>ALES1LS1</name><desc>Start
Images:489
First:25.05.2025 08:02:44
Last:25.05.2025 09:55:26
Duration:01:52:42
</desc></wpt>
<wpt lat = "51.28928" lon = "12.42616"><name>VLE1</name><desc>Start
Images:787
First:25.05.2025 09:10:56
Last:25.05.2025 09:52:23
Duration:00:41:27
</desc></wpt>
<wpt lat = "51.27865" lon = "12.42906"><name>TV1</name><desc>Aplelstein
Images:1045
First:25.05.2025 09:22:14
Last:25.05.2025 12:13:04
Duration:02:50:50
</desc></wpt>
<wpt lat = "51.27302" lon = "12.43055"><name>JOWE1</name><desc>Wachtbergdenkmal
Images:1310
First:25.05.2025 09:22:52
Last:25.05.2025 10:36:16
Duration:01:13:24
</desc></wpt>
<wpt lat = "51.27302" lon = "12.43055"><name>JOWE1LS1</name><desc>Wachtbergdenkmal
Images:756
First:25.05.2025 09:21:35
Last:25.05.2025 09:28:13
Duration:00:06:38
</desc></wpt>
<wpt lat = "51.27302" lon = "12.43055"><name>JOWE2</name><desc>Wachtbergdenkmal
Images:4000
First:25.05.2025 10:41:15
Last:25.05.2025 13:50:56
Duration:03:09:41
</desc></wpt>
<wpt lat = "51.27302" lon = "12.43055"><name>JOWE2LS1</name><desc>Wachtbergdenkmal
Images:7588
First:25.05.2025 10:42:50
Last:25.05.2025 13:01:43
Duration:02:18:53
</desc></wpt>
<wpt lat = "51.24797" lon = "12.42449"><name>ANPE1</name><desc>Störmthaler Kanal
Images:1786
First:25.05.2025 09:26:15
Last:25.05.2025 11:30:17
Duration:02:04:02
</desc></wpt>
<wpt lat = "51.22321" lon = "12.42676"><name>JUT1</name><desc>Störmthaler See
Images:1849
First:25.05.2025 08:36:41
Last:25.05.2025 10:38:51
Duration:02:02:10
</desc></wpt>
<wpt lat = "51.22321" lon = "12.42676"><name>JUT1LS1</name><desc>Störmthaler See
Images:1035
First:25.05.2025 09:00:49
Last:25.05.2025 10:22:37
Duration:01:21:48
</desc></wpt>
<wpt lat = "51.24490" lon = "12.46724"><name>THS1LS2</name><desc>Störmthaler See Serpentine
Images:3228
First:25.05.2025 08:26:57
Last:25.05.2025 13:33:27
Duration:05:06:30
</desc></wpt>
<wpt lat = "51.24490" lon = "12.46724"><name>THS1LS1</name><desc>Störmthaler See Serpentine
Images:317
First:25.05.2025 08:57:07
Last:25.05.2025 11:06:28
Duration:02:09:21
</desc></wpt>
<wpt lat = "51.24490" lon = "12.46724"><name>THS1</name><desc>Störmthaler See Serpentine
Images:3281
First:25.05.2025 10:26:17
Last:25.05.2025 13:47:26
Duration:03:21:09
</desc></wpt>
<wpt lat = "51.24490" lon = "12.46724"><name>THS1DRONE1</name><desc>Impressions / Pano
Images:4
First:25.05.2025 11:07:54
Last:25.05.2025 11:09:37
Duration:00:01:43
</desc></wpt>
<wpt lat = "51.25426" lon = "12.43669"><name>KWEI1</name><desc>7- Seen Wanderweg
Images:2470
First:25.05.2025 08:26:20
Last:25.05.2025 13:37:56
Duration:05:11:36
</desc></wpt>
<wpt lat = "51.27745" lon = "12.42939"><name>TV2</name><desc>Apelstein
Images:2399
First:25.05.2025 10:36:58
Last:25.05.2025 13:45:37
Duration:03:08:39
</desc></wpt>
<wpt lat = "51.31884" lon = "12.39926"><name>ALES2</name><desc>Finish
Images:4692
First:25.05.2025 10:50:45
Last:25.05.2025 14:23:46
Duration:03:33:01
</desc></wpt>
<wpt lat = "51.31884" lon = "12.39926"><name>ALES2LS1</name><desc>Finish
Images:1242
First:25.05.2025 10:33:17
Last:25.05.2025 13:43:18
Duration:03:10:01
</desc></wpt>
<wpt lat = "51.31884" lon = "12.39926"><name>VLE2</name><desc>Finish
Images:3071
First:25.05.2025 10:36:02
Last:25.05.2025 13:43:19
Duration:03:07:17
</desc></wpt>
<wpt lat = "51.31884" lon = "12.39926"><name>VLE2LS1</name><desc>Finish
Images:5373
First:25.05.2025 11:29:27
Last:25.05.2025 13:28:48
Duration:01:59:21
</desc></wpt>
<wpt lat = "51.31884" lon = "12.39926"><name>JUT2</name><desc>Medaillen
Images:886
First:25.05.2025 12:13:46
Last:25.05.2025 14:26:04
Duration:02:12:18
</desc></wpt>
<wpt lat = "51.31884" lon = "12.39926"><name>ANPE2</name><desc>Medaillen
Images:245
First:25.05.2025 11:34:16
Last:25.05.2025 13:40:07
Duration:02:05:51
</desc></wpt>
</gpx>