<?xml version='1.0' encoding='utf-8'?>
<gpx version="1.1" creator="Infofile GPX Generator">
<wpt lat = "-34.17740" lon = "22.13674"><name>CRF1</name><desc>Swim - Start
Images:2736
First:16.11.2025 05:13:34
Last:16.11.2025 06:30:32
Duration:01:16:58
</desc></wpt>
<wpt lat = "-34.17740" lon = "22.13674"><name>CRF1DRONE1</name><desc>Swim - Start
Images:5
First:16.11.2025 05:05:29
Last:16.11.2025 05:07:24
Duration:00:01:55
</desc></wpt>
<wpt lat = "-34.17740" lon = "22.13674"><name>JCA1</name><desc>Swim - Start
Images:1920
First:15.11.2025 14:21:38
Last:16.11.2025 06:30:35
Duration:16:08:57
</desc></wpt>
<wpt lat = "-34.17186" lon = "22.12683"><name>LDR1</name><desc>Swim - Finish
Images:3382
First:15.11.2025 14:20:38
Last:16.11.2025 08:10:51
Duration:17:50:13
</desc></wpt>
<wpt lat = "-34.17186" lon = "22.12683"><name>ROWA1</name><desc>Swim - Finish
Images:8200
First:16.11.2025 05:18:18
Last:16.11.2025 07:38:22
Duration:02:20:04
</desc></wpt>
<wpt lat = "-34.17288" lon = "22.12839"><name>PKI1</name><desc>Swim - Transition zone Swim tro Bike
Images:313
First:16.11.2025 05:03:02
Last:16.11.2025 10:12:10
Duration:05:09:08
</desc></wpt>
<wpt lat = "-34.17308" lon = "22.12917"><name>DKA1</name><desc>Bike - Mount Line
Images:3803
First:16.11.2025 05:00:43
Last:16.11.2025 07:58:57
Duration:02:58:14
</desc></wpt>
<wpt lat = "-34.15185" lon = "21.99967"><name>JHI1</name><desc>Bike - 16.6 km Bike 2
Images:4825
First:16.11.2025 08:04:37
Last:16.11.2025 10:22:07
Duration:02:17:30
</desc></wpt>
<wpt lat = "-34.15185" lon = "21.99967"><name>JHI2</name><desc>Bike - 71.0 km Bike
Images:1256
First:16.11.2025 10:22:14
Last:16.11.2025 11:38:40
Duration:01:16:26
</desc></wpt>
<wpt lat = "-34.15587" lon = "22.00763"><name>TAZ1</name><desc>Bike - 71.6 km Bike 1
Images:7001
First:16.11.2025 08:14:35
Last:16.11.2025 11:34:44
Duration:03:20:09
</desc></wpt>
<wpt lat = "-34.17288" lon = "22.12839"><name>PKI2</name><desc>Bike - Transition zone  Bike TRransition to Run
Images:2344
First:01.01.0001 23:00:00
Last:16.11.2025 14:56:00
Duration:739569.15:56:00
</desc></wpt>
<wpt lat = "-34.18106" lon = "22.15550"><name>CRF2</name><desc>Wooden Bridge All 3 Laps
Images:5000
First:16.11.2025 07:12:30
Last:16.11.2025 11:08:56
Duration:03:56:26
</desc></wpt>
<wpt lat = "-34.17637" lon = "22.13682"><name>JCA2</name><desc>Cat Walk Turn All 3 Laps
Images:4920
First:16.11.2025 07:13:01
Last:16.11.2025 14:14:59
Duration:07:01:58
</desc></wpt>
<wpt lat = "-34.17670" lon = "22.13592"><name>DKA2</name><desc>Finish
Images:13720
First:16.11.2025 08:31:44
Last:16.11.2025 13:38:59
Duration:05:07:15
</desc></wpt>
<wpt lat = "-34.17646" lon = "22.13554"><name>LDR2</name><desc>Finish
Images:10735
First:16.11.2025 08:35:17
Last:16.11.2025 16:25:13
Duration:07:49:56
</desc></wpt>
<wpt lat = "-34.17646" lon = "22.13539"><name>ROWA2</name><desc>Finish
Images:6373
First:16.11.2025 09:55:26
Last:16.11.2025 14:56:21
Duration:05:00:55
</desc></wpt>
<wpt lat = "-34.17646" lon = "22.13539"><name>ROWA2LS1</name><desc>Finish
Images:957
First:01.01.0001 23:00:00
Last:16.11.2025 13:55:29
Duration:739569.14:55:29
</desc></wpt>
<wpt lat = "-34.17740" lon = "22.13674"><name>PANO1</name><desc>Swim - Impressions / Pano
Images:15
First:13.11.2025 15:27:28
Last:15.11.2025 09:59:19
Duration:1.18:31:51
</desc></wpt>
</gpx>