<?xml version='1.0' encoding='utf-8'?>
<gpx version="1.1" creator="Infofile GPX Generator">
<wpt lat = "50.47751" lon = "6.10428"><name>THL3</name><desc>1.4 km /12km
Images:1247
First:08.11.2025 15:25:27
Last:08.11.2025 15:45:18
Duration:00:19:51
</desc></wpt>
<wpt lat = "50.47751" lon = "6.10428"><name>THL3LS1</name><desc>1.4 km /12km
Images:226
First:08.11.2025 15:20:47
Last:08.11.2025 15:46:07
Duration:00:25:20
</desc></wpt>
<wpt lat = "50.48046" lon = "6.10711"><name>TOBB1DRONE1</name><desc>2.0 km
Images:43
First:08.11.2025 11:06:38
Last:08.11.2025 13:07:34
Duration:02:00:56
</desc></wpt>
<wpt lat = "50.48046" lon = "6.10711"><name>TOBB1</name><desc>2.0 km
Images:2613
First:07.11.2025 13:03:08
Last:08.11.2025 10:21:21
Duration:21:18:13
</desc></wpt>
<wpt lat = "50.48046" lon = "6.10711"><name>TOBB1LS1</name><desc>2.0 km
Images:519
First:07.11.2025 13:06:42
Last:08.11.2025 10:29:31
Duration:21:22:49
</desc></wpt>
<wpt lat = "50.48046" lon = "6.10711"><name>TOBB1LS2</name><desc>2.0 km
Images:599
First:07.11.2025 13:05:10
Last:08.11.2025 10:22:46
Duration:21:17:36
</desc></wpt>
<wpt lat = "50.48079" lon = "6.10724"><name>NWO1</name><desc>1.4 km
Images:1168
First:08.11.2025 08:15:07
Last:08.11.2025 10:19:01
Duration:02:03:54
</desc></wpt>
<wpt lat = "50.48079" lon = "6.10724"><name>NWO1LS1</name><desc>1.4 km
Images:405
First:08.11.2025 09:23:31
Last:08.11.2025 10:19:36
Duration:00:56:05
</desc></wpt>
<wpt lat = "50.48079" lon = "6.10724"><name>NWO1LS2</name><desc>1.4 km
Images:232
First:08.11.2025 09:15:38
Last:08.11.2025 10:19:35
Duration:01:03:57
</desc></wpt>
<wpt lat = "50.47473" lon = "6.10202"><name>TOBB3</name><desc>Start
Images:223
First:08.11.2025 11:16:22
Last:08.11.2025 13:01:06
Duration:01:44:44
</desc></wpt>
<wpt lat = "50.46739" lon = "6.07165"><name>LV1</name><desc>7.2 km
Images:4532
First:08.11.2025 08:24:27
Last:08.11.2025 11:06:47
Duration:02:42:20
</desc></wpt>
<wpt lat = "50.46739" lon = "6.07165"><name>LV1LS3</name><desc>7.2 km
Images:757
First:08.11.2025 08:05:11
Last:08.11.2025 11:10:50
Duration:03:05:39
</desc></wpt>
<wpt lat = "50.46739" lon = "6.07165"><name>LV1LS2</name><desc>7.2 km
Images:497
First:08.11.2025 10:34:59
Last:08.11.2025 11:10:20
Duration:00:35:21
</desc></wpt>
<wpt lat = "50.46739" lon = "6.07165"><name>LV1LS1</name><desc>7.2 km
Images:493
First:08.11.2025 08:14:52
Last:08.11.2025 09:08:08
Duration:00:53:16
</desc></wpt>
<wpt lat = "50.46809" lon = "6.07303"><name>MK1</name><desc>7.6 km
Images:5475
First:08.11.2025 08:31:24
Last:08.11.2025 11:07:27
Duration:02:36:03
</desc></wpt>
<wpt lat = "50.46809" lon = "6.07303"><name>MK1LS1</name><desc>7.6 km
Images:1119
First:08.11.2025 07:58:10
Last:08.11.2025 11:20:42
Duration:03:22:32
</desc></wpt>
<wpt lat = "50.46809" lon = "6.07303"><name>MK1LS2</name><desc>7.6 km
Images:930
First:08.11.2025 08:16:56
Last:08.11.2025 11:17:28
Duration:03:00:32
</desc></wpt>
<wpt lat = "50.44714" lon = "6.05188"><name>THL1</name><desc>12.0 km /36&65
Images:7473
First:08.11.2025 08:52:09
Last:08.11.2025 11:55:53
Duration:03:03:44
</desc></wpt>
<wpt lat = "50.44727" lon = "6.05188"><name>THL1DRONE1</name><desc>12.0 km /36&65
Images:25
First:08.11.2025 10:19:48
Last:08.11.2025 14:43:42
Duration:04:23:54
</desc></wpt>
<wpt lat = "50.44727" lon = "6.05188"><name>THL1LS1</name><desc>12.0 km /36&65
Images:971
First:07.11.2025 12:35:15
Last:08.11.2025 12:06:12
Duration:23:30:57
</desc></wpt>
<wpt lat = "50.44727" lon = "6.05188"><name>THL1LS2</name><desc>12.0 km /36&65
Images:951
First:07.11.2025 12:37:55
Last:08.11.2025 12:01:22
Duration:23:23:27
</desc></wpt>
<wpt lat = "50.44714" lon = "6.05188"><name>THL1LS3</name><desc>12.0 km /36&65
Images:499
First:07.11.2025 12:40:35
Last:08.11.2025 11:55:57
Duration:23:15:22
</desc></wpt>
<wpt lat = "50.44822" lon = "6.11760"><name>THL2</name><desc>12.0 km before finisch / 36&65 Barrage
Images:346
First:08.11.2025 14:00:33
Last:08.11.2025 14:28:42
Duration:00:28:09
</desc></wpt>
<wpt lat = "50.44822" lon = "6.11760"><name>THL2LS1</name><desc>12.0 km before finisch / 36&65 Barrage
Images:181
First:08.11.2025 13:43:26
Last:08.11.2025 14:32:43
Duration:00:49:17
</desc></wpt>
<wpt lat = "50.44822" lon = "6.11760"><name>THL2LS2</name><desc>12.0 km before finisch / 36&65 Barrage
Images:173
First:08.11.2025 13:40:10
Last:08.11.2025 14:32:32
Duration:00:52:22
</desc></wpt>
<wpt lat = "50.46930" lon = "6.09331"><name>MK2</name><desc>4.6 km before finish
Images:11768
First:08.11.2025 12:40:16
Last:08.11.2025 17:59:55
Duration:05:19:39
</desc></wpt>
<wpt lat = "50.46930" lon = "6.09331"><name>MK2LS1</name><desc>4.6 km before finish
Images:2010
First:08.11.2025 12:24:05
Last:08.11.2025 17:58:10
Duration:05:34:05
</desc></wpt>
<wpt lat = "50.46617" lon = "6.09151"><name>LV2</name><desc>4.0 km before finish
Images:7641
First:08.11.2025 12:37:18
Last:08.11.2025 18:14:11
Duration:05:36:53
</desc></wpt>
<wpt lat = "50.46617" lon = "6.09151"><name>LV2LS1</name><desc>4.0 km before finish
Images:1468
First:08.11.2025 12:11:21
Last:08.11.2025 16:29:56
Duration:04:18:35
</desc></wpt>
<wpt lat = "50.46617" lon = "6.09151"><name>LV2LS2</name><desc>4.0 km before finish
Images:1843
First:08.11.2025 12:18:45
Last:08.11.2025 17:45:45
Duration:05:27:00
</desc></wpt>
<wpt lat = "50.47385" lon = "6.10106"><name>NWO2LS1</name><desc>0.2 km before finish
Images:418
First:08.11.2025 13:22:52
Last:08.11.2025 16:05:16
Duration:02:42:24
</desc></wpt>
<wpt lat = "50.47385" lon = "6.10106"><name>NWO2</name><desc>0.2 km before finish
Images:2976
First:08.11.2025 12:31:26
Last:08.11.2025 16:43:34
Duration:04:12:08
</desc></wpt>
<wpt lat = "50.47385" lon = "6.10106"><name>NWO2LS2</name><desc>0.2 km before finish
Images:374
First:08.11.2025 13:24:14
Last:08.11.2025 16:04:52
Duration:02:40:38
</desc></wpt>
<wpt lat = "50.47473" lon = "6.10202"><name>TOBB2</name><desc>Finish
Images:3507
First:08.11.2025 13:07:32
Last:08.11.2025 20:13:05
Duration:07:05:33
</desc></wpt>
<wpt lat = "50.47473" lon = "6.10202"><name>TOBB2LS2</name><desc>Finish
Images:5126
First:08.11.2025 10:23:40
Last:08.11.2025 20:13:57
Duration:09:50:17
</desc></wpt>
<wpt lat = "50.47473" lon = "6.10202"><name>TOBB2LS1</name><desc>Finish
Images:2390
First:08.11.2025 12:14:48
Last:08.11.2025 20:20:29
Duration:08:05:41
</desc></wpt>
<wpt lat = "50.47473" lon = "6.10202"><name>NWO3</name><desc>Finish
Images:470
First:08.11.2025 16:46:20
Last:08.11.2025 19:24:21
Duration:02:38:01
</desc></wpt>
</gpx>