<?xml version='1.0' encoding='utf-8'?>
<gpx version="1.1" creator="Infofile GPX Generator">
<wpt lat = "46.73785" lon = "12.16925"><name>RIM1</name><desc>Start
Images:5878
First:12.07.2025 06:37:11
Last:12.07.2025 11:02:05
Duration:04:24:54
</desc></wpt>
<wpt lat = "46.70222" lon = "12.22182"><name>DARU1</name><desc>46.0 km
Images:2989
First:12.07.2025 07:07:35
Last:12.07.2025 15:49:49
Duration:08:42:14
</desc></wpt>
<wpt lat = "46.70222" lon = "12.22182"><name>DARU1LS1</name><desc>46.0 km
Images:2197
First:12.07.2025 07:11:08
Last:12.07.2025 15:17:48
Duration:08:06:40
</desc></wpt>
<wpt lat = "46.66357" lon = "12.37393"><name>DDF1</name><desc>48.0 km
Images:989
First:12.07.2025 09:18:10
Last:12.07.2025 14:40:36
Duration:05:22:26
</desc></wpt>
<wpt lat = "46.66357" lon = "12.37393"><name>DDF1LS1</name><desc>48.0 km
Images:1087
First:12.07.2025 09:07:19
Last:12.07.2025 12:26:36
Duration:03:19:17
</desc></wpt>
<wpt lat = "46.66357" lon = "12.37393"><name>DDF1LS2</name><desc>48.0 km
Images:1098
First:12.07.2025 08:55:51
Last:12.07.2025 12:26:34
Duration:03:30:43
</desc></wpt>
<wpt lat = "46.66357" lon = "12.37393"><name>DDF1DRONE1</name><desc>Impressions / Pano
Images:49
First:12.07.2025 11:27:24
Last:12.07.2025 11:41:47
Duration:00:14:23
</desc></wpt>
<wpt lat = "46.64474" lon = "12.19252"><name>NAT1DRONE1</name><desc>Impressions / Pano
Images:21
First:12.07.2025 09:14:45
Last:12.07.2025 11:29:09
Duration:02:14:24
</desc></wpt>
<wpt lat = "46.64014" lon = "12.23282"><name>GAZ1</name><desc>94.0 km
Images:7553
First:12.07.2025 08:56:39
Last:12.07.2025 15:25:08
Duration:06:28:29
</desc></wpt>
<wpt lat = "46.64014" lon = "12.23282"><name>GAZ1LS2</name><desc>94.0 km
Images:2113
First:12.07.2025 09:22:42
Last:12.07.2025 15:20:26
Duration:05:57:44
</desc></wpt>
<wpt lat = "46.64014" lon = "12.23282"><name>GAZ1LS1</name><desc>94.0 km
Images:1234
First:12.07.2025 09:12:39
Last:12.07.2025 15:23:42
Duration:06:11:03
</desc></wpt>
<wpt lat = "46.63140" lon = "12.22923"><name>MIPA1</name><desc>95.0 km
Images:1905
First:12.07.2025 08:55:37
Last:12.07.2025 15:40:28
Duration:06:44:51
</desc></wpt>
<wpt lat = "46.63906" lon = "12.19781"><name>MAGA1</name><desc>104.0 km
Images:4201
First:12.07.2025 09:13:24
Last:12.07.2025 17:08:46
Duration:07:55:22
</desc></wpt>
<wpt lat = "46.63906" lon = "12.19781"><name>MAGA1LS1</name><desc>104.0 km
Images:3407
First:12.07.2025 08:48:21
Last:12.07.2025 17:08:28
Duration:08:20:07
</desc></wpt>
<wpt lat = "46.64165" lon = "12.19420"><name>GMA1</name><desc>105.0 km
Images:4713
First:11.07.2025 20:57:11
Last:12.07.2025 17:13:31
Duration:20:16:20
</desc></wpt>
<wpt lat = "46.64474" lon = "12.19252"><name>NAT1</name><desc>106.0 km
Images:13156
First:12.07.2025 08:58:33
Last:12.07.2025 17:16:03
Duration:08:17:30
</desc></wpt>
<wpt lat = "46.68053" lon = "12.14795"><name>RAM1</name><desc>112.0 km
Images:7239
First:12.07.2025 09:33:25
Last:12.07.2025 17:33:48
Duration:08:00:23
</desc></wpt>
<wpt lat = "46.68053" lon = "12.14795"><name>RAM1LS1</name><desc>112.0 km
Images:4475
First:12.07.2025 08:29:31
Last:12.07.2025 17:27:11
Duration:08:57:40
</desc></wpt>
<wpt lat = "46.68053" lon = "12.14795"><name>RAM1LS2</name><desc>112.0 km
Images:5147
First:12.07.2025 09:33:02
Last:12.07.2025 17:33:40
Duration:08:00:38
</desc></wpt>
<wpt lat = "46.68379" lon = "12.14690"><name>GIBE1</name><desc>113.5 km
Images:6533
First:12.07.2025 09:34:09
Last:12.07.2025 17:38:32
Duration:08:04:23
</desc></wpt>
<wpt lat = "46.70249" lon = "12.15023"><name>RLO1</name><desc>115.0 km
Images:5716
First:12.07.2025 07:02:34
Last:12.07.2025 17:45:34
Duration:10:43:00
</desc></wpt>
<wpt lat = "46.69492" lon = "12.15017"><name>LDL1</name><desc>116.0 km
Images:4787
First:12.07.2025 07:14:05
Last:12.07.2025 17:43:36
Duration:10:29:31
</desc></wpt>
<wpt lat = "46.73785" lon = "12.16925"><name>RIM2</name><desc>Finish
Images:20333
First:12.07.2025 11:02:05
Last:12.07.2025 18:09:30
Duration:07:07:25
</desc></wpt>
<wpt lat = "46.73785" lon = "12.16925"><name>GAZ1LS3</name><desc>Finish
Images:1215
First:31.12.2012 23:00:17
Last:12.07.2025 18:11:45
Duration:4575.19:11:28
</desc></wpt>
</gpx>