<?xml version='1.0' encoding='utf-8'?>
<gpx version="1.1" creator="Infofile GPX Generator">
<wpt lat = "50.82257" lon = "3.71636"><name>DRI1</name><desc>34,1 km Haaghoek, km /154 , 71,5/125
Images:3152
First:02.03.2025 07:36:40
Last:02.03.2025 11:19:45
Duration:03:43:05
</desc></wpt>
<wpt lat = "50.82257" lon = "3.71636"><name>DRI1DRONE1</name><desc>34,1 km Haaghoek, km /154 , 71,5/125
Images:16
First:02.03.2025 08:15:37
Last:02.03.2025 13:04:45
Duration:04:49:08
</desc></wpt>
<wpt lat = "50.82257" lon = "3.71636"><name>DRI1LS2</name><desc>34,1 km Haaghoek, km /154 , 71,5/125
Images:812
First:03.03.2025 07:20:16
Last:03.03.2025 09:08:46
Duration:01:48:30
</desc></wpt>
<wpt lat = "50.82257" lon = "3.71636"><name>DRI1LS1</name><desc>34,1 km Haaghoek, km /154 , 71,5/125
Images:1583
First:02.03.2025 07:34:46
Last:02.03.2025 09:11:19
Duration:01:36:33
</desc></wpt>
<wpt lat = "50.82257" lon = "3.71636"><name>KJ1</name><desc>34,1 km Haaghoek, km /154 , 71,5/125
Images:1441
First:01.03.2025 21:28:36
Last:02.03.2025 09:01:38
Duration:11:33:02
</desc></wpt>
<wpt lat = "50.76902" lon = "3.94115"><name>DRI2</name><desc>75,5 km Boosberg km /154, 113/125, 68,5/80, 48,5
Images:3616
First:02.03.2025 11:18:50
Last:02.03.2025 14:54:18
Duration:03:35:28
</desc></wpt>
<wpt lat = "50.76902" lon = "3.94115"><name>DRI2LS2</name><desc>75,5 km Boosberg km /154, 113/125, 68,5/80, 48,5
Images:3974
First:03.03.2025 11:04:25
Last:03.03.2025 14:03:53
Duration:02:59:28
</desc></wpt>
<wpt lat = "50.76902" lon = "3.94115"><name>DRI2LS1</name><desc>75,5 km Boosberg km /154, 113/125, 68,5/80, 48,5
Images:3331
First:02.03.2025 10:59:07
Last:02.03.2025 13:59:39
Duration:03:00:32
</desc></wpt>
<wpt lat = "50.76902" lon = "3.94115"><name>KJ2</name><desc>75,5 km Boosberg km /154, 113/125, 68,5/80, 48,5
Images:1878
First:02.03.2025 10:58:04
Last:02.03.2025 14:34:50
Duration:03:36:46
</desc></wpt>
<wpt lat = "50.85873" lon = "3.7004"><name>JKE1</name><desc>28,0 km Molenberg /154, Km45,7/125
Images:3967
First:01.03.2025 20:07:34
Last:02.03.2025 10:20:25
Duration:14:12:51
</desc></wpt>
<wpt lat = "50.85873" lon = "3.7004"><name>JKE1LS2</name><desc>28,0 km Molenberg /154, Km45,7/125
Images:551
First:02.03.2025 08:34:48
Last:02.03.2025 09:19:24
Duration:00:44:36
</desc></wpt>
<wpt lat = "50.85873" lon = "3.7004"><name>JKE1LS1</name><desc>28,0 km Molenberg /154, Km45,7/125
Images:814
First:01.03.2025 20:12:36
Last:02.03.2025 09:16:17
Duration:13:03:41
</desc></wpt>
<wpt lat = "50.77225" lon = "3.8901"><name>JKE2</name><desc>28,0 km Molenberg /154, Km45,7/125
Images:4135
First:02.03.2025 10:24:48
Last:02.03.2025 14:13:10
Duration:03:48:22
</desc></wpt>
<wpt lat = "50.85873" lon = "3.7004"><name>OP1</name><desc>28,0 km Molenberg /154, Km45,7/125
Images:2551
First:02.03.2025 07:06:01
Last:02.03.2025 10:37:20
Duration:03:31:19
</desc></wpt>
<wpt lat = "50.85873" lon = "3.7004"><name>OP1LS1</name><desc>28,0 km Molenberg /154, Km45,7/125
Images:1149
First:02.03.2025 06:55:12
Last:02.03.2025 08:58:52
Duration:02:03:40
</desc></wpt>
<wpt lat = "50.77225" lon = "3.8901"><name>JKE2LS2</name><desc>71,5 km Muur van Geraardsbergen /154, 109/125, 64,5/80, 44,5/60
Images:2364
First:01.03.2025 20:16:04
Last:02.03.2025 14:40:56
Duration:18:24:52
</desc></wpt>
<wpt lat = "50.77225" lon = "3.8901"><name>JKE2LS1</name><desc>71,5 km Muur van Geraardsbergen /154, 109/125, 64,5/80, 44,5/60
Images:1395
First:02.03.2025 11:38:05
Last:02.03.2025 14:13:43
Duration:02:35:38
</desc></wpt>
<wpt lat = "50.77225" lon = "3.8901"><name>OP2</name><desc>71,5 km Muur van Geraardsbergen /154, 109/125, 64,5/80, 44,5/60
Images:4115
First:02.03.2025 10:37:20
Last:02.03.2025 13:59:40
Duration:03:22:20
</desc></wpt>
<wpt lat = "50.77225" lon = "3.8901"><name>OP2LS1</name><desc>71,5 km Muur van Geraardsbergen /154, 109/125, 64,5/80, 44,5/60
Images:1880
First:02.03.2025 10:29:00
Last:02.03.2025 14:13:24
Duration:03:44:24
</desc></wpt>
<wpt lat = "50.84576" lon = "4.00427"><name>STDM1</name><desc>2,5 km after Start
Images:861
First:02.03.2025 06:08:54
Last:02.03.2025 08:02:47
Duration:01:53:53
</desc></wpt>
<wpt lat = "51.00057" lon = "3.86935"><name>STDM2</name><desc>Finish
Images:2020
First:02.03.2025 08:37:42
Last:02.03.2025 15:01:54
Duration:06:24:12
</desc></wpt>
</gpx>