<?xml version='1.0' encoding='utf-8'?>
<gpx version="1.1" creator="Infofile GPX Generator">
<wpt lat = "51.01723" lon = "4.29877"><name>THL1</name><desc>6.5 km
Images:13410
First:04.05.2025 09:29:24
Last:04.05.2025 13:26:17
Duration:03:56:53
</desc></wpt>
<wpt lat = "51.01723" lon = "4.29877"><name>THL1LS2</name><desc>6.5 km
Images:4740
First:03.05.2025 17:44:00
Last:04.05.2025 13:27:51
Duration:19:43:51
</desc></wpt>
<wpt lat = "51.01723" lon = "4.29877"><name>THL1DRONE1</name><desc>6.5 km
Images:24
First:04.05.2025 11:23:23
Last:04.05.2025 16:49:26
Duration:05:26:03
</desc></wpt>
<wpt lat = "51.01723" lon = "4.29877"><name>THL1LS1</name><desc>6.5 km
Images:2038
First:03.05.2025 17:46:04
Last:04.05.2025 13:22:27
Duration:19:36:23
</desc></wpt>
<wpt lat = "51.00045" lon = "4.27138"><name>VL1</name><desc>Impressions / Pano
Images:23
First:04.05.2025 15:43:40
Last:04.05.2025 15:58:39
Duration:00:14:59
</desc></wpt>
<wpt lat = "51.00045" lon = "4.27138"><name>STL1</name><desc>Impressions / Pano
Images:18
First:04.05.2025 15:43:52
Last:04.05.2025 16:03:10
Duration:00:19:18
</desc></wpt>
<wpt lat = "51.04154" lon = "4.32870"><name>KSA1</name><desc>Impressions / Pano
Images:50
First:04.05.2025 09:05:36
Last:04.05.2025 10:14:08
Duration:01:08:32
</desc></wpt>
<wpt lat = "51.00045" lon = "4.27138"><name>VL2</name><desc>9.5 km Kasteel Diepensteyn
Images:8646
First:04.05.2025 09:45:49
Last:04.05.2025 14:07:49
Duration:04:22:00
</desc></wpt>
<wpt lat = "51.00045" lon = "4.27138"><name>VL2LS1</name><desc>9.5 km Kasteel Diepensteyn
Images:2368
First:04.05.2025 09:51:29
Last:04.05.2025 14:19:02
Duration:04:27:33
</desc></wpt>
<wpt lat = "51.00045" lon = "4.27138"><name>STL2</name><desc>9.5 km Kasteel Diepensteyn
Images:4834
First:03.05.2025 21:46:04
Last:04.05.2025 14:11:32
Duration:16:25:28
</desc></wpt>
<wpt lat = "51.00045" lon = "4.27138"><name>STL2LS1</name><desc>9.5 km Kasteel Diepensteyn
Images:3285
First:04.05.2025 10:47:24
Last:04.05.2025 14:15:16
Duration:03:27:52
</desc></wpt>
<wpt lat = "50.99634" lon = "4.26768"><name>ACCA1</name><desc>10.0 km Brewerie Palm
Images:6082
First:04.05.2025 06:38:29
Last:04.05.2025 14:51:15
Duration:08:12:46
</desc></wpt>
<wpt lat = "50.99680" lon = "4.26847"><name>PBO1</name><desc>10.0 km Brewerei Palm
Images:5297
First:03.05.2025 19:25:28
Last:04.05.2025 14:22:59
Duration:18:57:31
</desc></wpt>
<wpt lat = "51.03959" lon = "4.27044"><name>RA1</name><desc>7.0 km before finish
Images:20731
First:04.05.2025 09:52:44
Last:04.05.2025 17:48:43
Duration:07:55:59
</desc></wpt>
<wpt lat = "51.03959" lon = "4.27044"><name>RA1LS2</name><desc>7.0 km before finish
Images:3707
First:04.05.2025 09:45:40
Last:04.05.2025 17:56:04
Duration:08:10:24
</desc></wpt>
<wpt lat = "51.03959" lon = "4.27044"><name>RA1LS1</name><desc>7.0 km before finish
Images:3661
First:04.05.2025 09:46:26
Last:04.05.2025 17:55:59
Duration:08:09:33
</desc></wpt>
<wpt lat = "51.04135" lon = "4.32697"><name>SAMA1</name><desc>0.1 km before finish
Images:16221
First:04.05.2025 09:38:31
Last:04.05.2025 19:01:48
Duration:09:23:17
</desc></wpt>
<wpt lat = "51.04154" lon = "4.32870"><name>BENL1</name><desc>Finish
Images:10787
First:04.05.2025 08:55:34
Last:04.05.2025 18:58:26
Duration:10:02:52
</desc></wpt>
<wpt lat = "51.04154" lon = "4.32870"><name>KSA2</name><desc>Finish
Images:23418
First:04.05.2025 10:18:47
Last:04.05.2025 18:57:51
Duration:08:39:04
</desc></wpt>
</gpx>