<?xml version='1.0' encoding='utf-8'?>
<gpx version="1.1" creator="Infofile GPX Generator">
<wpt lat = "29.39011" lon = "48.00077"><name>AZF1</name><desc>Start
Images:834
First:13.12.2025 05:20:28
Last:13.12.2025 06:28:42
Duration:01:08:14
</desc></wpt>
<wpt lat = "29.38945" lon = "48.00136"><name>BUR1</name><desc>Start
Images:1747
First:13.12.2025 05:20:26
Last:13.12.2025 08:31:03
Duration:03:10:37
</desc></wpt>
<wpt lat = "29.38697" lon = "48.00294"><name>GOR1IMP1</name><desc>Start
Images:142
First:13.12.2025 05:16:45
Last:13.12.2025 06:00:44
Duration:00:43:59
</desc></wpt>
<wpt lat = "29.38929" lon = "48.00149"><name>HHT1</name><desc>Start
Images:125
First:13.12.2025 05:24:28
Last:13.12.2025 06:39:07
Duration:01:14:39
</desc></wpt>
<wpt lat = "29.39011" lon = "48.00077"><name>MUP1</name><desc>Start
Images:181
First:13.12.2025 05:30:49
Last:13.12.2025 05:41:33
Duration:00:10:44
</desc></wpt>
<wpt lat = "29.38952" lon = "47.99889"><name>PW1</name><desc>Start
Images:4000
First:13.12.2025 05:08:59
Last:13.12.2025 09:00:10
Duration:03:51:11
</desc></wpt>
<wpt lat = "29.38720" lon = "48.00285"><name>YAS1IMP1</name><desc>Start
Images:96
First:13.12.2025 05:27:34
Last:13.12.2025 06:41:00
Duration:01:13:26
</desc></wpt>
<wpt lat = "29.39104" lon = "47.99825"><name>ARP1</name><desc>1.0 km
Images:7774
First:13.12.2025 05:31:35
Last:13.12.2025 09:19:44
Duration:03:48:09
</desc></wpt>
<wpt lat = "29.39099" lon = "47.99820"><name>MANB1</name><desc>1.0 km
Images:2235
First:13.12.2025 05:31:33
Last:13.12.2025 09:19:48
Duration:03:48:15
</desc></wpt>
<wpt lat = "29.38444" lon = "47.97815"><name>AAM1</name><desc>2.5 km
Images:7347
First:13.12.2025 05:37:56
Last:13.12.2025 08:58:52
Duration:03:20:56
</desc></wpt>
<wpt lat = "29.38447" lon = "47.97791"><name>SAQ1</name><desc>2.5 km
Images:10032
First:13.12.2025 05:24:25
Last:13.12.2025 09:36:23
Duration:04:11:58
</desc></wpt>
<wpt lat = "29.39053" lon = "48.00090"><name>PW2</name><desc>50m Before Finish
Images:1115
First:13.12.2025 09:00:16
Last:13.12.2025 09:40:40
Duration:00:40:24
</desc></wpt>
<wpt lat = "29.39053" lon = "48.00090"><name>BUR2</name><desc>50m Before Finish
Images:1347
First:13.12.2025 08:31:04
Last:13.12.2025 09:38:01
Duration:01:06:57
</desc></wpt>
<wpt lat = "29.38754" lon = "48.00273"><name>AZF2</name><desc>Finish
Images:2147
First:13.12.2025 06:31:13
Last:13.12.2025 09:44:40
Duration:03:13:27
</desc></wpt>
<wpt lat = "29.38994" lon = "48.00163"><name>GOR1</name><desc>Finish
Images:13674
First:13.12.2025 06:02:29
Last:13.12.2025 09:51:15
Duration:03:48:46
</desc></wpt>
<wpt lat = "29.38769" lon = "48.00279"><name>HHT2</name><desc>Finish
Images:273
First:13.12.2025 06:45:22
Last:13.12.2025 09:31:58
Duration:02:46:36
</desc></wpt>
<wpt lat = "29.38759" lon = "48.00280"><name>MUP2</name><desc>Finish
Images:1459
First:13.12.2025 06:33:49
Last:13.12.2025 09:30:26
Duration:02:56:37
</desc></wpt>
<wpt lat = "29.38759" lon = "48.00280"><name>MUP1LS3</name><desc>Finish
Images:323
First:13.12.2025 06:13:07
Last:13.12.2025 09:30:39
Duration:03:17:32
</desc></wpt>
<wpt lat = "29.38759" lon = "48.00280"><name>MUP1LS2</name><desc>Finish
Images:315
First:13.12.2025 06:14:33
Last:13.12.2025 09:31:47
Duration:03:17:14
</desc></wpt>
<wpt lat = "29.39000" lon = "48.00159"><name>SA1</name><desc>Finish
Images:6020
First:13.12.2025 06:37:21
Last:13.12.2025 09:32:43
Duration:02:55:22
</desc></wpt>
<wpt lat = "29.39000" lon = "48.00159"><name>SA1LS2</name><desc>Finish
Images:1038
First:13.12.2025 06:18:31
Last:13.12.2025 08:24:36
Duration:02:06:05
</desc></wpt>
<wpt lat = "29.39000" lon = "48.00159"><name>SA1LS1</name><desc>Finish
Images:719
First:13.12.2025 06:30:31
Last:13.12.2025 08:43:12
Duration:02:12:41
</desc></wpt>
<wpt lat = "29.39000" lon = "48.00159"><name>SADH1</name><desc>Finish
Images:2776
First:13.12.2025 05:34:54
Last:13.12.2025 09:35:07
Duration:04:00:13
</desc></wpt>
<wpt lat = "29.39009" lon = "48.00119"><name>SHPA1</name><desc>Finish
Images:1101
First:13.12.2025 05:21:16
Last:13.12.2025 09:34:41
Duration:04:13:25
</desc></wpt>
<wpt lat = "29.38994" lon = "48.00163"><name>YAS1</name><desc>Finish
Images:9732
First:13.12.2025 06:42:49
Last:13.12.2025 09:33:42
Duration:02:50:53
</desc></wpt>
<wpt lat = "29.38985" lon = "48.00175"><name>YUM1</name><desc>Finish
Images:634
First:13.12.2025 06:06:30
Last:13.12.2025 09:38:27
Duration:03:31:57
</desc></wpt>
</gpx>