<?xml version='1.0' encoding='utf-8'?>
<gpx version="1.1" creator="Infofile GPX Generator">
<wpt lat = "49.46902" lon = "8.52707"><name>MOG1</name><desc>Impressions / Pano
Images:171
First:26.07.2025 10:00:22
Last:26.07.2025 13:52:12
Duration:03:51:50
</desc></wpt>
<wpt lat = "49.46902" lon = "8.52707"><name>MOG1DRONE1</name><desc>Impressions / Pano
Images:7
First:26.07.2025 11:41:17
Last:26.07.2025 11:44:37
Duration:00:03:20
</desc></wpt>
<wpt lat = "49.46902" lon = "8.52707"><name>MOG1LS1</name><desc>Finish
Images:1491
First:26.07.2025 09:32:10
Last:26.07.2025 18:26:08
Duration:08:53:58
</desc></wpt>
<wpt lat = "49.46902" lon = "8.52707"><name>MOG1LS2</name><desc>Finish
Images:1648
First:26.07.2025 09:35:27
Last:26.07.2025 18:18:04
Duration:08:42:37
</desc></wpt>
<wpt lat = "49.46902" lon = "8.52707"><name>LBL1</name><desc>Finish
Images:7820
First:26.07.2025 08:45:11
Last:26.07.2025 18:16:32
Duration:09:31:21
</desc></wpt>
<wpt lat = "49.46850" lon = "8.52802"><name>JNA1</name><desc>Obstacle 10 Krabbelstrecke
Images:16179
First:25.07.2025 22:41:23
Last:26.07.2025 17:51:22
Duration:19:09:59
</desc></wpt>
<wpt lat = "49.46850" lon = "8.52802"><name>JNA2</name><desc>Obstacle 10 Krabbelstrecke
Images:12102
First:26.07.2025 09:44:01
Last:26.07.2025 17:49:13
Duration:08:05:12
</desc></wpt>
<wpt lat = "49.46897" lon = "8.52807"><name>JOS1</name><desc>Obstacle 11 Gitterbecken
Images:7945
First:25.07.2025 22:41:23
Last:26.07.2025 17:52:05
Duration:19:10:42
</desc></wpt>
<wpt lat = "49.46897" lon = "8.52807"><name>LV1</name><desc>Obstacle 11 Gitterbecken
Images:14197
First:26.07.2025 09:49:19
Last:26.07.2025 17:46:04
Duration:07:56:45
</desc></wpt>
<wpt lat = "49.46995" lon = "8.52511"><name>SBRO1</name><desc>Obstacle 13 Poolparty
Images:8745
First:26.07.2025 06:47:10
Last:26.07.2025 18:01:34
Duration:11:14:24
</desc></wpt>
<wpt lat = "49.46824" lon = "8.52659"><name>ISA1</name><desc>Obstacle 14 Seiltanz
Images:4236
First:26.07.2025 09:59:05
Last:26.07.2025 18:12:13
Duration:08:13:08
</desc></wpt>
<wpt lat = "49.46824" lon = "8.52659"><name>ISA1LS2</name><desc>Obstacle 14 Seiltanz
Images:1795
First:26.07.2025 09:53:34
Last:26.07.2025 18:11:26
Duration:08:17:52
</desc></wpt>
<wpt lat = "49.46824" lon = "8.52659"><name>ISA1LS1</name><desc>Obstacle 14 Seiltanz
Images:2463
First:26.07.2025 09:48:53
Last:26.07.2025 18:11:30
Duration:08:22:37
</desc></wpt>
<wpt lat = "49.46877" lon = "8.52767"><name>MDH1</name><desc>Obstacle 15 Containerrutsche
Images:2293
First:26.07.2025 07:47:01
Last:26.07.2025 17:07:31
Duration:09:20:30
</desc></wpt>
<wpt lat = "49.46997" lon = "8.52940"><name>ALN1</name><desc>Obstacle 3 Schlammbecken
Images:15251
First:26.07.2025 09:42:43
Last:26.07.2025 16:51:22
Duration:07:08:39
</desc></wpt>
<wpt lat = "49.46997" lon = "8.52940"><name>ALN1LS2</name><desc>Obstacle 3 Schlammbecken
Images:5872
First:26.07.2025 09:37:13
Last:26.07.2025 16:51:02
Duration:07:13:49
</desc></wpt>
<wpt lat = "49.46997" lon = "8.52940"><name>ALN1LS1</name><desc>Obstacle 3 Schlammbecken
Images:4730
First:26.07.2025 09:34:27
Last:26.07.2025 16:51:00
Duration:07:16:33
</desc></wpt>
<wpt lat = "49.46878" lon = "8.52897"><name>DEES1</name><desc>Obstacle 4 Tauchbecken
Images:4941
First:26.07.2025 09:43:41
Last:26.07.2025 16:54:13
Duration:07:10:32
</desc></wpt>
<wpt lat = "49.46878" lon = "8.52897"><name>KG1</name><desc>Obstacle 4 Tauchbecken
Images:3321
First:26.07.2025 06:09:34
Last:26.07.2025 16:54:14
Duration:10:44:40
</desc></wpt>
<wpt lat = "49.46890" lon = "8.52903"><name>KG1LS1</name><desc>Obstacle 4 Tauchbecken
Images:9216
First:26.07.2025 09:21:03
Last:26.07.2025 16:53:11
Duration:07:32:08
</desc></wpt>
<wpt lat = "49.46665" lon = "8.52907"><name>MAWI1</name><desc>Obstacle 5 Schaumparty
Images:9957
First:26.07.2025 08:45:14
Last:26.07.2025 17:02:48
Duration:08:17:34
</desc></wpt>
<wpt lat = "49.46665" lon = "8.52907"><name>MAWI1LS2</name><desc>Obstacle 5 Schaumparty
Images:6946
First:26.07.2025 08:51:44
Last:26.07.2025 16:21:37
Duration:07:29:53
</desc></wpt>
<wpt lat = "49.46665" lon = "8.52907"><name>MAWI1LS1</name><desc>Obstacle 5 Schaumparty
Images:9265
First:26.07.2025 08:47:47
Last:26.07.2025 16:59:52
Duration:08:12:05
</desc></wpt>
<wpt lat = "49.46649" lon = "8.52584"><name>JBAU1</name><desc>Obstacle 7 Bälle Boulevard
Images:2930
First:26.07.2025 09:15:59
Last:26.07.2025 17:19:35
Duration:08:03:36
</desc></wpt>
<wpt lat = "49.46907" lon = "8.52349"><name>BA1</name><desc>Herotent
Images:1691
First:26.07.2025 07:32:04
Last:26.07.2025 18:16:50
Duration:10:44:46
</desc></wpt>
<wpt lat = "49.46907" lon = "8.52349"><name>LTH1</name><desc>Herotent
Images:4677
First:26.07.2025 09:06:56
Last:26.07.2025 18:16:32
Duration:09:09:36
</desc></wpt>
<wpt lat = "49.47006" lon = "8.52596"><name>MBNE1</name><desc>Obstacle 3 Reifenteppich
Images:10558
First:26.07.2025 09:06:56
Last:26.07.2025 18:16:32
Duration:09:09:36
</desc></wpt>
<wpt lat = "49.47006" lon = "8.52596"><name>MBNE1LS1</name><desc>Obstacle 3 Reifenteppich
Images:2253
First:26.07.2025 09:29:32
Last:26.07.2025 16:45:57
Duration:07:16:25
</desc></wpt>
<wpt lat = "49.46877" lon = "8.52767"><name>ZZZ1</name><desc>Obstacle 15 Containerrutsche 11:45-13:45
Images:7222
First:26.07.2025 11:44:49
Last:26.07.2025 13:46:24
Duration:02:01:35
</desc></wpt>
</gpx>