<?xml version='1.0' encoding='utf-8'?>
<gpx version="1.1" creator="Infofile GPX Generator">
<wpt lat = "50.71020" lon = "10.70667"><name>GUD1</name><desc>Obstacle Bobbahn
Images:6639
First:28.06.2025 11:12:43
Last:28.06.2025 16:35:00
Duration:05:22:17
</desc></wpt>
<wpt lat = "50.71020" lon = "10.70667"><name>GUD1LS1</name><desc>Obstacle Bobbahn
Images:741
First:28.06.2025 11:12:47
Last:28.06.2025 16:35:02
Duration:05:22:15
</desc></wpt>
<wpt lat = "50.71020" lon = "10.70667"><name>GUD1LS2</name><desc>Obstacle Bobbahn
Images:756
First:28.06.2025 11:09:52
Last:28.06.2025 16:35:04
Duration:05:25:12
</desc></wpt>
<wpt lat = "50.70560" lon = "10.69344"><name>MDO1</name><desc>Tauchbecken
Images:5818
First:28.06.2025 11:01:25
Last:28.06.2025 17:13:37
Duration:06:12:12
</desc></wpt>
<wpt lat = "50.70560" lon = "10.69344"><name>MDO1LS1</name><desc>Laufstrecke nach Tauchbecken
Images:785
First:28.06.2025 10:25:57
Last:28.06.2025 17:14:52
Duration:06:48:55
</desc></wpt>
<wpt lat = "50.70714" lon = "10.69389"><name>CLL1</name><desc>Sandsack tragen
Images:3769
First:28.06.2025 11:51:26
Last:28.06.2025 17:20:05
Duration:05:28:39
</desc></wpt>
<wpt lat = "50.70714" lon = "10.69389"><name>CLL1LS1</name><desc>Sandsack tragen
Images:1587
First:28.06.2025 10:29:50
Last:28.06.2025 17:22:33
Duration:06:52:43
</desc></wpt>
<wpt lat = "50.70714" lon = "10.69389"><name>CLL1LS2</name><desc>Sandsack tragen
Images:1504
First:28.06.2025 10:25:03
Last:28.06.2025 17:22:05
Duration:06:57:02
</desc></wpt>
<wpt lat = "50.70717" lon = "10.69335"><name>SBU1LS1</name><desc>Laufstrecke nach Sandsack tragen
Images:1278
First:28.06.2025 10:50:17
Last:28.06.2025 17:32:57
Duration:06:42:40
</desc></wpt>
<wpt lat = "50.70760" lon = "10.69362"><name>SBU1</name><desc>Hangelhindernis Biathlonstadion
Images:3012
First:28.06.2025 11:53:58
Last:28.06.2025 17:26:29
Duration:05:32:31
</desc></wpt>
<wpt lat = "50.70951" lon = "10.70396"><name>MAE1</name><desc>Skihalle
Images:3288
First:28.06.2025 11:07:58
Last:28.06.2025 17:54:25
Duration:06:46:27
</desc></wpt>
<wpt lat = "50.70951" lon = "10.70396"><name>MAE1LS1</name><desc>Skihalle
Images:751
First:28.06.2025 10:33:07
Last:28.06.2025 17:44:13
Duration:07:11:06
</desc></wpt>
<wpt lat = "50.70951" lon = "10.70396"><name>MAE1LS2</name><desc>Skihalle
Images:2488
First:28.06.2025 10:46:43
Last:28.06.2025 17:53:50
Duration:07:07:07
</desc></wpt>
<wpt lat = "50.70971" lon = "10.71999"><name>NU1</name><desc>Schanzenanlage Wadeberg
Images:3110
First:28.06.2025 10:41:09
Last:28.06.2025 18:25:56
Duration:07:44:47
</desc></wpt>
<wpt lat = "50.70929" lon = "10.71882"><name>NU1LS1</name><desc>Schanzenanlage Wadeberg
Images:3381
First:28.06.2025 10:40:07
Last:28.06.2025 18:33:03
Duration:07:52:56
</desc></wpt>
<wpt lat = "50.70929" lon = "10.71882"><name>NU1LS2</name><desc>Schanzenanlage Wadeberg
Images:2985
First:28.06.2025 10:34:44
Last:28.06.2025 16:26:07
Duration:05:51:23
</desc></wpt>
<wpt lat = "50.70624" lon = "10.72439"><name>RJ1LS1</name><desc>Finish
Images:1714
First:28.06.2025 12:34:56
Last:28.06.2025 18:45:33
Duration:06:10:37
</desc></wpt>
<wpt lat = "50.70624" lon = "10.72439"><name>RJ1LS2</name><desc>Finish
Images:868
First:28.06.2025 12:33:42
Last:28.06.2025 18:54:26
Duration:06:20:44
</desc></wpt>
<wpt lat = "50.70624" lon = "10.72439"><name>RJ1</name><desc>Herotent
Images:1231
First:28.06.2025 11:19:46
Last:28.06.2025 18:47:12
Duration:07:27:26
</desc></wpt>
<wpt lat = "50.71020" lon = "10.70667"><name>GUD1DRONE1</name><desc>Impressions / Pano
Images:7
First:28.06.2025 13:44:08
Last:28.06.2025 13:51:35
Duration:00:07:27
</desc></wpt>
<wpt lat = "50.70760" lon = "10.69362"><name>PANO1</name><desc>Impressions / Pano
Images:2
First:28.06.2025 11:12:30
Last:28.06.2025 16:36:49
Duration:05:24:19
</desc></wpt>
</gpx>