<?xml version='1.0' encoding='utf-8'?>
<gpx version="1.1" creator="Infofile GPX Generator">
<wpt lat = "52.51601" lon = "13.25362"><name>EBO1</name><desc>Start
Images:5561
First:11.05.2025 08:23:25
Last:11.05.2025 11:18:42
Duration:02:55:17
</desc></wpt>
<wpt lat = "52.51601" lon = "13.25362"><name>RYS1</name><desc>Start
Images:264
First:11.05.2025 07:31:14
Last:11.05.2025 09:49:53
Duration:02:18:39
</desc></wpt>
<wpt lat = "52.51601" lon = "13.25362"><name>CM1</name><desc>Start
Images:1135
First:11.05.2025 08:18:03
Last:11.05.2025 09:42:07
Duration:01:24:04
</desc></wpt>
<wpt lat = "52.51558" lon = "13.24977"><name>EN1</name><desc>Start
Images:1138
First:11.05.2025 08:32:59
Last:11.05.2025 09:42:50
Duration:01:09:51
</desc></wpt>
<wpt lat = "52.51601" lon = "13.25362"><name>AGA1</name><desc>Start
Images:1833
First:11.05.2025 08:48:48
Last:11.05.2025 09:40:50
Duration:00:52:02
</desc></wpt>
<wpt lat = "52.51010" lon = "13.27185"><name>JUSE1</name><desc>Blauer Obelisk KM3.3/12.6
Images:3802
First:11.05.2025 09:07:06
Last:11.05.2025 11:28:22
Duration:02:21:16
</desc></wpt>
<wpt lat = "52.51010" lon = "13.27185"><name>DIA1</name><desc>Blauer Obelisk KM3.3/12.6
Images:11363
First:11.05.2025 09:04:23
Last:11.05.2025 11:13:59
Duration:02:09:36
</desc></wpt>
<wpt lat = "52.50777" lon = "13.24253"><name>FAW1</name><desc>Heerstrasse KM 5.2/14.5
Images:5835
First:11.05.2025 08:25:50
Last:11.05.2025 11:43:10
Duration:03:17:20
</desc></wpt>
<wpt lat = "52.51270" lon = "13.24582"><name>DAVR1</name><desc>Heilsberger Allee KM 5.9/15.5
Images:10270
First:11.05.2025 09:48:52
Last:11.05.2025 11:50:33
Duration:02:01:41
</desc></wpt>
<wpt lat = "52.51270" lon = "13.24582"><name>PSA1</name><desc>Heilsberger Allee KM 5.9/15.5
Images:5910
First:11.05.2025 08:35:12
Last:11.05.2025 11:50:22
Duration:03:15:10
</desc></wpt>
<wpt lat = "52.51489" lon = "13.23101"><name>ABRI1</name><desc>Am Glockenturm KM 7.7/17/23.2
Images:13097
First:11.05.2025 09:25:09
Last:11.05.2025 12:16:43
Duration:02:51:34
</desc></wpt>
<wpt lat = "52.51489" lon = "13.23101"><name>MUM1</name><desc>Am Glockenturm KM 7.7/17/23.2
Images:10459
First:11.05.2025 09:10:15
Last:11.05.2025 12:01:25
Duration:02:51:10
</desc></wpt>
<wpt lat = "52.47690" lon = "13.19843"><name>MFR1</name><desc>Grunewaldturm KM 17.3
Images:4142
First:11.05.2025 08:56:20
Last:11.05.2025 11:22:46
Duration:02:26:26
</desc></wpt>
<wpt lat = "52.47690" lon = "13.19843"><name>MFR1LS1</name><desc>Grunewaldturm KM 17.3
Images:3193
First:11.05.2025 09:42:18
Last:11.05.2025 11:19:56
Duration:01:37:38
</desc></wpt>
<wpt lat = "52.48555" lon = "13.19972"><name>ARTA1</name><desc>Grunewald KM 18.2
Images:5614
First:11.05.2025 08:52:40
Last:11.05.2025 11:45:24
Duration:02:52:44
</desc></wpt>
<wpt lat = "52.50967" lon = "13.21588"><name>LEM1</name><desc>Stößenseebrücke KM 21.5
Images:5551
First:11.05.2025 09:37:30
Last:11.05.2025 12:01:42
Duration:02:24:12
</desc></wpt>
<wpt lat = "52.50967" lon = "13.21588"><name>LEM1LS1</name><desc>Stößenseebrücke KM 21.5
Images:2947
First:11.05.2025 09:23:51
Last:11.05.2025 11:59:20
Duration:02:35:29
</desc></wpt>
<wpt lat = "52.50967" lon = "13.21588"><name>LEM1LS2</name><desc>Stößenseebrücke KM 21.5
Images:2942
First:11.05.2025 09:22:04
Last:11.05.2025 11:59:31
Duration:02:37:27
</desc></wpt>
<wpt lat = "52.51464" lon = "13.23843"><name>CM2</name><desc>Olympiastadion KM 9.9/20.6/24.3
Images:5670
First:11.05.2025 10:01:38
Last:11.05.2025 12:39:39
Duration:02:38:01
</desc></wpt>
<wpt lat = "52.51464" lon = "13.23843"><name>CM2LS1</name><desc>Olympiastadion KM 9.9/20.6/24.3
Images:3515
First:11.05.2025 10:04:35
Last:11.05.2025 12:13:11
Duration:02:08:36
</desc></wpt>
<wpt lat = "52.51505" lon = "13.24019"><name>EN2</name><desc>Zieleinlauf
Images:15412
First:11.05.2025 10:03:01
Last:11.05.2025 12:39:57
Duration:02:36:56
</desc></wpt>
<wpt lat = "52.51431" lon = "13.23966"><name>AGA2</name><desc>Finish
Images:15679
First:11.05.2025 10:05:51
Last:11.05.2025 12:44:42
Duration:02:38:51
</desc></wpt>
<wpt lat = "52.51431" lon = "13.23966"><name>AGA1LS1</name><desc>Finish
Images:16633
First:11.05.2025 10:01:42
Last:11.05.2025 12:58:35
Duration:02:56:53
</desc></wpt>
<wpt lat = "52.51431" lon = "13.23966"><name>RYS2</name><desc>Finish
Images:5556
First:11.05.2025 10:02:02
Last:11.05.2025 11:57:08
Duration:01:55:06
</desc></wpt>
<wpt lat = "52.51431" lon = "13.23966"><name>RYS2LS2</name><desc>Finish
Images:7265
First:11.05.2025 08:05:52
Last:11.05.2025 12:31:25
Duration:04:25:33
</desc></wpt>
<wpt lat = "52.51431" lon = "13.23966"><name>RYS2LS1</name><desc>Finish
Images:6360
First:11.05.2025 07:16:55
Last:11.05.2025 12:04:22
Duration:04:47:27
</desc></wpt>
<wpt lat = "52.51431" lon = "13.23966"><name>EBO2</name><desc>Finish
Images:3305
First:11.05.2025 11:23:30
Last:11.05.2025 12:40:46
Duration:01:17:16
</desc></wpt>
</gpx>