<?xml version='1.0' encoding='utf-8'?>
<gpx version="1.1" creator="Infofile GPX Generator">
<wpt lat = "47.94572" lon = "13.59448"><name>YSE1</name><desc>Start
Images:1238
First:20.09.2025 12:19:01
Last:20.09.2025 13:53:46
Duration:01:34:45
</desc></wpt>
<wpt lat = "47.92459" lon = "13.58209"><name>COR1</name><desc>2,7KM
Images:2794
First:20.09.2025 13:03:18
Last:20.09.2025 17:25:29
Duration:04:22:11
</desc></wpt>
<wpt lat = "47.92459" lon = "13.58209"><name>COR1DRONE1</name><desc>2,7KM
Images:22
First:20.09.2025 13:18:08
Last:20.09.2025 13:35:53
Duration:00:17:45
</desc></wpt>
<wpt lat = "47.92459" lon = "13.58209"><name>COR1LS1</name><desc>2,7KM
Images:1092
First:20.09.2025 12:53:54
Last:20.09.2025 17:28:50
Duration:04:34:56
</desc></wpt>
<wpt lat = "47.92459" lon = "13.58209"><name>COR1LS2</name><desc>2,7KM
Images:1103
First:20.09.2025 12:55:05
Last:20.09.2025 17:28:24
Duration:04:33:19
</desc></wpt>
<wpt lat = "47.863" lon = "13.56233"><name>CHR1</name><desc>10KM
Images:2899
First:20.09.2025 13:11:49
Last:20.09.2025 17:35:45
Duration:04:23:56
</desc></wpt>
<wpt lat = "47.863" lon = "13.56233"><name>CHR1LS1</name><desc>10KM
Images:1103
First:20.09.2025 13:08:25
Last:20.09.2025 17:36:28
Duration:04:28:03
</desc></wpt>
<wpt lat = "47.863" lon = "13.56233"><name>CHR1LS2</name><desc>10KM
Images:1044
First:20.09.2025 01:04:42
Last:20.09.2025 05:36:33
Duration:04:31:51
</desc></wpt>
<wpt lat = "47.863" lon = "13.56233"><name>CHR1DRONE1</name><desc>10KM
Images:18
First:20.09.2025 13:14:57
Last:20.09.2025 13:29:31
Duration:00:14:34
</desc></wpt>
<wpt lat = "47.85395" lon = "13.55694"><name>BEM1</name><desc>11KM
Images:3084
First:20.09.2025 13:12:19
Last:20.09.2025 17:36:34
Duration:04:24:15
</desc></wpt>
<wpt lat = "47.83445" lon = "13.52447"><name>ALEP1</name><desc>29,5KM Berg und Seeblick
Images:3063
First:20.09.2025 13:27:38
Last:20.09.2025 18:04:38
Duration:04:37:00
</desc></wpt>
<wpt lat = "47.83445" lon = "13.52447"><name>ALEP1LS1</name><desc>29,5KM Berg und Seeblick
Images:1451
First:20.09.2025 13:17:14
Last:20.09.2025 18:07:47
Duration:04:50:33
</desc></wpt>
<wpt lat = "47.83445" lon = "13.52447"><name>ALEP1LS2</name><desc>29,5KM Berg und Seeblick
Images:1482
First:20.09.2025 13:10:38
Last:20.09.2025 18:07:52
Duration:04:57:14
</desc></wpt>
<wpt lat = "47.93607" lon = "13.54839"><name>MIW1</name><desc>44KM Buchberg
Images:4369
First:20.09.2025 12:26:39
Last:20.09.2025 18:25:42
Duration:05:59:03
</desc></wpt>
<wpt lat = "47.94572" lon = "13.59448"><name>YSE2</name><desc>Finish
Images:4503
First:20.09.2025 13:57:38
Last:20.09.2025 18:40:06
Duration:04:42:28
</desc></wpt>
</gpx>