<?xml version='1.0' encoding='utf-8'?>
<gpx version="1.1" creator="Infofile GPX Generator">
<wpt lat = "50.43557" lon = "11.13876"><name>DAR1</name><desc>Start
Images:188
First:29.03.2025 08:46:41
Last:29.03.2025 09:16:39
Duration:00:29:58
</desc></wpt>
<wpt lat = "50.43557" lon = "11.13876"><name>DASC1</name><desc>Start
Images:457
First:29.03.2025 08:08:40
Last:29.03.2025 09:12:42
Duration:01:04:02
</desc></wpt>
<wpt lat = "50.43557" lon = "11.13876"><name>MERO1</name><desc>Start
Images:300
First:29.03.2025 08:14:52
Last:29.03.2025 09:12:35
Duration:00:57:43
</desc></wpt>
<wpt lat = "50.43557" lon = "11.13876"><name>ROH1</name><desc>Start
Images:565
First:29.03.2025 08:32:02
Last:29.03.2025 09:12:41
Duration:00:40:39
</desc></wpt>
<wpt lat = "50.43557" lon = "11.13876"><name>GUD1DRONE1</name><desc>Impressions / Pano
Images:16
First:29.03.2025 08:58:26
Last:29.03.2025 09:14:42
Duration:00:16:16
</desc></wpt>
<wpt lat = "50.43580" lon = "11.13644"><name>LPI1</name><desc>Obstacle 2 Kill Hill Hinweg
Images:199
First:29.03.2025 08:30:46
Last:29.03.2025 09:18:33
Duration:00:47:47
</desc></wpt>
<wpt lat = "50.43565" lon = "11.13733"><name>LPI2</name><desc>Obstacle 2 Kill Hill Rückweg
Images:4922
First:29.03.2025 09:49:23
Last:29.03.2025 14:00:39
Duration:04:11:16
</desc></wpt>
<wpt lat = "50.43350" lon = "11.14498"><name>GUD1</name><desc>Obstacle 19 Sandbag Carry
Images:5161
First:29.03.2025 10:02:59
Last:29.03.2025 13:20:44
Duration:03:17:45
</desc></wpt>
<wpt lat = "50.43350" lon = "11.14498"><name>GUD1LS1</name><desc>Obstacle 19 Sandbag Carry
Images:1269
First:29.03.2025 09:54:58
Last:29.03.2025 13:22:32
Duration:03:27:34
</desc></wpt>
<wpt lat = "50.43350" lon = "11.14498"><name>GUD1LS2</name><desc>Obstacle 19 Sandbag Carry
Images:1253
First:29.03.2025 09:53:58
Last:29.03.2025 13:22:32
Duration:03:28:34
</desc></wpt>
<wpt lat = "50.43291" lon = "11.14739"><name>MERO2</name><desc>Obstacle 20 Wall
Images:3973
First:29.03.2025 10:06:03
Last:29.03.2025 13:30:33
Duration:03:24:30
</desc></wpt>
<wpt lat = "50.43291" lon = "11.14739"><name>DAR3</name><desc>Obstacle 20 Wall
Images:301
First:29.03.2025 13:00:05
Last:29.03.2025 13:35:26
Duration:00:35:21
</desc></wpt>
<wpt lat = "50.43267" lon = "11.14884"><name>DAR2LS1</name><desc>Obstacle 29 Balance Beam
Images:810
First:29.03.2025 09:48:02
Last:29.03.2025 14:04:35
Duration:04:16:33
</desc></wpt>
<wpt lat = "50.43267" lon = "11.14884"><name>DAR2LS2</name><desc>Obstacle 29 Balance Beam
Images:540
First:29.03.2025 09:39:35
Last:29.03.2025 13:56:46
Duration:04:17:11
</desc></wpt>
<wpt lat = "50.43267" lon = "11.14884"><name>DASC2LS1</name><desc>Laufstrecke vor Obstacle 32 Slip Wall
Images:6354
First:29.03.2025 10:14:41
Last:29.03.2025 13:58:29
Duration:03:43:48
</desc></wpt>
<wpt lat = "50.43267" lon = "11.14884"><name>DAR2</name><desc>Obstacle 33 Nail it
Images:4344
First:29.03.2025 10:09:53
Last:29.03.2025 14:01:31
Duration:03:51:38
</desc></wpt>
<wpt lat = "50.43300" lon = "11.14908"><name>DASC2</name><desc>Obstacle 34 Multi Rig
Images:6474
First:29.03.2025 10:03:07
Last:29.03.2025 14:01:40
Duration:03:58:33
</desc></wpt>
<wpt lat = "50.43300" lon = "11.14908"><name>ROH2LS1</name><desc>Finish
Images:817
First:29.03.2025 09:47:55
Last:29.03.2025 14:04:41
Duration:04:16:46
</desc></wpt>
<wpt lat = "50.43300" lon = "11.14908"><name>ROH2LS2</name><desc>Finish
Images:803
First:29.03.2025 09:46:32
Last:29.03.2025 14:04:42
Duration:04:18:10
</desc></wpt>
<wpt lat = "50.43300" lon = "11.14908"><name>ROH2</name><desc>Herowall
Images:1474
First:29.03.2025 09:55:10
Last:29.03.2025 14:04:01
Duration:04:08:51
</desc></wpt>
</gpx>