<?xml version='1.0' encoding='utf-8'?>
<gpx version="1.1" creator="Infofile GPX Generator">
<wpt lat = "52.51588" lon = "13.37192"><name>MFR1</name><desc>Start
Images:6772
First:17.05.2025 12:51:29
Last:17.05.2025 19:20:50
Duration:06:29:21
</desc></wpt>
<wpt lat = "52.51589" lon = "13.37199"><name>BL1</name><desc>Start
Images:15340
First:17.05.2025 10:34:29
Last:17.05.2025 19:20:48
Duration:08:46:19
</desc></wpt>
<wpt lat = "52.51588" lon = "13.37192"><name>MFR1LS1</name><desc>Finish
Images:6852
First:17.05.2025 11:54:23
Last:17.05.2025 19:14:57
Duration:07:20:34
</desc></wpt>
<wpt lat = "52.51589" lon = "13.37199"><name>BL1LS1</name><desc>Finish
Images:1728
First:17.05.2025 13:42:17
Last:17.05.2025 17:51:43
Duration:04:09:26
</desc></wpt>
<wpt lat = "52.51495" lon = "13.36893"><name>GA1</name><desc>4,0 km
Images:4394
First:17.05.2025 14:18:44
Last:17.05.2025 16:41:55
Duration:02:23:11
</desc></wpt>
<wpt lat = "52.51322" lon = "13.35054"><name>MOIK1</name><desc>1,5 km
Images:5233
First:17.05.2025 12:20:14
Last:17.05.2025 18:13:19
Duration:05:53:05
</desc></wpt>
<wpt lat = "52.51353" lon = "13.35044"><name>CRIC1</name><desc>1,5 km
Images:6475
First:17.05.2025 12:59:42
Last:17.05.2025 18:13:18
Duration:05:13:36
</desc></wpt>
<wpt lat = "52.51353" lon = "13.35044"><name>CRIC1LS1</name><desc>1,5 km
Images:1652
First:17.05.2025 13:35:18
Last:17.05.2025 18:13:31
Duration:04:38:13
</desc></wpt>
<wpt lat = "52.51353" lon = "13.35044"><name>CRIC1LS2</name><desc>1,5 km
Images:1654
First:17.05.2025 13:35:18
Last:17.05.2025 18:13:32
Duration:04:38:14
</desc></wpt>
<wpt lat = "52.51052" lon = "13.35389"><name>FDC1</name><desc>2,0 km
Images:3787
First:17.05.2025 11:50:22
Last:17.05.2025 15:55:30
Duration:04:05:08
</desc></wpt>
<wpt lat = "52.51184" lon = "13.36539"><name>JRE1</name><desc>3,5 km
Images:14982
First:17.05.2025 11:50:49
Last:17.05.2025 18:36:33
Duration:06:45:44
</desc></wpt>
<wpt lat = "52.51198" lon = "13.35928"><name>FDC2</name><desc>7,3 km
Images:5148
First:17.05.2025 17:35:07
Last:17.05.2025 18:46:46
Duration:01:11:39
</desc></wpt>
<wpt lat = "52.51495" lon = "13.36893"><name>GA2</name><desc>8,6 km
Images:7615
First:17.05.2025 18:26:23
Last:17.05.2025 20:15:55
Duration:01:49:32
</desc></wpt>
<wpt lat = "52.51495" lon = "13.36893"><name>FAW1</name><desc>4,2 km
Images:6857
First:17.05.2025 12:12:33
Last:17.05.2025 19:07:42
Duration:06:55:09
</desc></wpt>
<wpt lat = "52.51324" lon = "13.37028"><name>FKE1</name><desc>4,5 km
Images:5503
First:17.05.2025 11:54:23
Last:17.05.2025 19:13:39
Duration:07:19:16
</desc></wpt>
<wpt lat = "52.51593" lon = "13.37347"><name>ABRI1</name><desc>4,9 km
Images:7695
First:17.05.2025 12:09:12
Last:17.05.2025 19:09:16
Duration:07:00:04
</desc></wpt>
</gpx>