<?xml version='1.0' encoding='utf-8'?>
<gpx version="1.1" creator="Infofile GPX Generator">
<wpt lat = "50.58754" lon = "5.97305"><name>BENP1</name><desc>Swim
Images:1044
First:09.08.2025 09:24:15
Last:09.08.2025 11:00:59
Duration:01:36:44
</desc></wpt>
<wpt lat = "50.58754" lon = "5.97305"><name>VL2</name><desc>Swim
Images:789
First:09.08.2025 09:24:10
Last:09.08.2025 14:10:28
Duration:04:46:18
</desc></wpt>
<wpt lat = "50.58849" lon = "5.96966"><name>MARBR1</name><desc>Bike - Transition zone
Images:2895
First:09.08.2025 09:26:34
Last:09.08.2025 10:51:39
Duration:01:25:05
</desc></wpt>
<wpt lat = "50.58849" lon = "5.96966"><name>VL4</name><desc>Bike - Transition zone
Images:37
First:09.08.2025 14:14:39
Last:09.08.2025 14:15:57
Duration:00:01:18
</desc></wpt>
<wpt lat = "50.58992" lon = "5.98028"><name>VL1</name><desc>Bike - 1.0 km
Images:148
First:09.08.2025 10:24:07
Last:09.08.2025 10:43:55
Duration:00:19:48
</desc></wpt>
<wpt lat = "50.58992" lon = "5.98028"><name>VL1LS1</name><desc>Bike - 1.0 km
Images:92
First:09.08.2025 10:32:17
Last:09.08.2025 10:44:33
Duration:00:12:16
</desc></wpt>
<wpt lat = "50.58390" lon = "5.97547"><name>STL1</name><desc>Bike - 1.5 km
Images:1216
First:09.08.2025 09:23:09
Last:09.08.2025 11:40:01
Duration:02:16:52
</desc></wpt>
<wpt lat = "50.58390" lon = "5.97547"><name>STL1LS1</name><desc>Bike - 1.5 km
Images:844
First:09.08.2025 09:48:45
Last:09.08.2025 10:46:07
Duration:00:57:22
</desc></wpt>
<wpt lat = "50.58849" lon = "5.96966"><name>VL5</name><desc>Bike - 18.0 km Sprint only
Images:868
First:09.08.2025 14:38:04
Last:09.08.2025 15:38:02
Duration:00:59:58
</desc></wpt>
<wpt lat = "50.58992" lon = "5.98028"><name>STL2</name><desc>2.0 km before finish
Images:2340
First:09.08.2025 11:52:58
Last:09.08.2025 16:52:41
Duration:04:59:43
</desc></wpt>
<wpt lat = "50.58992" lon = "5.98028"><name>STL2LS1</name><desc>2.0 km before finish
Images:53
First:09.08.2025 15:17:37
Last:09.08.2025 16:27:59
Duration:01:10:22
</desc></wpt>
<wpt lat = "50.58897" lon = "5.97429"><name>BENP2</name><desc>1.0 km before finish
Images:1779
First:09.08.2025 11:02:50
Last:09.08.2025 17:01:42
Duration:05:58:52
</desc></wpt>
<wpt lat = "50.58831" lon = "5.97231"><name>VL3</name><desc>Finish
Images:1227
First:09.08.2025 12:12:24
Last:09.08.2025 17:02:46
Duration:04:50:22
</desc></wpt>
<wpt lat = "50.58831" lon = "5.97231"><name>VL3LS1</name><desc>Finish
Images:1407
First:09.08.2025 11:49:45
Last:09.08.2025 17:00:30
Duration:05:10:45
</desc></wpt>
<wpt lat = "50.58831" lon = "5.97231"><name>MARBR2</name><desc>Finish
Images:4742
First:09.08.2025 10:57:58
Last:09.08.2025 16:34:02
Duration:05:36:04
</desc></wpt>
<wpt lat = "50.58831" lon = "5.97231"><name>VL1DRONE1</name><desc>Drone
Images:21
First:09.08.2025 09:47:46
Last:09.08.2025 14:56:53
Duration:05:09:07
</desc></wpt>
</gpx>