<?xml version='1.0' encoding='utf-8'?>
<gpx version="1.1" creator="Infofile GPX Generator">
<wpt lat = "50.58755" lon = "5.97027"><name>MARBR1</name><desc>Swim
Images:1382
First:10.08.2025 08:57:47
Last:10.08.2025 10:03:44
Duration:01:05:57
</desc></wpt>
<wpt lat = "50.58755" lon = "5.97027"><name>VL2</name><desc>Swim
Images:1666
First:10.08.2025 13:43:03
Last:10.08.2025 15:19:29
Duration:01:36:26
</desc></wpt>
<wpt lat = "50.58924" lon = "5.97240"><name>VL1</name><desc>Bike & Run 0.3 km
Images:749
First:10.08.2025 09:09:19
Last:10.08.2025 10:11:00
Duration:01:01:41
</desc></wpt>
<wpt lat = "50.58900" lon = "5.97166"><name>VL4</name><desc>Run - 4.5 km
Images:773
First:10.08.2025 11:31:54
Last:10.08.2025 12:13:38
Duration:00:41:44
</desc></wpt>
<wpt lat = "50.58924" lon = "5.97240"><name>VL1LS1</name><desc>Bike - 0.3 km
Images:1154
First:10.08.2025 09:01:08
Last:10.08.2025 10:26:04
Duration:01:24:56
</desc></wpt>
<wpt lat = "50.58924" lon = "5.97240"><name>VL1LS2</name><desc>Bike - 0.3 km
Images:959
First:10.08.2025 09:01:07
Last:10.08.2025 10:23:21
Duration:01:22:14
</desc></wpt>
<wpt lat = "50.58924" lon = "5.97240"><name>MARBR3</name><desc>Bike - 0.3 km
Images:1535
First:10.08.2025 14:26:00
Last:10.08.2025 15:59:00
Duration:01:33:00
</desc></wpt>
<wpt lat = "50.58837" lon = "5.96969"><name>STL1</name><desc>Bike - 1.0 km
Images:7079
First:10.08.2025 09:27:15
Last:10.08.2025 18:27:22
Duration:09:00:07
</desc></wpt>
<wpt lat = "50.58837" lon = "5.96969"><name>STL1LS1</name><desc>Bike - 1.0 km
Images:1635
First:10.08.2025 09:46:56
Last:10.08.2025 11:33:13
Duration:01:46:17
</desc></wpt>
<wpt lat = "50.58713" lon = "5.98494"><name>BENP1</name><desc>Bike - 1.5 km
Images:4278
First:10.08.2025 09:58:21
Last:10.08.2025 19:02:15
Duration:09:03:54
</desc></wpt>
<wpt lat = "50.58900" lon = "5.97166"><name>MARBR4</name><desc>Run - 9.5 km
Images:2632
First:10.08.2025 15:30:46
Last:10.08.2025 19:00:54
Duration:03:30:08
</desc></wpt>
<wpt lat = "50.58837" lon = "5.96969"><name>MARBR2</name><desc>Finish
Images:2337
First:10.08.2025 10:16:50
Last:10.08.2025 14:25:24
Duration:04:08:34
</desc></wpt>
<wpt lat = "50.58837" lon = "5.96969"><name>VL3</name><desc>Finish
Images:3899
First:10.08.2025 15:21:49
Last:10.08.2025 19:02:18
Duration:03:40:29
</desc></wpt>
<wpt lat = "50.58837" lon = "5.96969"><name>VL3LS1</name><desc>Finish
Images:2320
First:10.08.2025 10:36:47
Last:10.08.2025 19:00:38
Duration:08:23:51
</desc></wpt>
<wpt lat = "50.58837" lon = "5.96969"><name>STL1DRONE1</name><desc>Drone
Images:28
First:10.08.2025 07:57:19
Last:10.08.2025 13:01:03
Duration:05:03:44
</desc></wpt>
</gpx>