<?xml version='1.0' encoding='utf-8'?>
<gpx version="1.1" creator="Infofile GPX Generator">
<wpt lat = "43.69482" lon = "7.26398"><name>ALL1</name><desc>Swim - Transition zone
Images:4093
First:29.06.2025 05:51:29
Last:29.06.2025 10:04:59
Duration:04:13:30
</desc></wpt>
<wpt lat = "43.69482" lon = "7.26398"><name>ALL1LS1</name><desc>Swim - Transition zone
Images:3648
First:29.06.2025 06:10:09
Last:29.06.2025 10:37:05
Duration:04:26:56
</desc></wpt>
<wpt lat = "43.69468" lon = "7.26145"><name>ALL2</name><desc>Run - 41.0 km
Images:7278
First:29.06.2025 10:59:16
Last:29.06.2025 23:48:28
Duration:12:49:12
</desc></wpt>
<wpt lat = "43.69468" lon = "7.26145"><name>CC4</name><desc>Run - 41.0 km
Images:529
First:29.06.2025 15:34:33
Last:29.06.2025 20:20:24
Duration:04:45:51
</desc></wpt>
<wpt lat = "43.69477" lon = "7.26245"><name>ALL2LS1</name><desc>Finish
Images:7373
First:29.06.2025 10:37:31
Last:29.06.2025 23:50:43
Duration:13:13:12
</desc></wpt>
<wpt lat = "43.69477" lon = "7.26245"><name>CC5</name><desc>Finish
Images:1915
First:29.06.2025 10:25:00
Last:29.06.2025 19:21:02
Duration:08:56:02
</desc></wpt>
<wpt lat = "43.69477" lon = "7.26245"><name>DCC2</name><desc>Finish
Images:5647
First:29.06.2025 10:25:57
Last:29.06.2025 21:06:48
Duration:10:40:51
</desc></wpt>
<wpt lat = "43.69477" lon = "7.26245"><name>NBI2</name><desc>Finish
Images:1798
First:29.06.2025 21:04:59
Last:30.06.2025 00:01:09
Duration:02:56:10
</desc></wpt>
<wpt lat = "43.69477" lon = "7.26245"><name>RLLA2</name><desc>Finish
Images:3277
First:29.06.2025 21:02:24
Last:30.06.2025 00:01:08
Duration:02:58:44
</desc></wpt>
<wpt lat = "43.69477" lon = "7.26245"><name>SEI2</name><desc>Finish
Images:6900
First:29.06.2025 10:29:07
Last:29.06.2025 21:04:23
Duration:10:35:16
</desc></wpt>
<wpt lat = "43.69458" lon = "7.27133"><name>CC1</name><desc>Bike - 2.0 km
Images:10865
First:29.06.2025 06:52:58
Last:29.06.2025 10:02:31
Duration:03:09:33
</desc></wpt>
<wpt lat = "43.69438" lon = "7.25808"><name>CC2</name><desc>Run - 2.0 km
Images:2296
First:29.06.2025 11:08:26
Last:29.06.2025 19:41:47
Duration:08:33:21
</desc></wpt>
<wpt lat = "43.69438" lon = "7.25808"><name>DART2</name><desc>Run - 2.0 km
Images:11861
First:29.06.2025 09:20:56
Last:29.06.2025 21:00:29
Duration:11:39:33
</desc></wpt>
<wpt lat = "43.694" lon = "7.25483"><name>CC3</name><desc>Run - 3.0 km
Images:2377
First:29.06.2025 11:42:54
Last:29.06.2025 20:08:18
Duration:08:25:24
</desc></wpt>
<wpt lat = "43.694" lon = "7.25483"><name>LAPO2</name><desc>Run - 3.0 km
Images:6831
First:29.06.2025 09:19:32
Last:29.06.2025 21:01:56
Duration:11:42:24
</desc></wpt>
<wpt lat = "43.69479" lon = "7.27283"><name>DART1</name><desc>Swim - Start
Images:3218
First:29.06.2025 06:01:47
Last:29.06.2025 09:19:54
Duration:03:18:07
</desc></wpt>
<wpt lat = "43.69458" lon = "7.27133"><name>DCC1</name><desc>Swim - Start
Images:3059
First:29.06.2025 06:02:37
Last:29.06.2025 09:53:27
Duration:03:50:50
</desc></wpt>
<wpt lat = "43.69479" lon = "7.27283"><name>LAPO1</name><desc>Swim - Start
Images:2670
First:29.06.2025 06:03:19
Last:29.06.2025 07:46:34
Duration:01:43:15
</desc></wpt>
<wpt lat = "43.69458" lon = "7.27133"><name>SEI1</name><desc>Swim - Start
Images:3679
First:29.06.2025 06:04:37
Last:29.06.2025 09:53:28
Duration:03:48:51
</desc></wpt>
<wpt lat = "43.80066" lon = "7.08513"><name>LEBE1</name><desc>Bike - 150.0 km
Images:4073
First:29.06.2025 08:22:53
Last:29.06.2025 17:29:10
Duration:09:06:17
</desc></wpt>
<wpt lat = "43.80066" lon = "7.08513"><name>LEBE1DRONE1</name><desc>Bike - 150.0 km
Images:43
First:29.06.2025 07:58:13
Last:29.06.2025 10:43:48
Duration:02:45:35
</desc></wpt>
<wpt lat = "43.80066" lon = "7.08513"><name>LEBE1LS1</name><desc>Bike - 150.0 km
Images:2143
First:29.06.2025 07:37:37
Last:29.06.2025 17:21:14
Duration:09:43:37
</desc></wpt>
<wpt lat = "43.80066" lon = "7.08513"><name>MARY1</name><desc>Bike - 140.0 km
Images:11633
First:29.06.2025 08:21:08
Last:29.06.2025 17:15:13
Duration:08:54:05
</desc></wpt>
<wpt lat = "43.79604" lon = "6.91305"><name>NBI1</name><desc>Bike - 100.0 km
Images:2740
First:29.06.2025 11:09:53
Last:29.06.2025 16:25:40
Duration:05:15:47
</desc></wpt>
<wpt lat = "43.694" lon = "7.25483"><name>RLLA1</name><desc>Bike - 105.0 km
Images:4863
First:29.06.2025 10:43:14
Last:29.06.2025 16:05:44
Duration:05:22:30
</desc></wpt>
</gpx>