<?xml version='1.0' encoding='utf-8'?>
<gpx version="1.1" creator="Infofile GPX Generator">
<wpt lat = "-33.87485" lon = "151.22047"><name>ADTI1</name><desc>0.7 km William St
Images:4628
First:09.08.2025 17:58:19
Last:10.08.2025 10:02:29
Duration:16:04:10
</desc></wpt>
<wpt lat = "-33.87485" lon = "151.22047"><name>AJEK1</name><desc>0.7 km William St
Images:27117
First:09.08.2025 19:54:49
Last:10.08.2025 09:42:12
Duration:13:47:23
</desc></wpt>
<wpt lat = "-33.87485" lon = "151.22047"><name>AJEK1LS1</name><desc>0.7 km William St
Images:4493
First:09.08.2025 20:11:43
Last:10.08.2025 10:02:49
Duration:13:51:06
</desc></wpt>
<wpt lat = "-33.87485" lon = "151.22047"><name>AJEK2</name><desc>0.7 km William St
Images:1975
First:10.08.2025 09:42:51
Last:10.08.2025 10:01:45
Duration:00:18:54
</desc></wpt>
<wpt lat = "-33.87502" lon = "151.22015"><name>ADJA1</name><desc>1.0 km
Images:10037
First:10.08.2025 07:37:56
Last:10.08.2025 09:54:27
Duration:02:16:31
</desc></wpt>
<wpt lat = "-33.87498" lon = "151.22056"><name>ATPA1LS1</name><desc>1.0 km William St
Images:4346
First:09.08.2025 21:18:11
Last:10.08.2025 10:05:44
Duration:12:47:33
</desc></wpt>
<wpt lat = "-33.87538" lon = "151.22175"><name>ATPA1</name><desc>1.1 km William St
Images:6737
First:10.08.2025 07:10:28
Last:10.08.2025 10:01:08
Duration:02:50:40
</desc></wpt>
<wpt lat = "-33.87635" lon = "151.22543"><name>AACV1</name><desc>1.3 km Kings Cross Footway
Images:15534
First:09.08.2025 23:58:28
Last:10.08.2025 10:06:50
Duration:10:08:22
</desc></wpt>
<wpt lat = "-33.87635" lon = "151.22543"><name>AIAK1</name><desc>1.3 km Kings Cross Footway
Images:7952
First:10.08.2025 07:24:56
Last:10.08.2025 10:01:02
Duration:02:36:06
</desc></wpt>
<wpt lat = "-33.87635" lon = "151.22543"><name>AKH1</name><desc>1.3 km Kings Cross Footway
Images:10669
First:10.08.2025 07:00:32
Last:10.08.2025 10:07:55
Duration:03:07:23
</desc></wpt>
<wpt lat = "-33.87635" lon = "151.22543"><name>AROST1</name><desc>1.3 km Kings Cross Footway
Images:11538
First:10.08.2025 07:38:18
Last:10.08.2025 10:08:15
Duration:02:29:57
</desc></wpt>
<wpt lat = "-33.87635" lon = "151.22543"><name>ARUP1</name><desc>1.3 km Kings Cross Footway
Images:28095
First:10.08.2025 07:08:37
Last:10.08.2025 10:00:16
Duration:02:51:39
</desc></wpt>
<wpt lat = "-33.87203" lon = "151.25468"><name>BDPS1</name><desc>4.5 km Rosebay
Images:10293
First:10.08.2025 07:41:17
Last:10.08.2025 11:05:07
Duration:03:23:50
</desc></wpt>
<wpt lat = "-33.87203" lon = "151.25468"><name>BWP1</name><desc>4.5 km Rosebay
Images:5542
First:10.08.2025 09:49:37
Last:10.08.2025 11:04:49
Duration:01:15:12
</desc></wpt>
<wpt lat = "-33.87203" lon = "151.25468"><name>BWP2</name><desc>4.5 km Rosebay
Images:10097
First:09.08.2025 18:13:34
Last:10.08.2025 09:48:52
Duration:15:35:18
</desc></wpt>
<wpt lat = "-33.87226" lon = "151.25794"><name>ATOB1</name><desc>4.6 km Rosebay
Images:26387
First:09.08.2025 20:14:03
Last:10.08.2025 11:40:54
Duration:15:26:51
</desc></wpt>
<wpt lat = "-33.87226" lon = "151.25794"><name>ATOB1LS1</name><desc>4.6 km Rosebay
Images:5919
First:09.08.2025 20:10:39
Last:10.08.2025 11:08:07
Duration:14:57:28
</desc></wpt>
<wpt lat = "-33.87226" lon = "151.25794"><name>BVN1</name><desc>4.6 km Rosebay
Images:19661
First:09.08.2025 20:11:34
Last:10.08.2025 11:05:29
Duration:14:53:55
</desc></wpt>
<wpt lat = "-33.87226" lon = "151.25794"><name>BVN1LS1</name><desc>4.6 km Rosebay
Images:5682
First:10.08.2025 07:25:00
Last:10.08.2025 11:08:06
Duration:03:43:06
</desc></wpt>
<wpt lat = "-33.87246" lon = "151.25648"><name>BIGM1</name><desc>4.9 km Rosebay
Images:7996
First:10.08.2025 07:46:48
Last:10.08.2025 11:06:33
Duration:03:19:45
</desc></wpt>
<wpt lat = "-33.87259" lon = "151.25772"><name>BCHRM1</name><desc>5.0 km Rosebay
Images:25517
First:10.08.2025 07:06:19
Last:10.08.2025 11:07:02
Duration:04:00:43
</desc></wpt>
<wpt lat = "-33.87259" lon = "151.25772"><name>BCRBR1</name><desc>5.0 km Rosebay
Images:14786
First:10.08.2025 07:25:56
Last:10.08.2025 11:01:15
Duration:03:35:19
</desc></wpt>
<wpt lat = "-33.87259" lon = "151.25772"><name>BHMT1</name><desc>5.0 km Rosebay
Images:25912
First:10.08.2025 06:40:36
Last:10.08.2025 11:08:15
Duration:04:27:39
</desc></wpt>
<wpt lat = "-33.87259" lon = "151.25772"><name>BJV1</name><desc>5.0 km Rosebay
Images:12145
First:10.08.2025 06:37:23
Last:10.08.2025 11:08:44
Duration:04:31:21
</desc></wpt>
<wpt lat = "-33.87259" lon = "151.25772"><name>BJV1LS1</name><desc>5.0 km Rosebay
Images:3967
First:10.08.2025 06:35:39
Last:10.08.2025 11:12:56
Duration:04:37:17
</desc></wpt>
<wpt lat = "-33.86750" lon = "151.27172"><name>CCSM1</name><desc>6.4 km Heartbreak Hill
Images:32857
First:01.01.0001 23:00:00
Last:10.08.2025 11:28:04
Duration:739471.12:28:04
</desc></wpt>
<wpt lat = "-33.86750" lon = "151.27172"><name>CCSM2</name><desc>6.4 km Heartbreak Hill
Images:4386
First:10.08.2025 07:50:28
Last:10.08.2025 11:30:28
Duration:03:40:00
</desc></wpt>
<wpt lat = "-33.86750" lon = "151.27172"><name>CCSM2LS1</name><desc>6.4 km Heartbreak Hill
Images:4386
First:10.08.2025 07:50:28
Last:10.08.2025 11:30:28
Duration:03:40:00
</desc></wpt>
<wpt lat = "-33.86750" lon = "151.27172"><name>CLWI1</name><desc>6.4 km Heartbreak Hill
Images:20483
First:10.08.2025 06:58:56
Last:10.08.2025 11:27:04
Duration:04:28:08
</desc></wpt>
<wpt lat = "-33.86750" lon = "151.27172"><name>CTOSC1</name><desc>6.4 km Heartbreak Hill
Images:14306
First:09.08.2025 19:39:02
Last:10.08.2025 11:08:21
Duration:15:29:19
</desc></wpt>
<wpt lat = "-33.86750" lon = "151.27172"><name>CTOSC2LS1</name><desc>6.4 km Heartbreak Hill
Images:6725
First:01.01.0001 23:00:00
Last:10.08.2025 10:54:12
Duration:739471.11:54:12
</desc></wpt>
<wpt lat = "-33.86547" lon = "151.27282"><name>BBRE1</name><desc>6.6 km Heartbreak Hill
Images:13751
First:10.08.2025 06:40:37
Last:10.08.2025 11:31:26
Duration:04:50:49
</desc></wpt>
<wpt lat = "-33.86750" lon = "151.27172"><name>CTT1</name><desc>6.6 km Heartbreak Hill
Images:13695
First:10.08.2025 06:52:25
Last:10.08.2025 11:31:09
Duration:04:38:44
</desc></wpt>
<wpt lat = "-33.85936" lon = "151.27597"><name>CDTT1</name><desc>7.6 km Johnson's Lookout
Images:37782
First:10.08.2025 08:00:25
Last:10.08.2025 11:50:13
Duration:03:49:48
</desc></wpt>
<wpt lat = "-33.85936" lon = "151.27597"><name>CDTT2LS1</name><desc>7.6 km Johnson's Lookout
Images:6524
First:10.08.2025 07:57:31
Last:10.08.2025 11:50:55
Duration:03:53:24
</desc></wpt>
<wpt lat = "-33.85717" lon = "151.28256"><name>BTKU1</name><desc>8.3 km Grumpy Baker
Images:19626
First:10.08.2025 07:30:17
Last:10.08.2025 12:01:46
Duration:04:31:29
</desc></wpt>
<wpt lat = "-33.85717" lon = "151.28256"><name>CZMO1</name><desc>8.3 km Grumpy Baker
Images:13131
First:10.08.2025 07:26:52
Last:10.08.2025 11:59:44
Duration:04:32:52
</desc></wpt>
<wpt lat = "-33.89017" lon = "151.27899"><name>CVO1</name><desc>Finish
Images:18457
First:10.08.2025 07:19:02
Last:10.08.2025 13:24:32
Duration:06:05:30
</desc></wpt>
<wpt lat = "-33.89017" lon = "151.27899"><name>DABR1</name><desc>Finish
Images:21855
First:09.08.2025 12:34:29
Last:10.08.2025 13:32:36
Duration:1.00:58:07
</desc></wpt>
<wpt lat = "-33.89017" lon = "151.27899"><name>DABR1LS1</name><desc>Finish
Images:13973
First:10.08.2025 07:30:47
Last:10.08.2025 13:22:25
Duration:05:51:38
</desc></wpt>
<wpt lat = "-33.89017" lon = "151.27899"><name>DAMI1</name><desc>Finish
Images:88271
First:10.08.2025 08:15:28
Last:10.08.2025 13:39:39
Duration:05:24:11
</desc></wpt>
<wpt lat = "-33.89017" lon = "151.27899"><name>DAMI1LS1</name><desc>Finish
Images:6922
First:10.08.2025 07:59:21
Last:10.08.2025 13:52:55
Duration:05:53:34
</desc></wpt>
<wpt lat = "-33.89017" lon = "151.27899"><name>DIDS1</name><desc>Finish
Images:2174
First:10.08.2025 07:48:52
Last:10.08.2025 13:30:30
Duration:05:41:38
</desc></wpt>
<wpt lat = "-33.89017" lon = "151.27899"><name>DIDS1LS1</name><desc>Finish
Images:9217
First:10.08.2025 08:02:04
Last:10.08.2025 13:09:16
Duration:05:07:12
</desc></wpt>
<wpt lat = "-33.89017" lon = "151.27899"><name>DIDS1LS2</name><desc>Finish
Images:10930
First:10.08.2025 07:30:02
Last:10.08.2025 11:03:54
Duration:03:33:52
</desc></wpt>
<wpt lat = "-33.89017" lon = "151.27899"><name>DJUBA1</name><desc>Finish
Images:13295
First:10.08.2025 07:51:06
Last:10.08.2025 13:06:26
Duration:05:15:20
</desc></wpt>
<wpt lat = "-33.89017" lon = "151.27899"><name>DPAC1</name><desc>Finish
Images:11825
First:10.08.2025 07:44:32
Last:10.08.2025 13:33:06
Duration:05:48:34
</desc></wpt>
<wpt lat = "-33.89017" lon = "151.27899"><name>DVFV1</name><desc>Finish
Images:2697
First:10.08.2025 06:54:08
Last:10.08.2025 13:21:09
Duration:06:27:01
</desc></wpt>
<wpt lat = "-33.89017" lon = "151.27899"><name>EAP1</name><desc>Finish
Images:27784
First:01.01.0001 23:00:00
Last:10.08.2025 13:17:10
Duration:739471.14:17:10
</desc></wpt>
<wpt lat = "-33.89017" lon = "151.27899"><name>EESF1</name><desc>Finish
Images:8604
First:10.08.2025 07:07:33
Last:10.08.2025 13:20:38
Duration:06:13:05
</desc></wpt>
<wpt lat = "-33.89017" lon = "151.27899"><name>EIAF1</name><desc>Finish
Images:23517
First:10.08.2025 07:13:37
Last:10.08.2025 11:41:52
Duration:04:28:15
</desc></wpt>
<wpt lat = "-33.89017" lon = "151.27899"><name>JOSH1</name><desc>Finish
Images:14486
First:10.08.2025 08:15:30
Last:10.08.2025 12:59:59
Duration:04:44:29
</desc></wpt>
<wpt lat = "-33.89017" lon = "151.27899"><name>MFS1</name><desc>Finish
Images:15695
First:01.01.0001 23:00:00
Last:10.08.2025 13:21:22
Duration:739471.14:21:22
</desc></wpt>
</gpx>