<?xml version='1.0' encoding='utf-8'?>
<gpx version="1.1" creator="Infofile GPX Generator">
<wpt lat = "44.25837" lon = "12.36334"><name>FBO1</name><desc>Swim - Start
Images:2958
First:20.09.2025 06:54:23
Last:21.09.2025 14:08:04
Duration:1.07:13:41
</desc></wpt>
<wpt lat = "44.25490" lon = "12.36468"><name>YG1</name><desc>Swim - Start
Images:2879
First:21.09.2025 12:15:14
Last:21.09.2025 14:58:37
Duration:02:43:23
</desc></wpt>
<wpt lat = "44.25512" lon = "12.36531"><name>FME1</name><desc>Swim - Start
Images:3341
First:21.09.2025 12:22:50
Last:21.09.2025 14:56:46
Duration:02:33:56
</desc></wpt>
<wpt lat = "44.25837" lon = "12.36334"><name>EO1</name><desc>Swim - Start
Images:3477
First:20.09.2025 06:56:41
Last:21.09.2025 14:08:17
Duration:1.07:11:36
</desc></wpt>
<wpt lat = "44.24941" lon = "12.36587"><name>BRP1</name><desc>Swim - Transition zone
Images:4584
First:20.09.2025 07:24:59
Last:21.09.2025 15:25:50
Duration:1.08:00:51
</desc></wpt>
<wpt lat = "44.24035" lon = "12.32429"><name>FRI1</name><desc>Bike - 8.5 km
Images:2427
First:20.09.2025 06:58:02
Last:21.09.2025 15:07:43
Duration:1.08:09:41
</desc></wpt>
<wpt lat = "44.24386" lon = "12.32923"><name>RABI1</name><desc>Bike - 9.3 km
Images:2712
First:20.09.2025 07:02:38
Last:21.09.2025 15:08:30
Duration:1.08:05:52
</desc></wpt>
<wpt lat = "44.18687" lon = "12.12594"><name>SMO1</name><desc>Bike - 41.0 km
Images:2368
First:21.09.2025 13:15:28
Last:21.09.2025 16:07:00
Duration:02:51:32
</desc></wpt>
<wpt lat = "44.24386" lon = "12.32923"><name>RABI2</name><desc>Bike - 80.2 km 28.9
Images:1960
First:21.09.2025 15:11:43
Last:21.09.2025 18:12:45
Duration:03:01:02
</desc></wpt>
<wpt lat = "44.24035" lon = "12.32429"><name>FRI2</name><desc>Bike - 81.0 km 29.7
Images:1996
First:21.09.2025 15:16:41
Last:21.09.2025 18:14:24
Duration:02:57:43
</desc></wpt>
<wpt lat = "44.26447" lon = "12.35242"><name>FME2</name><desc>Run - 8.4 km
Images:5210
First:21.09.2025 15:37:44
Last:21.09.2025 18:51:06
Duration:03:13:22
</desc></wpt>
<wpt lat = "44.26307" lon = "12.35516"><name>YG2</name><desc>Run - 15.0 km
Images:5706
First:21.09.2025 15:32:24
Last:21.09.2025 18:53:52
Duration:03:21:28
</desc></wpt>
<wpt lat = "44.25523" lon = "12.36432"><name>BRP2</name><desc>Finish
Images:4429
First:20.09.2025 14:31:19
Last:21.09.2025 21:09:22
Duration:1.06:38:03
</desc></wpt>
<wpt lat = "44.25523" lon = "12.36432"><name>BRP2LS1</name><desc>Finish
Images:2545
First:20.09.2025 12:54:40
Last:21.09.2025 21:09:36
Duration:1.08:14:56
</desc></wpt>
<wpt lat = "44.25523" lon = "12.36432"><name>EO2</name><desc>Finish
Images:3445
First:20.09.2025 11:41:09
Last:21.09.2025 21:09:29
Duration:1.09:28:20
</desc></wpt>
<wpt lat = "44.25523" lon = "12.36432"><name>EO2LS2</name><desc>Finish
Images:2394
First:21.09.2025 15:22:35
Last:21.09.2025 20:51:36
Duration:05:29:01
</desc></wpt>
<wpt lat = "44.25523" lon = "12.36432"><name>EO2LS1</name><desc>Finish
Images:2473
First:21.09.2025 16:05:37
Last:21.09.2025 20:49:02
Duration:04:43:25
</desc></wpt>
<wpt lat = "44.25523" lon = "12.36432"><name>FBO2</name><desc>Finish
Images:3867
First:21.09.2025 15:21:24
Last:21.09.2025 21:04:35
Duration:05:43:11
</desc></wpt>
<wpt lat = "44.25523" lon = "12.36432"><name>FRI1DRONE1</name><desc>Finish
Images:18
First:20.09.2025 18:29:59
Last:21.09.2025 09:15:30
Duration:14:45:31
</desc></wpt>
</gpx>