<?xml version='1.0' encoding='utf-8'?>
<gpx version="1.1" creator="Infofile GPX Generator">
<wpt lat = "14.45363" lon = "120.42199"><name>LMD1</name><desc>Swim - Impressions / Pano
Images:297
First:16.11.2025 03:02:33
Last:16.11.2025 04:22:06
Duration:01:19:33
</desc></wpt>
<wpt lat = "14.43956" lon = "120.49782"><name>DCL1</name><desc>Swim - Impressions / Pano
Images:79
First:16.11.2025 04:39:38
Last:16.11.2025 06:13:07
Duration:01:33:29
</desc></wpt>
<wpt lat = "14.45308" lon = "120.42124"><name>LMD2</name><desc>Swim - Start
Images:1208
First:16.11.2025 04:23:51
Last:16.11.2025 05:23:54
Duration:01:00:03
</desc></wpt>
<wpt lat = "14.4529" lon = "120.42164"><name>LMD3</name><desc>Swim - Transition zone
Images:3461
First:16.11.2025 05:24:31
Last:16.11.2025 06:11:25
Duration:00:46:54
</desc></wpt>
<wpt lat = "14.47981" lon = "120.44424"><name>IMH1</name><desc>Bike - Impressions / Pano
Images:1
First:16.11.2025 05:20:38
Last:16.11.2025 05:20:38
Duration:00:00:00
</desc></wpt>
<wpt lat = "14.47981" lon = "120.44424"><name>IMH2</name><desc>Bike - 0,0 km
Images:1181
First:16.11.2025 04:51:01
Last:16.11.2025 08:25:35
Duration:03:34:34
</desc></wpt>
<wpt lat = "14.49225" lon = "120.42769"><name>LMD4</name><desc>Bike - 0,0 km
Images:2465
First:16.11.2025 06:34:39
Last:16.11.2025 08:10:26
Duration:01:35:47
</desc></wpt>
<wpt lat = "14.44574" lon = "120.50636"><name>PCT1</name><desc>Run - Impressions / Pano
Images:73
First:16.11.2025 05:33:26
Last:16.11.2025 07:13:01
Duration:01:39:35
</desc></wpt>
<wpt lat = "14.44574" lon = "120.50636"><name>PCT2</name><desc>Run - 0,0 km
Images:3102
First:16.11.2025 06:20:49
Last:16.11.2025 09:49:20
Duration:03:28:31
</desc></wpt>
<wpt lat = "14.44574" lon = "120.50636"><name>PCT2LS1</name><desc>Run - 0,0 km
Images:395
First:16.11.2025 06:18:33
Last:16.11.2025 09:49:23
Duration:03:30:50
</desc></wpt>
<wpt lat = "14.44574" lon = "120.50636"><name>PCT2LS2</name><desc>Run - 0,0 km
Images:294
First:16.11.2025 07:13:51
Last:16.11.2025 10:00:22
Duration:02:46:31
</desc></wpt>
<wpt lat = "14.44574" lon = "120.50636"><name>IMH3</name><desc>Run - 0,0 km
Images:133
First:16.11.2025 09:31:04
Last:16.11.2025 09:55:45
Duration:00:24:41
</desc></wpt>
<wpt lat = "14.43956" lon = "120.49782"><name>DCL2</name><desc>Finish
Images:2873
First:16.11.2025 06:00:08
Last:16.11.2025 10:44:50
Duration:04:44:42
</desc></wpt>
<wpt lat = "14.43956" lon = "120.49782"><name>DCL2LS1</name><desc>Finish
Images:1811
First:16.11.2025 05:18:05
Last:16.11.2025 10:53:54
Duration:05:35:49
</desc></wpt>
<wpt lat = "14.43956" lon = "120.49782"><name>LMD5</name><desc>Finish
Images:319
First:16.11.2025 08:51:35
Last:16.11.2025 10:13:13
Duration:01:21:38
</desc></wpt>
</gpx>