<?xml version='1.0' encoding='utf-8'?>
<gpx version="1.1" creator="Infofile GPX Generator">
<wpt lat = "43.17125" lon = "16.44125"><name>BRP1</name><desc>Start
Images:1041
First:01.01.0001 23:00:00
Last:12.10.2025 10:28:28
Duration:739534.11:28:28
</desc></wpt>
<wpt lat = "43.17396" lon = "16.42849"><name>GIBE1</name><desc>SWIM IN
Images:10996
First:11.10.2025 08:33:00
Last:12.10.2025 14:58:20
Duration:1.06:25:20
</desc></wpt>
<wpt lat = "43.17347" lon = "16.42966"><name>DARU1</name><desc>LOG CARRY
Images:6725
First:12.10.2025 08:11:00
Last:12.10.2025 14:52:37
Duration:06:41:37
</desc></wpt>
<wpt lat = "43.17347" lon = "16.42966"><name>DARU1LS1</name><desc>LOG CARRY
Images:5374
First:12.10.2025 08:11:06
Last:12.10.2025 19:08:24
Duration:10:57:18
</desc></wpt>
<wpt lat = "43.17347" lon = "16.42969"><name>DARU1DRONE1</name><desc>Impressions / Pano
Images:23
First:11.10.2025 08:39:22
Last:12.10.2025 09:08:22
Duration:1.00:29:00
</desc></wpt>
<wpt lat = "43.17465" lon = "16.44201"><name>MMI1</name><desc>SAND BAG
Images:5903
First:11.10.2025 09:33:11
Last:12.10.2025 15:33:55
Duration:1.06:00:44
</desc></wpt>
<wpt lat = "43.17465" lon = "16.44201"><name>MMI1LS1</name><desc>SAND BAG
Images:7690
First:11.10.2025 08:56:09
Last:12.10.2025 13:24:54
Duration:1.04:28:45
</desc></wpt>
<wpt lat = "43.17465" lon = "16.44201"><name>MMI1LS2</name><desc>SAND BAG
Images:187
First:12.10.2025 13:24:55
Last:12.10.2025 15:36:04
Duration:02:11:09
</desc></wpt>
<wpt lat = "43.17465" lon = "16.44201"><name>LULE1</name><desc>SAND BAG
Images:4934
First:12.10.2025 09:32:31
Last:12.10.2025 15:30:42
Duration:05:58:11
</desc></wpt>
<wpt lat = "43.17465" lon = "16.44201"><name>LULE2LS1</name><desc>SAND BAG
Images:398
First:12.10.2025 17:11:54
Last:12.10.2025 17:11:54
Duration:00:00:00
</desc></wpt>
<wpt lat = "43.16987" lon = "16.44126"><name>BATI1</name><desc>FRAME
Images:7668
First:11.10.2025 08:43:23
Last:12.10.2025 18:05:51
Duration:1.09:22:28
</desc></wpt>
<wpt lat = "43.16965" lon = "16.44130"><name>NBE1</name><desc>SWIM OUT
Images:5063
First:11.10.2025 08:57:41
Last:12.10.2025 18:05:30
Duration:1.09:07:49
</desc></wpt>
<wpt lat = "43.17125" lon = "16.44125"><name>BRP2</name><desc>Finish
Images:6350
First:01.01.0001 23:00:00
Last:12.10.2025 18:11:35
Duration:739534.19:11:35
</desc></wpt>
<wpt lat = "43.17125" lon = "16.44125"><name>BRP2LS1</name><desc>Finish
Images:3300
First:12.10.2025 11:44:20
Last:12.10.2025 17:59:12
Duration:06:14:52
</desc></wpt>
<wpt lat = "43.17125" lon = "16.44125"><name>LULE1LS1</name><desc>Finish
Images:2341
First:12.10.2025 10:18:46
Last:12.10.2025 16:33:45
Duration:06:14:59
</desc></wpt>
<wpt lat = "43.17125" lon = "16.44125"><name>SALI1</name><desc>Herotent
Images:3627
First:11.10.2025 08:12:17
Last:12.10.2025 18:17:11
Duration:1.10:04:54
</desc></wpt>
</gpx>