<?xml version='1.0' encoding='utf-8'?>
<gpx version="1.1" creator="Infofile GPX Generator">
<wpt lat = "51.26106" lon = "12.40402"><name>TIM1</name><desc>Laufstrecke zwischen Obstacle 7 Treibsand und Obstacle 8 Ententeich
Images:5837
First:28.09.2025 10:15:39
Last:28.09.2025 14:02:37
Duration:03:46:58
</desc></wpt>
<wpt lat = "51.25530" lon = "12.42289"><name>SJK1</name><desc>Obstacle 21 Poolparty
Images:2673
First:28.09.2025 09:22:12
Last:28.09.2025 14:57:27
Duration:05:35:15
</desc></wpt>
<wpt lat = "51.25797" lon = "12.42592"><name>GUD1LS1</name><desc>Laufstrecke vor Obstacle 23 Monkey Bar
Images:1503
First:28.09.2025 09:43:55
Last:28.09.2025 15:15:21
Duration:05:31:26
</desc></wpt>
<wpt lat = "51.25797" lon = "12.42592"><name>GUD1LS2</name><desc>Laufstrecke vor Obstacle 23 Monkey Bar
Images:1388
First:28.09.2025 09:44:09
Last:28.09.2025 15:15:21
Duration:05:31:12
</desc></wpt>
<wpt lat = "51.25866" lon = "12.42594"><name>GUD1</name><desc>Obstacle 23 Monkey Bar
Images:11328
First:28.09.2025 10:39:24
Last:28.09.2025 15:06:40
Duration:04:27:16
</desc></wpt>
<wpt lat = "51.25711" lon = "12.42917"><name>DAR1</name><desc>Obstacle 25 Crawl Shower
Images:10880
First:28.09.2025 09:44:58
Last:28.09.2025 15:17:21
Duration:05:32:23
</desc></wpt>
<wpt lat = "51.25711" lon = "12.42917"><name>DAR1LS1</name><desc>Laufstrecke nach Obstacle 25 Crawl Shower
Images:1671
First:28.09.2025 09:24:55
Last:28.09.2025 15:17:24
Duration:05:52:29
</desc></wpt>
<wpt lat = "51.25659" lon = "12.42935"><name>MIH1</name><desc>Obstacle 26 Hoellenrausch
Images:16504
First:28.09.2025 09:27:19
Last:28.09.2025 15:18:15
Duration:05:50:56
</desc></wpt>
<wpt lat = "51.25659" lon = "12.42935"><name>MIH1LS1</name><desc>Obstacle 26 Hoellenrausch
Images:333
First:28.09.2025 14:20:16
Last:28.09.2025 15:21:46
Duration:01:01:30
</desc></wpt>
<wpt lat = "51.25385" lon = "12.42316"><name>MERO1LS1</name><desc>Laufstrecke vor Obstacle 31 Gib Gumi
Images:2042
First:28.09.2025 09:25:03
Last:28.09.2025 15:44:21
Duration:06:19:18
</desc></wpt>
<wpt lat = "51.25411" lon = "12.42307"><name>MERO1</name><desc>Obstacle 31 Gib Gummi
Images:13470
First:28.09.2025 10:24:05
Last:28.09.2025 15:42:11
Duration:05:18:06
</desc></wpt>
<wpt lat = "51.25485" lon = "12.42354"><name>RIS1</name><desc>Obstacle 34 Schlammschlacht
Images:9421
First:28.09.2025 10:44:55
Last:28.09.2025 15:46:17
Duration:05:01:22
</desc></wpt>
<wpt lat = "51.25537" lon = "12.42339"><name>TIH1LS1</name><desc>Finish
Images:1984
First:28.09.2025 09:31:31
Last:28.09.2025 15:47:40
Duration:06:16:09
</desc></wpt>
<wpt lat = "51.25540" lon = "12.42332"><name>TIH1</name><desc>Herotent
Images:2151
First:28.09.2025 09:03:21
Last:28.09.2025 15:48:26
Duration:06:45:05
</desc></wpt>
<wpt lat = "51.25537" lon = "12.42339"><name>GUD1DRONE1</name><desc>Impressions / Pano
Images:6
First:28.09.2025 09:55:15
Last:28.09.2025 10:03:59
Duration:00:08:44
</desc></wpt>
</gpx>