<?xml version='1.0' encoding='utf-8'?>
<gpx version="1.1" creator="Infofile GPX Generator">
<wpt lat = "35.20130" lon = "-78.94269"><name>KAH1</name><desc>Obstacle 23 Bucket Carry
Images:7909
First:02.05.2025 23:23:37
Last:04.05.2025 08:24:03
Duration:1.09:00:26
</desc></wpt>
<wpt lat = "35.20130" lon = "-78.94269"><name>VICY2</name><desc>Obstacle 23 Bucket Carry
Images:475
First:03.05.2025 11:01:41
Last:03.05.2025 15:50:46
Duration:04:49:05
</desc></wpt>
<wpt lat = "35.20280" lon = "-78.93811"><name>MCKR1</name><desc>Swamp
Images:9366
First:03.05.2025 08:40:28
Last:04.05.2025 08:05:23
Duration:23:24:55
</desc></wpt>
<wpt lat = "35.20513" lon = "-78.93252"><name>TRC1</name><desc>Obstacle 26 Dunk Wall
Images:13747
First:02.05.2025 19:24:55
Last:04.05.2025 08:24:42
Duration:1.12:59:47
</desc></wpt>
<wpt lat = "35.20513" lon = "-78.93252"><name>VICY3</name><desc>Obstacle 26 Dunk Wall
Images:190
First:03.05.2025 16:08:57
Last:03.05.2025 16:16:49
Duration:00:07:52
</desc></wpt>
<wpt lat = "35.20505" lon = "-78.93269"><name>DAHI1</name><desc>Obstacle 27 Slip Wall
Images:8829
First:03.05.2025 08:46:03
Last:04.05.2025 08:07:54
Duration:23:21:51
</desc></wpt>
<wpt lat = "35.20505" lon = "-78.93269"><name>VICY5</name><desc>Obstacle 27 Slip Wall
Images:142
First:03.05.2025 11:43:41
Last:03.05.2025 11:47:43
Duration:00:04:02
</desc></wpt>
<wpt lat = "35.20475" lon = "-78.93052"><name>BESC1</name><desc>Obstacle 31 Multi-Rig
Images:16707
First:31.12.2015 18:00:00
Last:03.05.2025 20:05:43
Duration:3411.02:05:43
</desc></wpt>
<wpt lat = "35.20475" lon = "-78.93052"><name>TFUL1</name><desc>Obstacle 31 Multi-Rig
Images:11591
First:03.05.2025 08:57:13
Last:04.05.2025 08:11:13
Duration:23:14:00
</desc></wpt>
<wpt lat = "35.20469" lon = "-78.93075"><name>MSK1</name><desc>Obstacle 33 Craft A-Frame Cargo
Images:7532
First:03.05.2025 08:40:43
Last:03.05.2025 20:11:56
Duration:11:31:13
</desc></wpt>
<wpt lat = "35.20469" lon = "-78.93075"><name>VICY1</name><desc>Obstacle 33 Craft A-Frame Cargo
Images:597
First:03.05.2025 11:53:29
Last:03.05.2025 17:16:20
Duration:05:22:51
</desc></wpt>
<wpt lat = "35.21042" lon = "-78.93332"><name>DBCH1</name><desc>Obstacle 34 Fire Jump
Images:53279
First:03.05.2025 08:53:42
Last:04.05.2025 08:03:12
Duration:23:09:30
</desc></wpt>
<wpt lat = "35.21042" lon = "-78.93332"><name>VICY4</name><desc>Obstacle 34 Fire Jump
Images:429
First:03.05.2025 12:12:32
Last:03.05.2025 17:02:24
Duration:04:49:52
</desc></wpt>
<wpt lat = "35.20552" lon = "-78.93136"><name>JEFL1</name><desc>Herotent
Images:2002
First:03.05.2025 08:16:34
Last:03.05.2025 20:16:48
Duration:12:00:14
</desc></wpt>
<wpt lat = "35.20505" lon = "-78.93269"><name>VICY6</name><desc>Venue
Images:297
First:03.05.2025 08:38:26
Last:04.05.2025 08:33:56
Duration:23:55:30
</desc></wpt>
</gpx>