<?xml version='1.0' encoding='utf-8'?>
<gpx version="1.1" creator="Infofile GPX Generator">
<wpt lat = "43.41815" lon = "6.73725"><name>LEBE1</name><desc>Start
Images:193
First:09.10.2025 07:35:06
Last:09.10.2025 09:45:51
Duration:02:10:45
</desc></wpt>
<wpt lat = "43.44255" lon = "6.63671"><name>JLTG1</name><desc>Start
Images:444
First:09.10.2025 08:23:12
Last:09.10.2025 10:53:31
Duration:02:30:19
</desc></wpt>
<wpt lat = "43.42761" lon = "6.84947"><name>CHR1</name><desc>Start
Images:128
First:09.10.2025 07:44:48
Last:09.10.2025 09:04:57
Duration:01:20:09
</desc></wpt>
<wpt lat = "43.42761" lon = "6.84947"><name>COR2</name><desc>Start
Images:160
First:09.10.2025 07:42:45
Last:09.10.2025 08:05:40
Duration:00:22:55
</desc></wpt>
<wpt lat = "43.39125" lon = "6.69716"><name>ALL1</name><desc>L'Agriotier uphill KM8.6
Images:3350
First:09.10.2025 08:19:41
Last:09.10.2025 11:42:47
Duration:03:23:06
</desc></wpt>
<wpt lat = "43.39125" lon = "6.69716"><name>ALL1LS1</name><desc>L'Agriotier uphill KM8.6
Images:5404
First:09.10.2025 08:15:49
Last:09.10.2025 11:43:29
Duration:03:27:40
</desc></wpt>
<wpt lat = "43.38789" lon = "6.69208"><name>EP1</name><desc>L'Agriotier Panorama
Images:3674
First:09.10.2025 08:21:59
Last:09.10.2025 11:56:32
Duration:03:34:33
</desc></wpt>
<wpt lat = "43.38789" lon = "6.69208"><name>EP1LS1</name><desc>L'Agriotier Panorama
Images:4599
First:09.10.2025 08:22:29
Last:09.10.2025 11:44:57
Duration:03:22:28
</desc></wpt>
<wpt lat = "43.39316" lon = "6.67713"><name>BP1</name><desc>Descente de Fournel
Images:2892
First:09.10.2025 08:31:31
Last:09.10.2025 11:58:48
Duration:03:27:17
</desc></wpt>
<wpt lat = "43.39316" lon = "6.67713"><name>BP1LS1</name><desc>Descente de Fournel
Images:5063
First:09.10.2025 08:06:46
Last:09.10.2025 12:22:07
Duration:04:15:21
</desc></wpt>
<wpt lat = "43.39316" lon = "6.67713"><name>BP1LS2</name><desc>Descente de Fournel
Images:4937
First:09.10.2025 08:23:53
Last:09.10.2025 11:35:35
Duration:03:11:42
</desc></wpt>
<wpt lat = "43.36732" lon = "6.66832"><name>TGM1</name><desc>Mid Roc KM20.18, Master Roc KM20.13, Garmin Roc KM19.71, Rando Altitude KM19.8, Roc Tandem KM20.13
Images:5742
First:09.10.2025 08:47:33
Last:09.10.2025 13:33:42
Duration:04:46:09
</desc></wpt>
<wpt lat = "43.36732" lon = "6.66832"><name>TGM1LS1</name><desc>Mid Roc KM20.18, Master Roc KM20.13, Garmin Roc KM19.71, Rando Altitude KM19.8, Roc Tandem KM20.13
Images:1842
First:09.10.2025 08:24:00
Last:09.10.2025 13:19:34
Duration:04:55:34
</desc></wpt>
<wpt lat = "43.36732" lon = "6.66832"><name>TGM1LS2</name><desc>Mid Roc KM20.18, Master Roc KM20.13, Garmin Roc KM19.71, Rando Altitude KM19.8, Roc Tandem KM20.13
Images:2344
First:09.10.2025 08:57:09
Last:09.10.2025 13:37:39
Duration:04:40:30
</desc></wpt>
<wpt lat = "43.36541" lon = "6.68153"><name>MARY1</name><desc>Master Roc KM21.5, Garmin Roc KM21.02, Rando Altitude KM21.09, Roc Tandem KM21.47
Images:7802
First:09.10.2025 08:56:01
Last:09.10.2025 14:08:19
Duration:05:12:18
</desc></wpt>
<wpt lat = "43.37822" lon = "6.70033"><name>ROB1</name><desc>Mid Roc KM23.9, Master Roc KM29.7, Garmin Roc KM29, Rando Altitude KM29.4, Roc Tandem KM29.7
Images:1924
First:09.10.2025 09:02:19
Last:09.10.2025 14:20:26
Duration:05:18:07
</desc></wpt>
<wpt lat = "43.37822" lon = "6.70033"><name>ROB1LS1</name><desc>Mid Roc KM23.9, Master Roc KM29.7, Garmin Roc KM29, Rando Altitude KM29.4, Roc Tandem KM29.7
Images:3739
First:09.10.2025 09:01:24
Last:09.10.2025 14:31:59
Duration:05:30:35
</desc></wpt>
<wpt lat = "43.37822" lon = "6.70033"><name>ROB1LS2</name><desc>Mid Roc KM23.9, Master Roc KM29.7, Garmin Roc KM29, Rando Altitude KM29.4, Roc Tandem KM29.7
Images:3279
First:09.10.2025 08:28:39
Last:09.10.2025 13:48:05
Duration:05:19:26
</desc></wpt>
<wpt lat = "43.39914" lon = "6.70605"><name>BRN1</name><desc>Mid Roc KM26.95, Master Roc KM32.7, Garmin Roc KM32, Rando Altitude KM32.3, Roc Tandem KM32.7
Images:3936
First:09.10.2025 10:26:29
Last:09.10.2025 17:54:08
Duration:07:27:39
</desc></wpt>
<wpt lat = "43.39914" lon = "6.70605"><name>BRN1LS1</name><desc>Mid Roc KM26.95, Master Roc KM32.7, Garmin Roc KM32, Rando Altitude KM32.3, Roc Tandem KM32.7
Images:3347
First:09.10.2025 09:17:05
Last:09.10.2025 15:53:25
Duration:06:36:20
</desc></wpt>
<wpt lat = "43.39914" lon = "6.70605"><name>BRN1LS2</name><desc>Mid Roc KM26.95, Master Roc KM32.7, Garmin Roc KM32, Rando Altitude KM32.3, Roc Tandem KM32.7
Images:3810
First:09.10.2025 09:34:49
Last:09.10.2025 15:55:57
Duration:06:21:08
</desc></wpt>
<wpt lat = "43.39537" lon = "6.70599"><name>ARF1</name><desc>Mid Roc KM27.2, Master Roc KM33, Garmin Roc KM32.3, Rando Altitude KM32.6, Roc Tandem KM33
Images:4286
First:09.10.2025 09:12:14
Last:09.10.2025 15:48:12
Duration:06:35:58
</desc></wpt>
<wpt lat = "43.40211" lon = "6.70717"><name>MAGA1</name><desc>Mid Roc KM27.9, Master Roc KM33.7, Garmin Roc KM33, Rando Altitude KM33.3, Roc Tandem KM33.7
Images:3310
First:09.10.2025 09:54:19
Last:09.10.2025 15:55:59
Duration:06:01:40
</desc></wpt>
<wpt lat = "43.40211" lon = "6.70717"><name>MAGA1LS1</name><desc>Mid Roc KM27.9, Master Roc KM33.7, Garmin Roc KM33, Rando Altitude KM33.3, Roc Tandem KM33.7
Images:2312
First:09.10.2025 09:42:44
Last:09.10.2025 15:58:02
Duration:06:15:18
</desc></wpt>
<wpt lat = "43.40211" lon = "6.70717"><name>MAGA1LS2</name><desc>Mid Roc KM27.9, Master Roc KM33.7, Garmin Roc KM33, Rando Altitude KM33.3, Roc Tandem KM33.7
Images:2339
First:09.10.2025 09:28:49
Last:09.10.2025 15:57:28
Duration:06:28:39
</desc></wpt>
<wpt lat = "43.39366" lon = "6.72778"><name>HS1</name><desc>Bridge 4KM before the finish
Images:3817
First:09.10.2025 07:06:01
Last:09.10.2025 16:05:51
Duration:08:59:50
</desc></wpt>
<wpt lat = "43.39366" lon = "6.72778"><name>HS1LS1</name><desc>Bridge 4KM before the finish
Images:2078
First:09.10.2025 09:18:56
Last:09.10.2025 15:43:42
Duration:06:24:46
</desc></wpt>
<wpt lat = "43.39366" lon = "6.72778"><name>HS1LS2</name><desc>Bridge 4KM before the finish
Images:1871
First:09.10.2025 08:52:34
Last:09.10.2025 14:18:23
Duration:05:25:49
</desc></wpt>
<wpt lat = "43.43421" lon = "6.63446"><name>STO1</name><desc>Aqueduc de Roquebrune sur argens
Images:802
First:09.10.2025 09:03:24
Last:09.10.2025 10:24:07
Duration:01:20:43
</desc></wpt>
<wpt lat = "43.43421" lon = "6.63446"><name>STO1LS1</name><desc>Aqueduc de Roquebrune sur argens
Images:454
First:09.10.2025 08:12:21
Last:09.10.2025 10:24:11
Duration:02:11:50
</desc></wpt>
<wpt lat = "43.42629" lon = "6.64709"><name>MIFP1</name><desc>Rando Enduro&Roc Trophy KM5
Images:1365
First:09.10.2025 09:11:52
Last:09.10.2025 10:46:37
Duration:01:34:45
</desc></wpt>
<wpt lat = "43.42629" lon = "6.64709"><name>MIFP1LS1</name><desc>Rando Enduro&Roc Trophy KM5
Images:436
First:09.10.2025 08:20:54
Last:09.10.2025 10:46:50
Duration:02:25:56
</desc></wpt>
<wpt lat = "43.44018" lon = "6.62768"><name>MIFP2</name><desc>Rando Enduro&Roc Trophy 2KM before finish
Images:2045
First:09.10.2025 11:18:03
Last:09.10.2025 14:46:49
Duration:03:28:46
</desc></wpt>
<wpt lat = "43.44018" lon = "6.62768"><name>MIFP2LS1</name><desc>Rando Enduro&Roc Trophy 2KM before finish
Images:900
First:09.10.2025 11:13:23
Last:09.10.2025 14:56:41
Duration:03:43:18
</desc></wpt>
<wpt lat = "43.43939" lon = "6.63252"><name>STO2</name><desc>Rando Enduro&Roc Trophy 1KM before finish
Images:1419
First:09.10.2025 10:57:22
Last:09.10.2025 14:59:09
Duration:04:01:47
</desc></wpt>
<wpt lat = "43.43939" lon = "6.63252"><name>STO2LS1</name><desc>Rando Enduro&Roc Trophy 1KM before finish
Images:451
First:09.10.2025 10:28:54
Last:09.10.2025 15:01:19
Duration:04:32:25
</desc></wpt>
<wpt lat = "43.44255" lon = "6.63671"><name>JLTG2</name><desc>Finish
Images:1146
First:09.10.2025 10:55:03
Last:09.10.2025 15:01:33
Duration:04:06:30
</desc></wpt>
<wpt lat = "43.44255" lon = "6.63671"><name>JLTG2LS1</name><desc>Finish
Images:543
First:09.10.2025 10:26:02
Last:09.10.2025 15:03:42
Duration:04:37:40
</desc></wpt>
<wpt lat = "43.44255" lon = "6.63671"><name>JLTG2LS2</name><desc>Finish
Images:496
First:09.10.2025 10:35:19
Last:09.10.2025 14:08:15
Duration:03:32:56
</desc></wpt>
<wpt lat = "43.41815" lon = "6.73725"><name>LEBE2</name><desc>Finish
Images:4997
First:09.10.2025 09:48:09
Last:09.10.2025 16:22:29
Duration:06:34:20
</desc></wpt>
<wpt lat = "43.41815" lon = "6.73725"><name>LEBE2LS1</name><desc>Finish
Images:1575
First:09.10.2025 08:48:47
Last:09.10.2025 16:23:47
Duration:07:35:00
</desc></wpt>
<wpt lat = "43.45437" lon = "6.90634"><name>COR1</name><desc>Trail Esterel 28K - KM16.8
Images:592
First:09.10.2025 08:36:09
Last:09.10.2025 12:27:05
Duration:03:50:56
</desc></wpt>
<wpt lat = "43.45437" lon = "6.90634"><name>COR1LS1</name><desc>Trail Esterel 28K - KM16.8
Images:302
First:09.10.2025 09:48:26
Last:09.10.2025 12:09:30
Duration:02:21:04
</desc></wpt>
<wpt lat = "43.45437" lon = "6.90634"><name>COR1LS2</name><desc>Trail Esterel 28K - KM16.8
Images:298
First:09.10.2025 09:51:51
Last:09.10.2025 12:21:13
Duration:02:29:22
</desc></wpt>
<wpt lat = "43.45437" lon = "6.90634"><name>COR1DRONE1</name><desc>Trail Esterel 28K - KM16.8
Images:15
First:09.10.2025 10:51:58
Last:09.10.2025 10:58:34
Duration:00:06:36
</desc></wpt>
<wpt lat = "43.47646" lon = "6.90601"><name>CHR2</name><desc>Trail Esterel 50K - KM28.3
Images:231
First:09.10.2025 09:42:19
Last:09.10.2025 12:59:22
Duration:03:17:03
</desc></wpt>
<wpt lat = "43.47646" lon = "6.90601"><name>CHR2LS1</name><desc>Trail Esterel 50K - KM28.3
Images:109
First:09.10.2025 10:15:24
Last:09.10.2025 12:50:55
Duration:02:35:31
</desc></wpt>
<wpt lat = "43.47646" lon = "6.90601"><name>CHR2LS2</name><desc>Trail Esterel 50K - KM28.3
Images:55
First:09.10.2025 10:19:46
Last:09.10.2025 12:50:38
Duration:02:30:52
</desc></wpt>
<wpt lat = "43.45144" lon = "6.90102"><name>MANR1</name><desc>Trail Esterel 50K - KM39
Images:505
First:09.10.2025 10:29:48
Last:09.10.2025 16:27:29
Duration:05:57:41
</desc></wpt>
<wpt lat = "43.45144" lon = "6.90102"><name>MANR1LS1</name><desc>Trail Esterel 50K - KM39
Images:123
First:09.10.2025 10:15:38
Last:09.10.2025 16:27:33
Duration:06:11:55
</desc></wpt>
<wpt lat = "43.45144" lon = "6.90102"><name>MANR1LS2</name><desc>Trail Esterel 50K - KM39
Images:117
First:09.10.2025 10:31:20
Last:09.10.2025 16:25:42
Duration:05:54:22
</desc></wpt>
<wpt lat = "43.44239" lon = "6.86747"><name>PKA1</name><desc>Trail Esterel 50K - KM43.9, Trail Esterel 28K - KM22.7
Images:765
First:09.10.2025 11:03:08
Last:09.10.2025 16:03:18
Duration:05:00:10
</desc></wpt>
<wpt lat = "43.44239" lon = "6.86747"><name>PKA1LS1</name><desc>Trail Esterel 50K - KM43.9, Trail Esterel 28K - KM22.7
Images:570
First:09.10.2025 09:31:56
Last:09.10.2025 16:11:40
Duration:06:39:44
</desc></wpt>
</gpx>