<?xml version='1.0' encoding='utf-8'?>
<gpx version="1.1" creator="Infofile GPX Generator">
<wpt lat = "10.11457" lon = "103.97906"><name>GIP1</name><desc>Swim - Transition zone
Images:381
First:15.11.2025 05:17:14
Last:15.11.2025 05:38:22
Duration:00:21:08
</desc></wpt>
<wpt lat = "10.11457" lon = "103.97906"><name>GIP1DRONE1</name><desc>Swim - Transition zone
Images:86
First:15.11.2025 05:01:13
Last:15.11.2025 08:08:14
Duration:03:07:01
</desc></wpt>
<wpt lat = "10.11457" lon = "103.97906"><name>GIP1LS1</name><desc>Swim - Transition zone
Images:236
First:15.11.2025 04:48:38
Last:15.11.2025 05:42:02
Duration:00:53:24
</desc></wpt>
<wpt lat = "10.11457" lon = "103.97906"><name>GIP1LS3</name><desc>Swim - Transition zone
Images:226
First:15.11.2025 04:39:19
Last:15.11.2025 05:49:31
Duration:01:10:12
</desc></wpt>
<wpt lat = "10.11457" lon = "103.97906"><name>GIP2</name><desc>Finish
Images:1186
First:15.11.2025 06:01:27
Last:15.11.2025 07:21:01
Duration:01:19:34
</desc></wpt>
<wpt lat = "10.11457" lon = "103.97906"><name>GIP2LS1</name><desc>Finish
Images:73
First:15.11.2025 06:06:43
Last:15.11.2025 07:18:39
Duration:01:11:56
</desc></wpt>
<wpt lat = "10.11457" lon = "103.97906"><name>GIP2LS3</name><desc>Finish
Images:498
First:15.11.2025 04:39:19
Last:15.11.2025 07:23:56
Duration:02:44:37
</desc></wpt>
<wpt lat = "10.11457" lon = "103.97906"><name>NNG3</name><desc>Finish
Images:920
First:15.11.2025 06:44:58
Last:15.11.2025 07:20:54
Duration:00:35:56
</desc></wpt>
<wpt lat = "10.11463" lon = "103.98066"><name>NNG1</name><desc>Bike - Transition zone
Images:710
First:15.11.2025 04:56:55
Last:15.11.2025 05:43:04
Duration:00:46:09
</desc></wpt>
<wpt lat = "10.11463" lon = "103.98066"><name>NNG1LS1</name><desc>Bike - Transition zone
Images:607
First:15.11.2025 04:38:15
Last:15.11.2025 05:43:05
Duration:01:04:50
</desc></wpt>
<wpt lat = "10.11463" lon = "103.98066"><name>NNG2</name><desc>Run - Transition zone
Images:854
First:15.11.2025 05:44:43
Last:15.11.2025 06:36:04
Duration:00:51:21
</desc></wpt>
<wpt lat = "10.11463" lon = "103.98066"><name>NNG2LS1</name><desc>Run - Transition zone
Images:509
First:15.11.2025 05:48:14
Last:15.11.2025 06:36:05
Duration:00:47:51
</desc></wpt>
<wpt lat = "10.10610" lon = "103.99310"><name>NP1</name><desc>Bike - 2.5 km
Images:2521
First:15.11.2025 05:16:55
Last:15.11.2025 06:12:56
Duration:00:56:01
</desc></wpt>
<wpt lat = "10.10610" lon = "103.99310"><name>NP1LS1</name><desc>Bike - 2.5 km
Images:125
First:15.11.2025 04:47:08
Last:15.11.2025 05:47:22
Duration:01:00:14
</desc></wpt>
<wpt lat = "10.11669" lon = "103.99066"><name>NTA1</name><desc>Bike - 1.1 km
Images:911
First:15.11.2025 05:32:04
Last:15.11.2025 06:35:09
Duration:01:03:05
</desc></wpt>
<wpt lat = "10.11669" lon = "103.99066"><name>NTA1LS1</name><desc>Bike - 1.1 km
Images:177
First:15.11.2025 05:05:42
Last:15.11.2025 06:34:39
Duration:01:28:57
</desc></wpt>
<wpt lat = "10.11669" lon = "103.99066"><name>NTA1LS2</name><desc>Bike - 1.1 km
Images:1013
First:15.11.2025 05:44:34
Last:15.11.2025 06:32:20
Duration:00:47:46
</desc></wpt>
<wpt lat = "10.11561" lon = "103.98588"><name>NTT1</name><desc>Bike - 0.6 km
Images:2297
First:15.11.2025 04:56:23
Last:15.11.2025 06:38:14
Duration:01:41:51
</desc></wpt>
<wpt lat = "10.11561" lon = "103.98588"><name>NTT1LS1</name><desc>Bike - 0.6 km
Images:1323
First:15.11.2025 04:54:16
Last:15.11.2025 06:38:14
Duration:01:43:58
</desc></wpt>
<wpt lat = "10.11440" lon = "103.97851"><name>TAP1</name><desc>Swim - Start
Images:1859
First:15.11.2025 04:43:27
Last:15.11.2025 05:37:32
Duration:00:54:05
</desc></wpt>
<wpt lat = "10.11440" lon = "103.97851"><name>TDK1</name><desc>Swim - Start
Images:1134
First:15.11.2025 04:39:53
Last:15.11.2025 05:37:21
Duration:00:57:28
</desc></wpt>
<wpt lat = "10.11672" lon = "103.97981"><name>TAP2</name><desc>Run - 1.2 km
Images:2020
First:15.11.2025 05:47:48
Last:15.11.2025 06:53:50
Duration:01:06:02
</desc></wpt>
<wpt lat = "10.11672" lon = "103.97981"><name>TDK2</name><desc>Run - 1.2 km
Images:1336
First:15.11.2025 05:48:49
Last:15.11.2025 07:16:05
Duration:01:27:16
</desc></wpt>
</gpx>