<?xml version='1.0' encoding='utf-8'?>
<gpx version="1.1" creator="Infofile GPX Generator">
<wpt lat = "4.86141" lon = "000.76206"><name>ABAA2</name><desc>0,2 km
Images:196
First:26.09.2025 08:01:28
Last:26.09.2025 11:13:33
Duration:03:12:05
</desc></wpt>
<wpt lat = "4.86299" lon = "100.76312"><name>HTT1</name><desc>0,6 km
Images:1020
First:26.09.2025 06:32:15
Last:26.09.2025 08:25:20
Duration:01:53:05
</desc></wpt>
<wpt lat = "4.86299" lon = "100.76312"><name>HTT1LS1</name><desc>0,6 km
Images:157
First:26.09.2025 00:50:49
Last:26.09.2025 08:34:08
Duration:07:43:19
</desc></wpt>
<wpt lat = "4.86542" lon = "100.76639"><name>JKHA1</name><desc>4,0 km
Images:234
First:25.09.2025 23:36:43
Last:26.09.2025 08:59:53
Duration:09:23:10
</desc></wpt>
<wpt lat = "4.86748" lon = "100.77898"><name>MFAZ1</name><desc>3,5 km
Images:535
First:26.09.2025 07:34:21
Last:26.09.2025 10:16:21
Duration:02:42:00
</desc></wpt>
<wpt lat = "4.86232" lon = "100.76312"><name>MVV1</name><desc>0,4 km
Images:766
First:25.09.2025 21:55:00
Last:26.09.2025 08:12:36
Duration:10:17:36
</desc></wpt>
<wpt lat = "4.86289" lon = "100.79132"><name>PZIE2</name><desc>4,8 km
Images:1004
First:26.09.2025 07:38:23
Last:26.09.2025 11:33:04
Duration:03:54:41
</desc></wpt>
<wpt lat = "4.86051" lon = "100.76084"><name>RADM2</name><desc>Start
Images:435
First:26.09.2025 07:06:00
Last:26.09.2025 08:03:19
Duration:00:57:19
</desc></wpt>
<wpt lat = "4.86186" lon = "100.79314"><name>RY1</name><desc>Finish
Images:217
First:26.09.2025 08:25:43
Last:26.09.2025 10:39:54
Duration:02:14:11
</desc></wpt>
</gpx>