<?xml version='1.0' encoding='utf-8'?>
<gpx version="1.1" creator="Infofile GPX Generator">
<wpt lat = "22.28673" lon = "113.95900"><name>CWO1</name><desc>17,0 km TransLantau 100, 50, 20
Images:3046
First:15.11.2025 07:52:35
Last:15.11.2025 13:29:48
Duration:05:37:13
</desc></wpt>
<wpt lat = "22.25702" lon = "113.98633"><name>CWO2</name><desc>20,0 km TransLantau 20
Images:1491
First:15.11.2025 15:33:50
Last:15.11.2025 17:01:07
Duration:01:27:17
</desc></wpt>
<wpt lat = "22.26721" lon = "113.99712"><name>CWO3</name><desc>Finish
Images:725
First:15.11.2025 20:46:36
Last:16.11.2025 01:55:06
Duration:05:08:30
</desc></wpt>
<wpt lat = "22.26721" lon = "113.99712"><name>DIDA3</name><desc>Finish
Images:2730
First:15.11.2025 15:44:04
Last:15.11.2025 20:51:45
Duration:05:07:41
</desc></wpt>
<wpt lat = "22.26721" lon = "113.99712"><name>HTT4</name><desc>Finish
Images:5014
First:16.11.2025 16:02:59
Last:16.11.2025 22:49:27
Duration:06:46:28
</desc></wpt>
<wpt lat = "22.26721" lon = "113.99712"><name>HTT4LS1</name><desc>Finish
Images:1890
First:16.11.2025 16:00:27
Last:16.11.2025 21:57:08
Duration:05:56:41
</desc></wpt>
<wpt lat = "22.26721" lon = "113.99712"><name>HTT1DRONE1</name><desc>Finish
Images:63
First:14.11.2025 12:20:02
Last:15.11.2025 15:15:08
Duration:1.02:55:06
</desc></wpt>
<wpt lat = "22.26721" lon = "113.99712"><name>HYI4</name><desc>Finish
Images:1364
First:15.11.2025 14:43:47
Last:16.11.2025 02:16:16
Duration:11:32:29
</desc></wpt>
<wpt lat = "22.26721" lon = "113.99712"><name>MVV2</name><desc>Finish
Images:5314
First:15.11.2025 11:23:27
Last:16.11.2025 22:49:59
Duration:1.11:26:32
</desc></wpt>
<wpt lat = "22.26721" lon = "113.99712"><name>MVV2LS1</name><desc>Finish
Images:2340
First:15.11.2025 11:23:31
Last:16.11.2025 05:37:54
Duration:18:14:23
</desc></wpt>
<wpt lat = "22.26721" lon = "113.99712"><name>PNQ4</name><desc>Finish
Images:1116
First:16.11.2025 09:52:48
Last:16.11.2025 18:18:46
Duration:08:25:58
</desc></wpt>
<wpt lat = "22.26721" lon = "113.99712"><name>RSK6</name><desc>Finish
Images:1475
First:16.11.2025 02:03:21
Last:16.11.2025 09:12:28
Duration:07:09:07
</desc></wpt>
<wpt lat = "22.26721" lon = "113.99712"><name>TDB4</name><desc>Finish
Images:703
First:15.11.2025 21:11:21
Last:16.11.2025 01:57:39
Duration:04:46:18
</desc></wpt>
<wpt lat = "22.26721" lon = "113.99712"><name>TDB4LS1</name><desc>Finish
Images:270
First:15.11.2025 21:16:52
Last:16.11.2025 01:52:44
Duration:04:35:52
</desc></wpt>
<wpt lat = "22.26721" lon = "113.99712"><name>TDB4LS2</name><desc>Finish
Images:848
First:15.11.2025 21:32:36
Last:16.11.2025 08:18:20
Duration:10:45:44
</desc></wpt>
<wpt lat = "22.25725" lon = "113.98583"><name>CWO4</name><desc>31,0 km TransLantau 50
Images:2500
First:16.11.2025 10:08:51
Last:16.11.2025 16:48:44
Duration:06:39:53
</desc></wpt>
<wpt lat = "22.25009" lon = "113.99067"><name>RSK4</name><desc>31,0 km TransLantau 50
Images:1969
First:16.11.2025 11:34:26
Last:16.11.2025 16:59:15
Duration:05:24:49
</desc></wpt>
<wpt lat = "22.27200" lon = "114.00080"><name>DIDA1</name><desc>1,0 km TransLantau 120
Images:424
First:14.11.2025 19:02:58
Last:16.11.2025 17:48:31
Duration:1.22:45:33
</desc></wpt>
<wpt lat = "22.25894" lon = "113.85641"><name>DIDA2</name><desc>64,0 km Tai O - TransLantau 120
Images:3193
First:14.11.2025 18:25:10
Last:15.11.2025 13:02:01
Duration:18:36:51
</desc></wpt>
<wpt lat = "22.28673" lon = "113.95900"><name>DIDA4</name><desc>17,0 km TransLantau 50
Images:8425
First:16.11.2025 09:48:00
Last:16.11.2025 14:27:16
Duration:04:39:16
</desc></wpt>
<wpt lat = "22.26756" lon = "113.99810"><name>DIDA5</name><desc>52,0 km 300m before finish of TransLantau 50
Images:921
First:16.11.2025 17:49:44
Last:16.11.2025 20:27:39
Duration:02:37:55
</desc></wpt>
<wpt lat = "22.28673" lon = "113.95900"><name>HTT1</name><desc>17,0 km TransLantau 120
Images:2690
First:14.11.2025 20:57:28
Last:15.11.2025 00:12:43
Duration:03:15:15
</desc></wpt>
<wpt lat = "22.28673" lon = "113.95900"><name>HTT1LS1</name><desc>17,0 km TransLantau 120
Images:426
First:14.11.2025 20:09:04
Last:14.11.2025 23:36:12
Duration:03:27:08
</desc></wpt>
<wpt lat = "22.24697" lon = "113.91830"><name>HTT2</name><desc>86,0 km Lantau Peak
Images:10897
First:15.11.2025 08:51:10
Last:15.11.2025 22:34:03
Duration:13:42:53
</desc></wpt>
<wpt lat = "22.24697" lon = "113.91830"><name>HTT2LS2</name><desc>86,0 km Lantau Peak
Images:1835
First:15.11.2025 10:41:37
Last:16.11.2025 15:55:20
Duration:1.05:13:43
</desc></wpt>
<wpt lat = "22.24697" lon = "113.91830"><name>HTT2LS1</name><desc>86,0 km Lantau Peak
Images:1017
First:15.11.2025 11:37:15
Last:16.11.2025 09:57:46
Duration:22:20:31
</desc></wpt>
<wpt lat = "22.29972" lon = "114.00029"><name>HTT3</name><desc>11,0 km TransLantau 50
Images:5992
First:16.11.2025 09:38:42
Last:16.11.2025 12:05:51
Duration:02:27:09
</desc></wpt>
<wpt lat = "22.29972" lon = "114.00029"><name>HTT3LS1</name><desc>11,0 km TransLantau 50
Images:2857
First:16.11.2025 10:16:32
Last:16.11.2025 16:02:44
Duration:05:46:12
</desc></wpt>
<wpt lat = "22.26721" lon = "113.99712"><name>HYI1</name><desc>Start
Images:190
First:14.11.2025 17:30:28
Last:14.11.2025 19:00:36
Duration:01:30:08
</desc></wpt>
<wpt lat = "22.26721" lon = "113.99712"><name>PNQ2</name><desc>Start
Images:1250
First:15.11.2025 06:36:54
Last:16.11.2025 09:49:10
Duration:1.03:12:16
</desc></wpt>
<wpt lat = "22.26721" lon = "113.99712"><name>RSK1</name><desc>Start
Images:383
First:14.11.2025 17:57:16
Last:15.11.2025 07:47:03
Duration:13:49:47
</desc></wpt>
<wpt lat = "22.26721" lon = "113.99712"><name>TDB2</name><desc>Start
Images:802
First:15.11.2025 06:38:06
Last:15.11.2025 10:53:05
Duration:04:14:59
</desc></wpt>
<wpt lat = "22.30055" lon = "114.00302"><name>HYI2</name><desc>11,0 km TransLantau 100, 50, 20 - Discovery Bay lookout
Images:5598
First:15.11.2025 08:20:41
Last:15.11.2025 12:55:14
Duration:04:34:33
</desc></wpt>
<wpt lat = "22.26687" lon = "113.99499"><name>HYI3</name><desc>22,0 km TransLantau 20
Images:2738
First:16.11.2025 02:16:52
Last:16.11.2025 19:56:11
Duration:17:39:19
</desc></wpt>
<wpt lat = "22.26221" lon = "113.96820"><name>HYI5</name><desc>20,8 km TransLantau 100, 50, 20
Images:3602
First:16.11.2025 10:36:54
Last:16.11.2025 14:27:07
Duration:03:50:13
</desc></wpt>
<wpt lat = "22.26221" lon = "113.96820"><name>RSK2</name><desc>20,8 km TransLantau 100, 50, 20
Images:3724
First:15.11.2025 07:47:37
Last:15.11.2025 15:11:29
Duration:07:23:52
</desc></wpt>
<wpt lat = "22.27261" lon = "114.00645"><name>MVV1</name><desc>1,5 km TransLantau 120
Images:670
First:14.11.2025 19:08:15
Last:14.11.2025 21:55:24
Duration:02:47:09
</desc></wpt>
<wpt lat = "22.27604" lon = "114.00905"><name>PNQ1</name><desc>1,5 km TransLantau 120
Images:1240
First:14.11.2025 19:13:10
Last:14.11.2025 19:43:58
Duration:00:30:48
</desc></wpt>
<wpt lat = "22.27268" lon = "114.00609"><name>MVV1LS1</name><desc>1,3 km TransLantau 120
Images:486
First:14.11.2025 18:22:41
Last:14.11.2025 19:33:29
Duration:01:10:48
</desc></wpt>
<wpt lat = "22.27268" lon = "114.00609"><name>MVV3</name><desc>1,3 km TransLantau 120
Images:3188
First:15.11.2025 07:15:28
Last:15.11.2025 11:02:23
Duration:03:46:55
</desc></wpt>
<wpt lat = "22.27268" lon = "114.00609"><name>MVV3LS1</name><desc>1,3 km TransLantau 120
Images:1936
First:15.11.2025 07:37:27
Last:15.11.2025 10:16:08
Duration:02:38:41
</desc></wpt>
<wpt lat = "22.23094" lon = "113.98471"><name>MVV4</name><desc>42,0 km Chi Ma Wan Country trail
Images:3724
First:16.11.2025 12:08:01
Last:16.11.2025 16:38:49
Duration:04:30:48
</desc></wpt>
<wpt lat = "22.26721" lon = "113.99712"><name>MVV5</name><desc>Start TransLantau 50
Images:479
First:16.11.2025 08:10:40
Last:16.11.2025 08:50:20
Duration:00:39:40
</desc></wpt>
<wpt lat = "22.25808" lon = "113.98374"><name>PNQ3</name><desc>60,0 km Nam Shan campsite
Images:6248
First:15.11.2025 10:07:05
Last:15.11.2025 23:09:19
Duration:13:02:14
</desc></wpt>
<wpt lat = "22.26766" lon = "113.99774"><name>PNQ5</name><desc>52,0 km 200m before the finish line of TransLantau 50
Images:970
First:16.11.2025 18:37:11
Last:16.11.2025 21:34:33
Duration:02:57:22
</desc></wpt>
<wpt lat = "22.25863" lon = "114.00680"><name>RSK3</name><desc>78,0 km Lantau Trail sec.12
Images:132
First:15.11.2025 15:20:47
Last:15.11.2025 18:15:05
Duration:02:54:18
</desc></wpt>
<wpt lat = "22.26723" lon = "113.99823"><name>RSK5</name><desc>51,8 km 800m before finish line of TransLantau 50
Images:453
First:16.11.2025 18:18:07
Last:16.11.2025 20:32:04
Duration:02:13:57
</desc></wpt>
<wpt lat = "22.27339" lon = "114.00788"><name>TDB1</name><desc>1,8 km TransLantau 120
Images:545
First:14.11.2025 18:41:00
Last:14.11.2025 20:00:03
Duration:01:19:03
</desc></wpt>
<wpt lat = "22.23094" lon = "113.98471"><name>TDB3</name><desc>74,0 km Chi Ma Wan Country trail
Images:777
First:15.11.2025 12:51:03
Last:15.11.2025 18:04:38
Duration:05:13:35
</desc></wpt>
<wpt lat = "22.23094" lon = "113.98471"><name>TDB3LS1</name><desc>74,0 km Chi Ma Wan Country trail
Images:391
First:15.11.2025 15:13:49
Last:15.11.2025 18:02:45
Duration:02:48:56
</desc></wpt>
<wpt lat = "22.23094" lon = "113.98471"><name>TDB3LS2</name><desc>74,0 km Chi Ma Wan Country trail
Images:268
First:15.11.2025 13:53:41
Last:15.11.2025 21:30:53
Duration:07:37:12
</desc></wpt>
<wpt lat = "22.27339" lon = "114.00788"><name>TDB5</name><desc>1,8 km TransLantau 50
Images:1605
First:16.11.2025 08:33:30
Last:16.11.2025 09:24:02
Duration:00:50:32
</desc></wpt>
<wpt lat = "22.27339" lon = "114.00788"><name>TDB5LS1</name><desc>1,8 km TransLantau 50
Images:1170
First:16.11.2025 08:19:21
Last:16.11.2025 09:23:46
Duration:01:04:25
</desc></wpt>
</gpx>