<?xml version='1.0' encoding='utf-8'?>
<gpx version="1.1" creator="Infofile GPX Generator">
<wpt lat = "42.34592" lon = "-71.09643"><name>IVA1</name><desc>Obstacle 1 Cord Crawl #1
Images:11006
First:07.11.2025 19:24:12
Last:08.11.2025 15:07:45
Duration:19:43:33
</desc></wpt>
<wpt lat = "42.34592" lon = "-71.09643"><name>VICY4</name><desc>Obstacle 1 Cord Crawl #1
Images:654
First:08.11.2025 09:58:38
Last:08.11.2025 10:10:31
Duration:00:11:53
</desc></wpt>
<wpt lat = "42.34667" lon = "-71.09625"><name>HADA1</name><desc>Obstacle 6 Sandbag Carry
Images:11187
First:07.11.2025 20:26:11
Last:09.11.2025 06:54:34
Duration:1.10:28:23
</desc></wpt>
<wpt lat = "42.34667" lon = "-71.09625"><name>VICY1LS1</name><desc>Obstacle 6 Sandbag Carry
Images:5618
First:08.11.2025 07:19:27
Last:08.11.2025 15:17:58
Duration:07:58:31
</desc></wpt>
<wpt lat = "42.34667" lon = "-71.09625"><name>VICY2</name><desc>Obstacle 6 Sandbag Carry
Images:753
First:08.11.2025 10:21:51
Last:08.11.2025 10:36:48
Duration:00:14:57
</desc></wpt>
<wpt lat = "42.34650" lon = "-71.09587"><name>IO1</name><desc>Obstacle 7 7ft Wall
Images:15457
First:07.11.2025 19:30:10
Last:08.11.2025 16:03:48
Duration:20:33:38
</desc></wpt>
<wpt lat = "42.34650" lon = "-71.09587"><name>VICY3</name><desc>Obstacle 7 7ft Wall
Images:1035
First:08.11.2025 10:38:18
Last:08.11.2025 10:55:18
Duration:00:17:00
</desc></wpt>
<wpt lat = "42.34626" lon = "-71.09602"><name>ANMF1</name><desc>Obstacle 8 Jump Rope
Images:9342
First:07.11.2025 19:26:06
Last:09.11.2025 06:49:14
Duration:1.11:23:08
</desc></wpt>
<wpt lat = "42.34626" lon = "-71.09602"><name>WMY1</name><desc>Obstacle 8 Jump Rope
Images:4245
First:08.11.2025 06:31:32
Last:08.11.2025 15:27:46
Duration:08:56:14
</desc></wpt>
<wpt lat = "42.34591" lon = "-71.09638"><name>WMY1LS1</name><desc>Fenway Background
Images:5303
First:08.11.2025 06:20:16
Last:08.11.2025 15:18:31
Duration:08:58:15
</desc></wpt>
<wpt lat = "42.34561" lon = "-71.09587"><name>MRKE1</name><desc>Obstacle 10 Helix
Images:14772
First:08.11.2025 05:51:50
Last:09.11.2025 07:05:18
Duration:1.01:13:28
</desc></wpt>
<wpt lat = "42.34561" lon = "-71.09587"><name>KIZD1</name><desc>Obstacle 10 Helix
Images:2924
First:08.11.2025 05:50:01
Last:09.11.2025 06:46:35
Duration:1.00:56:34
</desc></wpt>
<wpt lat = "42.34571" lon = "-71.09808"><name>VICY1LS2</name><desc>Obstacle 13 Jerry Can Carry
Images:7370
First:08.11.2025 05:51:07
Last:08.11.2025 14:47:05
Duration:08:55:58
</desc></wpt>
<wpt lat = "42.34559" lon = "-71.09759"><name>EUGP1</name><desc>Obstacle 14 Monkey Bars
Images:5814
First:08.11.2025 05:35:06
Last:09.11.2025 07:03:06
Duration:1.01:28:00
</desc></wpt>
<wpt lat = "42.34559" lon = "-71.09759"><name>YEP1</name><desc>Obstacle 14 Monkey Bars
Images:11959
First:07.11.2025 13:25:06
Last:08.11.2025 16:03:40
Duration:1.02:38:34
</desc></wpt>
<wpt lat = "42.34687" lon = "-71.09764"><name>LMB1</name><desc>Obstacle 17 Box Jump
Images:8933
First:08.11.2025 04:22:20
Last:09.11.2025 13:49:47
Duration:1.09:27:27
</desc></wpt>
<wpt lat = "42.34687" lon = "-71.09764"><name>ALTO1</name><desc>Obstacle 17 Box Jump
Images:12781
First:08.11.2025 05:50:45
Last:09.11.2025 06:55:16
Duration:1.01:04:31
</desc></wpt>
<wpt lat = "42.34697" lon = "-71.09655"><name>PEC1</name><desc>Obstacle 19 A-Frame Cargo
Images:9890
First:08.11.2025 05:11:19
Last:08.11.2025 16:15:14
Duration:11:03:55
</desc></wpt>
<wpt lat = "42.34697" lon = "-71.09655"><name>VICY5</name><desc>Obstacle 19 A-Frame Cargo
Images:1733
First:08.11.2025 08:51:25
Last:08.11.2025 11:33:52
Duration:02:42:27
</desc></wpt>
<wpt lat = "42.34632" lon = "-71.09680"><name>SWDY1</name><desc>Obstacle 22 Gauntlet
Images:34108
First:07.11.2025 15:51:00
Last:09.11.2025 05:53:45
Duration:1.14:02:45
</desc></wpt>
<wpt lat = "42.34632" lon = "-71.09680"><name>LMB1LS1</name><desc>Obstacle 22 Gauntlet
Images:6952
First:08.11.2025 05:53:51
Last:09.11.2025 07:01:42
Duration:1.01:07:51
</desc></wpt>
<wpt lat = "42.34632" lon = "-71.09680"><name>VICY6</name><desc>Obstacle 22 Gauntlet
Images:1404
First:08.11.2025 11:34:50
Last:08.11.2025 15:14:37
Duration:03:39:47
</desc></wpt>
<wpt lat = "42.34642" lon = "-71.09732"><name>PKO1</name><desc>Herotent
Images:8139
First:08.11.2025 04:24:28
Last:08.11.2025 16:18:07
Duration:11:53:39
</desc></wpt>
<wpt lat = "42.34642" lon = "-71.09732"><name>JAYA1</name><desc>Herotent
Images:3954
First:08.11.2025 04:08:03
Last:09.11.2025 06:56:54
Duration:1.02:48:51
</desc></wpt>
<wpt lat = "42.34632" lon = "-71.09680"><name>VICY1</name><desc>Venue
Images:748
First:08.11.2025 08:36:23
Last:09.11.2025 09:36:38
Duration:1.01:00:15
</desc></wpt>
</gpx>