<?xml version='1.0' encoding='utf-8'?>
<gpx version="1.1" creator="Infofile GPX Generator">
<wpt lat = "-26.39462" lon = "153.07840"><name>AKC2</name><desc>1.8 km
Images:2957
First:24.05.2025 06:05:32
Last:24.05.2025 08:06:18
Duration:02:00:46
</desc></wpt>
<wpt lat = "-26.39716" lon = "153.07023"><name>CLK2</name><desc>3.0 km
Images:102
First:24.05.2025 07:04:46
Last:25.05.2025 06:57:48
Duration:23:53:02
</desc></wpt>
<wpt lat = "-26.39716" lon = "153.07023"><name>CZH2</name><desc>3.3 km
Images:3876
First:24.05.2025 06:27:08
Last:24.05.2025 07:43:41
Duration:01:16:33
</desc></wpt>
<wpt lat = "-26.39575" lon = "153.06922"><name>MEHO1</name><desc>7.5 km
Images:26322
First:24.05.2025 06:29:39
Last:24.05.2025 12:06:52
Duration:05:37:13
</desc></wpt>
<wpt lat = "-26.39570" lon = "153.06912"><name>CZH3</name><desc>7.6 km
Images:5660
First:24.05.2025 07:47:25
Last:24.05.2025 11:33:28
Duration:03:46:03
</desc></wpt>
<wpt lat = "-26.39661" lon = "153.07084"><name>CLK3</name><desc>8.0 km
Images:20025
First:24.05.2025 05:55:51
Last:24.05.2025 12:11:18
Duration:06:15:27
</desc></wpt>
<wpt lat = "-26.39442" lon = "153.07580"><name>LMLR1</name><desc>8.3 km
Images:19449
First:24.05.2025 06:45:10
Last:24.05.2025 11:58:44
Duration:05:13:34
</desc></wpt>
<wpt lat = "-26.39270" lon = "153.07877"><name>AKC3</name><desc>9.3 km
Images:5428
First:24.05.2025 08:10:43
Last:24.05.2025 11:18:59
Duration:03:08:16
</desc></wpt>
<wpt lat = "-26.38866" lon = "153.09050"><name>CHRO3</name><desc>Finish
Images:14121
First:24.05.2025 06:04:23
Last:24.05.2025 12:37:56
Duration:06:33:33
</desc></wpt>
<wpt lat = "-26.38866" lon = "153.09050"><name>MTS2</name><desc>Finish
Images:5221
First:24.05.2025 07:20:40
Last:24.05.2025 16:22:59
Duration:09:02:19
</desc></wpt>
<wpt lat = "-26.38772" lon = "153.08918"><name>CHRO2</name><desc>Start
Images:2810
First:24.05.2025 06:27:47
Last:24.05.2025 06:53:07
Duration:00:25:20
</desc></wpt>
<wpt lat = "-26.38772" lon = "153.08918"><name>MTS1</name><desc>Start
Images:5501
First:24.05.2025 06:00:24
Last:24.05.2025 16:22:11
Duration:10:21:47
</desc></wpt>
</gpx>