<?xml version='1.0' encoding='utf-8'?>
<gpx version="1.1" creator="Infofile GPX Generator">
<wpt lat = "38.37696" lon = "-121.33971"><name>AMON1</name><desc>Obstacle 3 Monkey Bars
Images:6516
First:23.08.2025 06:45:17
Last:24.08.2025 12:57:20
Duration:1.06:12:03
</desc></wpt>
<wpt lat = "38.37386" lon = "-121.34206"><name>RUMU1</name><desc>Obstacle 7 Bucket Carry
Images:2201
First:23.08.2025 06:27:38
Last:24.08.2025 13:26:23
Duration:1.06:58:45
</desc></wpt>
<wpt lat = "38.37356" lon = "-121.33610"><name>DANG1</name><desc>Obstacle 9 Atlas Carry
Images:6686
First:24.08.2025 07:22:42
Last:24.08.2025 13:39:15
Duration:06:16:33
</desc></wpt>
<wpt lat = "38.37356" lon = "-121.33610"><name>MAT1</name><desc>Obstacle 9 Atlas Carry
Images:6999
First:23.08.2025 06:55:47
Last:24.08.2025 13:11:56
Duration:1.06:16:09
</desc></wpt>
<wpt lat = "38.37080" lon = "-121.33733"><name>DANG1LS1</name><desc>Trail after Atlas Carry
Images:2120
First:24.08.2025 07:23:12
Last:24.08.2025 13:16:12
Duration:05:53:00
</desc></wpt>
<wpt lat = "38.37080" lon = "-121.33733"><name>MAT1LS1</name><desc>Trail after Atlas Carry
Images:2206
First:24.08.2025 07:22:30
Last:24.08.2025 13:15:29
Duration:05:52:59
</desc></wpt>
<wpt lat = "38.36890" lon = "-121.33329"><name>DMCI1</name><desc>Obstacle 11 Barbed Wire Crawl
Images:6278
First:24.08.2025 07:27:42
Last:24.08.2025 14:05:14
Duration:06:37:32
</desc></wpt>
<wpt lat = "38.36890" lon = "-121.33329"><name>DMCI1LS1</name><desc>Obstacle 11 by Barbed Wire Crawl
Images:7979
First:23.08.2025 06:37:19
Last:24.08.2025 14:07:02
Duration:1.07:29:43
</desc></wpt>
<wpt lat = "38.36890" lon = "-121.33434"><name>MKI1</name><desc>Obstacle 12 Multi-Rig
Images:8759
First:23.08.2025 06:34:24
Last:24.08.2025 13:53:00
Duration:1.07:18:36
</desc></wpt>
<wpt lat = "38.36890" lon = "-121.33434"><name>TERT1</name><desc>Obstacle 12 Multi-Rig
Images:850
First:22.08.2025 18:27:01
Last:24.08.2025 01:50:10
Duration:1.07:23:09
</desc></wpt>
<wpt lat = "38.36814" lon = "-121.33400"><name>DVAL1</name><desc>Obstacle 13 Sandbag Carry
Images:12134
First:23.08.2025 06:41:58
Last:24.08.2025 14:06:48
Duration:1.07:24:50
</desc></wpt>
<wpt lat = "38.36972" lon = "-121.33184"><name>AIPA1</name><desc>Obstacle 15 Vertical Cargo
Images:6197
First:23.08.2025 06:28:57
Last:24.08.2025 14:15:38
Duration:1.07:46:41
</desc></wpt>
<wpt lat = "38.37236" lon = "-121.33066"><name>DDS1</name><desc>Obstacle 24 Rolling Mud
Images:5298
First:23.08.2025 06:55:56
Last:24.08.2025 14:37:27
Duration:1.07:41:31
</desc></wpt>
<wpt lat = "38.36694" lon = "-121.34950"><name>DEST1</name><desc>Obstacle 25 Dunk Wall
Images:6338
First:23.08.2025 06:42:38
Last:24.08.2025 14:38:17
Duration:1.07:55:39
</desc></wpt>
<wpt lat = "38.37160" lon = "-121.33295"><name>HOG1</name><desc>Herotent
Images:3182
First:23.08.2025 06:25:04
Last:24.08.2025 14:46:39
Duration:1.08:21:35
</desc></wpt>
<wpt lat = "38.37160" lon = "-121.33295"><name>MCAR1</name><desc>Random/Promo
Images:558
First:23.08.2025 06:56:15
Last:24.08.2025 10:46:49
Duration:1.03:50:34
</desc></wpt>
<wpt lat = "38.37160" lon = "-121.33295"><name>MCAR1IMP1</name><desc>Drone
Images:36
First:23.08.2025 09:46:28
Last:24.08.2025 11:52:29
Duration:1.02:06:01
</desc></wpt>
</gpx>