<?xml version='1.0' encoding='utf-8'?>
<gpx version="1.1" creator="Infofile GPX Generator">
<wpt lat = "52.47690" lon = "13.52455"><name>DEK1</name><desc>Schlammbecken
Images:4756
First:17.05.2025 08:40:03
Last:18.05.2025 16:33:15
Duration:1.07:53:12
</desc></wpt>
<wpt lat = "52.47690" lon = "13.52455"><name>MPU1</name><desc>Schlammbecken
Images:3597
First:18.05.2025 09:44:26
Last:18.05.2025 16:33:17
Duration:06:48:51
</desc></wpt>
<wpt lat = "52.47609" lon = "13.52466"><name>EBO1</name><desc>Schaumbecken
Images:10939
First:18.05.2025 09:45:48
Last:18.05.2025 16:36:50
Duration:06:51:02
</desc></wpt>
<wpt lat = "52.47724" lon = "13.52567"><name>GEPA1</name><desc>Kletterwand
Images:14931
First:18.05.2025 09:50:28
Last:18.05.2025 16:44:51
Duration:06:54:23
</desc></wpt>
<wpt lat = "52.47724" lon = "13.52567"><name>IL1</name><desc>Kletterwand
Images:10013
First:18.05.2025 09:44:20
Last:18.05.2025 16:44:51
Duration:07:00:31
</desc></wpt>
<wpt lat = "52.47636" lon = "13.52798"><name>CHWI1</name><desc>Piratenplanke
Images:10757
First:17.05.2025 09:28:22
Last:18.05.2025 16:42:09
Duration:1.07:13:47
</desc></wpt>
<wpt lat = "52.47483" lon = "13.52919"><name>AEPB1</name><desc>Pyramide
Images:6217
First:17.05.2025 12:53:37
Last:18.05.2025 16:56:28
Duration:1.04:02:51
</desc></wpt>
<wpt lat = "52.47361" lon = "13.52530"><name>SLOM1</name><desc>Krabbelstrecke
Images:5578
First:17.05.2025 09:02:29
Last:18.05.2025 17:05:00
Duration:1.08:02:31
</desc></wpt>
<wpt lat = "52.47361" lon = "13.52530"><name>JUSE1</name><desc>Krabbelstrecke
Images:6158
First:17.05.2025 09:16:55
Last:18.05.2025 17:04:03
Duration:1.07:47:08
</desc></wpt>
<wpt lat = "52.47454" lon = "13.52497"><name>DABT1</name><desc>Gitterbecken
Images:6430
First:17.05.2025 09:47:08
Last:18.05.2025 17:09:27
Duration:1.07:22:19
</desc></wpt>
<wpt lat = "52.47454" lon = "13.52497"><name>MEM1</name><desc>Gitterbecken
Images:3583
First:18.05.2025 09:04:21
Last:18.05.2025 16:06:02
Duration:07:01:41
</desc></wpt>
<wpt lat = "52.47324" lon = "13.52697"><name>AP1</name><desc>Seiltanz
Images:11427
First:17.05.2025 08:48:37
Last:18.05.2025 17:01:51
Duration:1.08:13:14
</desc></wpt>
<wpt lat = "52.47427" lon = "13.52839"><name>EQ1</name><desc>Finish
Images:17904
First:18.05.2025 09:44:06
Last:18.05.2025 17:40:58
Duration:07:56:52
</desc></wpt>
<wpt lat = "52.47427" lon = "13.52839"><name>EQ1LS1</name><desc>Finish
Images:1323
First:18.05.2025 09:19:36
Last:18.05.2025 17:36:52
Duration:08:17:16
</desc></wpt>
<wpt lat = "52.47427" lon = "13.52839"><name>KHR1LS1</name><desc>Finish
Images:1116
First:18.05.2025 09:30:14
Last:18.05.2025 16:44:07
Duration:07:13:53
</desc></wpt>
<wpt lat = "52.47427" lon = "13.52839"><name>AGA1LS1</name><desc>Finish
Images:6099
First:18.05.2025 10:18:22
Last:18.05.2025 17:42:19
Duration:07:23:57
</desc></wpt>
<wpt lat = "52.47427" lon = "13.52839"><name>KHR1</name><desc>Herotent
Images:1956
First:17.05.2025 10:47:16
Last:18.05.2025 17:37:49
Duration:1.06:50:33
</desc></wpt>
<wpt lat = "52.47427" lon = "13.52839"><name>DDT1</name><desc>Herotent
Images:2653
First:17.05.2025 09:40:39
Last:18.05.2025 17:38:57
Duration:1.07:58:18
</desc></wpt>
<wpt lat = "52.47427" lon = "13.52839"><name>AGA1</name><desc>Impressions / Pano
Images:226
First:18.05.2025 11:01:55
Last:18.05.2025 11:51:32
Duration:00:49:37
</desc></wpt>
<wpt lat = "52.47427" lon = "13.52839"><name>AGA1DRONE1</name><desc>Impressions / Pano
Images:66
First:19.05.2025 13:53:32
Last:19.05.2025 14:15:49
Duration:00:22:17
</desc></wpt>
</gpx>