<?xml version='1.0' encoding='utf-8'?>
<gpx version="1.1" creator="Infofile GPX Generator">
<wpt lat = "41.17080" lon = "-74.53258"><name>ALTO1</name><desc>Obstacle 18 Barbed Wire Crawl #2
Images:14169
First:27.04.2025 08:08:22
Last:27.04.2025 17:37:56
Duration:09:29:34
</desc></wpt>
<wpt lat = "41.17572" lon = "-74.53252"><name>MESE1</name><desc>Obstacle 19 Multi-Rig
Images:11077
First:01.01.0001 23:00:00
Last:27.04.2025 16:56:02
Duration:739366.17:56:02
</desc></wpt>
<wpt lat = "41.17572" lon = "-74.53252"><name>AAD1</name><desc>Obstacle 19 Multi-Rig
Images:18706
First:26.04.2025 09:34:11
Last:27.04.2025 17:08:25
Duration:1.07:34:14
</desc></wpt>
<wpt lat = "41.17741" lon = "-74.53177"><name>MRKE1</name><desc>Obstacle 22 Slip Wall
Images:11459
First:27.04.2025 07:45:03
Last:27.04.2025 17:21:37
Duration:09:36:34
</desc></wpt>
<wpt lat = "41.17419" lon = "-74.53227"><name>KLOW1</name><desc>Obstacle 23 Traverse Wall
Images:6981
First:27.04.2025 08:26:04
Last:27.04.2025 17:43:23
Duration:09:17:19
</desc></wpt>
<wpt lat = "41.17419" lon = "-74.53227"><name>ANMF1</name><desc>Obstacle 23 Traverse Wall
Images:7692
First:27.04.2025 08:24:46
Last:27.04.2025 17:37:37
Duration:09:12:51
</desc></wpt>
<wpt lat = "41.17119" lon = "-74.52811"><name>WMY1</name><desc>Obstacle 26 Sandbag Carry
Images:10747
First:26.04.2025 09:35:24
Last:27.04.2025 17:38:35
Duration:1.08:03:11
</desc></wpt>
<wpt lat = "41.17198" lon = "-74.52642"><name>YEP1</name><desc>Obstacle 27 Monkey Bars
Images:9338
First:27.04.2025 08:16:25
Last:27.04.2025 18:04:12
Duration:09:47:47
</desc></wpt>
<wpt lat = "41.17198" lon = "-74.52642"><name>EUGP1</name><desc>Obstacle 27 Monkey Bars
Images:8279
First:26.04.2025 19:38:08
Last:27.04.2025 19:21:40
Duration:23:43:32
</desc></wpt>
<wpt lat = "41.17241" lon = "-74.52702"><name>TIWI1</name><desc>Obstacle 29 Craft A-Frame
Images:7967
First:27.04.2025 06:54:21
Last:27.04.2025 18:26:18
Duration:11:31:57
</desc></wpt>
<wpt lat = "41.17322" lon = "-74.52788"><name>JSAN1</name><desc>Obstacle 30 Bucket Carry
Images:10157
First:01.01.0001 23:00:00
Last:27.04.2025 18:02:37
Duration:739366.19:02:37
</desc></wpt>
<wpt lat = "41.17786" lon = "-74.53147"><name>SWDY1</name><desc>Obstacle 33 Fire Jump
Images:15895
First:25.04.2025 23:30:54
Last:27.04.2025 20:12:03
Duration:1.20:41:09
</desc></wpt>
<wpt lat = "41.17800" lon = "-74.53138"><name>JAYA1</name><desc>Herotent
Images:4174
First:27.04.2025 07:53:56
Last:27.04.2025 20:13:33
Duration:12:19:37
</desc></wpt>
</gpx>