<?xml version='1.0' encoding='utf-8'?>
<gpx version="1.1" creator="Infofile GPX Generator">
<wpt lat = "42.83800" lon = "-83.25424"><name>MKI1</name><desc>Obstacle 9 Funky Monkey
Images:3021
First:14.06.2025 07:35:09
Last:15.06.2025 12:51:39
Duration:1.05:16:30
</desc></wpt>
<wpt lat = "42.83519" lon = "-83.25267"><name>JEPO1</name><desc>Obstacle 10 Electric Eel
Images:2256
First:15.06.2025 10:11:21
Last:15.06.2025 13:10:00
Duration:02:58:39
</desc></wpt>
<wpt lat = "42.83629" lon = "-83.25122"><name>VAR1</name><desc>Obstacle 11 Cage Crawl
Images:1438
First:14.06.2025 08:16:58
Last:15.06.2025 13:13:05
Duration:1.04:56:07
</desc></wpt>
<wpt lat = "42.83724" lon = "-83.24915"><name>TAPO1</name><desc>Obstacle 12 Hangin Tough
Images:1292
First:15.06.2025 10:27:39
Last:15.06.2025 13:24:13
Duration:02:56:34
</desc></wpt>
<wpt lat = "42.83495" lon = "-83.24874"><name>MIGO1</name><desc>Obstacle 13 Son of a Ditch
Images:2851
First:13.06.2025 19:32:08
Last:16.06.2025 01:53:39
Duration:2.06:21:31
</desc></wpt>
<wpt lat = "42.83174" lon = "-83.22971"><name>JOD1</name><desc>Obstacle 16 Ladder to Hell
Images:5684
First:14.06.2025 08:07:52
Last:15.06.2025 14:25:28
Duration:1.06:17:36
</desc></wpt>
<wpt lat = "42.83018" lon = "-83.22928"><name>IZZY1</name><desc>Obstacle 17 Blockness Monster
Images:3297
First:14.06.2025 07:46:20
Last:15.06.2025 14:29:43
Duration:1.06:43:23
</desc></wpt>
<wpt lat = "42.83184" lon = "-83.23051"><name>RYN1</name><desc>Obstacle 19 Lumber Jacked
Images:7986
First:15.06.2025 09:48:48
Last:15.06.2025 14:38:53
Duration:04:50:05
</desc></wpt>
<wpt lat = "42.83106" lon = "-83.22843"><name>RYN1DRONE1</name><desc>Impressions / Pano
Images:111
First:20.12.2024 12:53:05
Last:20.12.2024 13:06:13
Duration:00:13:08
</desc></wpt>
<wpt lat = "42.83106" lon = "-83.22843"><name>CCZ1DRONE1</name><desc>Impressions / Pano
Images:15
First:14.06.2025 17:46:26
Last:15.06.2025 16:20:09
Duration:22:33:43
</desc></wpt>
<wpt lat = "42.82915" lon = "-83.22975"><name>JIMH1</name><desc>Obstacle 22 Artic Enema
Images:4401
First:15.06.2025 09:54:27
Last:15.06.2025 15:05:07
Duration:05:10:40
</desc></wpt>
<wpt lat = "42.83106" lon = "-83.22843"><name>CCZ1</name><desc>Start
Images:204
First:14.06.2025 11:20:24
Last:15.06.2025 09:30:23
Duration:22:09:59
</desc></wpt>
</gpx>