<?xml version='1.0' encoding='utf-8'?>
<gpx version="1.1" creator="Infofile GPX Generator">
<wpt lat = "29.91185" lon = "-96.31830"><name>CIFU1</name><desc>Obstacle 11 Bucket Carry
Images:11833
First:07.03.2025 17:31:40
Last:08.03.2025 14:11:26
Duration:20:39:46
</desc></wpt>
<wpt lat = "29.91051" lon = "-96.31681"><name>JMS1</name><desc>Obstacle 12 A Frame
Images:7037
First:08.03.2025 05:59:15
Last:08.03.2025 14:18:02
Duration:08:18:47
</desc></wpt>
<wpt lat = "29.91084" lon = "-96.31689"><name>JOFU1LS2</name><desc>Obstacle 12 Course Past A Frame
Images:226
First:08.03.2025 07:57:29
Last:08.03.2025 14:30:49
Duration:06:33:20
</desc></wpt>
<wpt lat = "29.90977" lon = "-96.31646"><name>VICY1</name><desc>Obstacle 13 Multi Rig
Images:5537
First:08.03.2025 05:11:35
Last:08.03.2025 14:10:18
Duration:08:58:43
</desc></wpt>
<wpt lat = "29.90998" lon = "-96.31679"><name>KECO1</name><desc>Obstacle 13 Multi Rig
Images:4204
First:08.03.2025 06:01:46
Last:08.03.2025 14:18:49
Duration:08:17:03
</desc></wpt>
<wpt lat = "29.90307" lon = "-96.31032"><name>GAPO1</name><desc>Obstacle 25 Barbed Wire Crawl 2
Images:5672
First:08.03.2025 05:50:48
Last:08.03.2025 15:24:22
Duration:09:33:34
</desc></wpt>
<wpt lat = "29.90289" lon = "-96.31025"><name>AKT1</name><desc>Obstacle 26 Rolling Mud
Images:11642
First:08.03.2025 06:03:28
Last:08.03.2025 15:28:25
Duration:09:24:57
</desc></wpt>
<wpt lat = "29.90245" lon = "-96.30924"><name>CCZ1</name><desc>Obstacle 27 Dunk Wall
Images:7784
First:08.03.2025 07:49:00
Last:08.03.2025 15:28:48
Duration:07:39:48
</desc></wpt>
<wpt lat = "29.90261" lon = "-96.31033"><name>DOBR1</name><desc>Obstacle 28 Slip Wall
Images:13916
First:08.03.2025 07:51:06
Last:08.03.2025 16:17:46
Duration:08:26:40
</desc></wpt>
<wpt lat = "29.90158" lon = "-96.31103"><name>AWD1</name><desc>Obstacle 29 Plate Drag
Images:4660
First:08.03.2025 07:50:57
Last:08.03.2025 15:32:14
Duration:07:41:17
</desc></wpt>
<wpt lat = "29.90158" lon = "-96.31103"><name>JVI1</name><desc>Obstacle 29 Plate Drag
Images:5273
First:08.03.2025 03:49:01
Last:08.03.2025 15:33:19
Duration:11:44:18
</desc></wpt>
<wpt lat = "29.90468" lon = "-96.31827"><name>JLEY1</name><desc>Obstacle 33 Fire Jump
Images:11068
First:08.03.2025 06:02:50
Last:08.03.2025 16:37:28
Duration:10:34:38
</desc></wpt>
<wpt lat = "29.90500" lon = "-96.31799"><name>JOFU1LS1</name><desc>Finish
Images:413
First:07.03.2025 17:37:24
Last:08.03.2025 15:48:45
Duration:22:11:21
</desc></wpt>
<wpt lat = "29.90500" lon = "-96.31799"><name>PRU1</name><desc>Herotent
Images:4124
First:07.03.2025 18:11:48
Last:08.03.2025 16:38:23
Duration:22:26:35
</desc></wpt>
<wpt lat = "29.90638" lon = "-96.31925"><name>JOFU1</name><desc>Impressions / Pano
Images:66
First:07.03.2025 17:30:44
Last:08.03.2025 11:21:02
Duration:17:50:18
</desc></wpt>
</gpx>