<?xml version='1.0' encoding='utf-8'?>
<gpx version="1.1" creator="Infofile GPX Generator">
<wpt lat = "28.37421" lon = "-81.28259"><name>JPP1</name><desc>#2 MONKEY BARS
Images:1846
First:07.11.2025 20:43:07
Last:09.11.2025 07:49:42
Duration:1.11:06:35
</desc></wpt>
<wpt lat = "28.37421" lon = "-81.28259"><name>GMAL1</name><desc>#2 MONKEY BARS
Images:3321
First:08.11.2025 05:33:27
Last:08.11.2025 11:31:04
Duration:05:57:37
</desc></wpt>
<wpt lat = "28.36770" lon = "-81.29075"><name>AUC1</name><desc>#5 MULTI-RIGS
Images:4729
First:08.11.2025 05:44:13
Last:09.11.2025 06:45:24
Duration:1.01:01:11
</desc></wpt>
<wpt lat = "28.36770" lon = "-81.29075"><name>RASC1</name><desc>#5 MULTI-RIGS
Images:6079
First:07.11.2025 21:46:54
Last:08.11.2025 13:18:26
Duration:15:31:32
</desc></wpt>
<wpt lat = "28.37506" lon = "-81.28147"><name>JAZZ1</name><desc>#16 ATLAS CARRY
Images:5317
First:08.11.2025 05:40:41
Last:08.11.2025 12:26:15
Duration:06:45:34
</desc></wpt>
<wpt lat = "28.37506" lon = "-81.28147"><name>MAPM1</name><desc>#16 ATLAS CARRY
Images:5060
First:08.11.2025 05:53:44
Last:09.11.2025 05:54:44
Duration:1.00:01:00
</desc></wpt>
<wpt lat = "28.37544" lon = "-81.28021"><name>AAD1</name><desc>#17 CHAIN CARRY
Images:8936
First:08.11.2025 05:39:10
Last:08.11.2025 12:31:32
Duration:06:52:22
</desc></wpt>
<wpt lat = "28.37544" lon = "-81.28021"><name>SICA1</name><desc>#17 CHAIN CARRY
Images:310
First:09.11.2025 07:16:44
Last:08.11.2026 08:12:20
Duration:364.00:55:36
</desc></wpt>
<wpt lat = "28.37439" lon = "-81.27893"><name>JACL1</name><desc>#20 BARBED WIRE CRAWL
Images:12171
First:07.11.2025 20:31:57
Last:08.11.2025 12:51:17
Duration:16:19:20
</desc></wpt>
<wpt lat = "28.37439" lon = "-81.27893"><name>SICA3</name><desc>#20 BARBED WIRE CRAWL
Images:735
First:08.11.2026 09:40:01
Last:08.11.2026 09:52:51
Duration:00:12:50
</desc></wpt>
<wpt lat = "28.37407" lon = "-81.27978"><name>MBAR1</name><desc>#21 SLIP WALL
Images:4382
First:07.11.2025 21:01:58
Last:09.11.2025 06:31:31
Duration:1.09:29:33
</desc></wpt>
<wpt lat = "28.37357" lon = "-81.27924"><name>ORGA1</name><desc>#22 A-FRAME CARGO
Images:5346
First:08.11.2025 04:23:37
Last:09.11.2025 05:43:49
Duration:1.01:20:12
</desc></wpt>
<wpt lat = "28.37357" lon = "-81.27924"><name>SICA2</name><desc>#22 A-FRAME CARGO
Images:299
First:08.11.2026 10:38:01
Last:08.11.2026 10:43:09
Duration:00:05:08
</desc></wpt>
<wpt lat = "28.37369" lon = "-81.27948"><name>VMM1</name><desc>#27 FIRE JUMP
Images:9535
First:05.11.2025 13:05:08
Last:09.11.2025 06:44:40
Duration:3.17:39:32
</desc></wpt>
<wpt lat = "28.37369" lon = "-81.27948"><name>SICA4</name><desc>#27 FIRE JUMP
Images:867
First:08.11.2026 10:15:30
Last:08.11.2026 10:31:45
Duration:00:16:15
</desc></wpt>
<wpt lat = "28.37369" lon = "-81.27948"><name>SICA4LS1</name><desc>#27 FIRE JUMP
Images:19785
First:08.11.2025 09:32:41
Last:08.11.2026 13:03:55
Duration:365.03:31:14
</desc></wpt>
<wpt lat = "28.37369" lon = "-81.27948"><name>SICA5</name><desc>FESTIVAL IMPRESSIONS
Images:404
First:08.11.2025 07:01:40
Last:08.11.2026 09:37:32
Duration:365.02:35:52
</desc></wpt>
<wpt lat = "28.37369" lon = "-81.27948"><name>JETR1</name><desc>Herotent
Images:1450
First:08.11.2025 05:26:22
Last:08.11.2025 13:11:55
Duration:07:45:33
</desc></wpt>
</gpx>