<?xml version='1.0' encoding='utf-8'?>
<gpx version="1.1" creator="Infofile GPX Generator">
<wpt lat = "51.57447" lon = "-0.89278"><name>KYY1</name><desc>Blockness Monster
Images:10636
First:10.05.2025 08:27:41
Last:10.05.2025 18:44:16
Duration:10:16:35
</desc></wpt>
<wpt lat = "51.57447" lon = "-0.89278"><name>MYN1</name><desc>Blockness Monster
Images:5348
First:10.05.2025 08:13:42
Last:10.05.2025 18:06:09
Duration:09:52:27
</desc></wpt>
<wpt lat = "51.57447" lon = "-0.89278"><name>JUW2</name><desc>Blockness Monster
Images:2158
First:10.05.2025 10:45:34
Last:10.05.2025 11:05:53
Duration:00:20:19
</desc></wpt>
<wpt lat = "51.57447" lon = "-0.89183"><name>SALA1</name><desc>Stairway to Heaven
Images:16602
First:10.05.2025 09:06:00
Last:10.05.2025 18:47:08
Duration:09:41:08
</desc></wpt>
<wpt lat = "51.57447" lon = "-0.89183"><name>JUW3</name><desc>Stairway to Heaven
Images:2579
First:10.05.2025 11:11:14
Last:10.05.2025 11:28:53
Duration:00:17:39
</desc></wpt>
<wpt lat = "51.57521" lon = "-0.88823"><name>DACA1</name><desc>Kiss of Mud
Images:4269
First:10.05.2025 07:55:16
Last:10.05.2025 18:30:18
Duration:10:35:02
</desc></wpt>
<wpt lat = "51.57521" lon = "-0.88823"><name>THB1</name><desc>Kiss of Mud
Images:29779
First:10.05.2025 09:11:07
Last:10.05.2025 18:43:09
Duration:09:32:02
</desc></wpt>
<wpt lat = "51.57521" lon = "-0.88823"><name>JUW4</name><desc>Kiss of Mud
Images:3114
First:10.05.2025 11:34:45
Last:10.05.2025 12:04:34
Duration:00:29:49
</desc></wpt>
<wpt lat = "51.57189" lon = "-0.88702"><name>JOEM1</name><desc>Everest
Images:10049
First:10.05.2025 08:21:16
Last:10.05.2025 17:21:40
Duration:09:00:24
</desc></wpt>
<wpt lat = "51.57189" lon = "-0.88702"><name>STHH1</name><desc>Everest
Images:12866
First:10.05.2025 07:38:27
Last:10.05.2025 17:49:15
Duration:10:10:48
</desc></wpt>
<wpt lat = "51.57006" lon = "-0.88620"><name>CMS1</name><desc>Hanging Tough
Images:23074
First:10.05.2025 07:41:22
Last:10.05.2025 17:43:16
Duration:10:01:54
</desc></wpt>
<wpt lat = "51.57006" lon = "-0.88620"><name>JUW6</name><desc>Hanging Tough
Images:1244
First:10.05.2025 12:20:12
Last:10.05.2025 12:30:49
Duration:00:10:37
</desc></wpt>
<wpt lat = "51.56750" lon = "-0.88868"><name>MKH1</name><desc>Skid Marked
Images:14949
First:10.05.2025 07:28:51
Last:10.05.2025 18:49:06
Duration:11:20:15
</desc></wpt>
<wpt lat = "51.56750" lon = "-0.88868"><name>JUW7</name><desc>Skid Marked
Images:2110
First:10.05.2025 12:39:44
Last:10.05.2025 12:52:54
Duration:00:13:10
</desc></wpt>
<wpt lat = "51.56660" lon = "-0.88584"><name>AMK1</name><desc>Electric Shock Treatment
Images:4180
First:09.05.2025 19:49:24
Last:10.05.2025 18:47:06
Duration:22:57:42
</desc></wpt>
<wpt lat = "51.56660" lon = "-0.88584"><name>JUW8</name><desc>Electric Shock Treatment
Images:1127
First:10.05.2025 13:19:04
Last:10.05.2025 13:33:17
Duration:00:14:13
</desc></wpt>
<wpt lat = "51.56691" lon = "-0.88578"><name>GWH1</name><desc>Herotent
Images:1702
First:10.05.2025 07:32:48
Last:10.05.2025 20:02:04
Duration:12:29:16
</desc></wpt>
<wpt lat = "51.56691" lon = "-0.88578"><name>NLA1</name><desc>Herotent
Images:5159
First:10.05.2025 07:49:48
Last:10.05.2025 19:02:45
Duration:11:12:57
</desc></wpt>
<wpt lat = "51.56660" lon = "-0.88584"><name>JUW1DRONE1</name><desc>Various
Images:20
First:10.05.2025 08:16:30
Last:10.05.2025 10:40:08
Duration:02:23:38
</desc></wpt>
<wpt lat = "51.56660" lon = "-0.88584"><name>PANO1</name><desc>Impressions / Pano
Images:80
First:10.05.2025 07:31:43
Last:10.05.2025 09:26:56
Duration:01:55:13
</desc></wpt>
</gpx>