<?xml version='1.0' encoding='utf-8'?>
<gpx version="1.1" creator="Infofile GPX Generator">
<wpt lat = "46.22633" lon = "-74.52994"><name>CASS1</name><desc>Obstacle 30
Images:3951
First:14.06.2025 08:34:30
Last:14.06.2025 20:37:45
Duration:12:03:15
</desc></wpt>
<wpt lat = "46.22303" lon = "-74.54353"><name>CBAC1</name><desc>Obstacle 5
Images:6954
First:14.06.2025 07:43:55
Last:14.06.2025 16:42:57
Duration:08:59:02
</desc></wpt>
<wpt lat = "46.22303" lon = "-74.54353"><name>HLN1</name><desc>Obstacle 5
Images:8542
First:13.06.2025 16:29:24
Last:14.06.2025 15:47:43
Duration:23:18:19
</desc></wpt>
<wpt lat = "46.23030" lon = "-74.53358"><name>DMED1</name><desc>Obstacle 27
Images:5851
First:14.06.2025 07:30:06
Last:15.06.2025 10:22:15
Duration:1.02:52:09
</desc></wpt>
<wpt lat = "46.22685" lon = "-74.52720"><name>ERIC1</name><desc>Obstacle 29
Images:16214
First:14.06.2025 07:47:42
Last:15.06.2025 16:45:23
Duration:1.08:57:41
</desc></wpt>
<wpt lat = "46.22461" lon = "-74.52573"><name>JSLR1</name><desc>Herotent
Images:1504
First:14.06.2025 08:42:12
Last:15.06.2025 10:12:11
Duration:1.01:29:59
</desc></wpt>
<wpt lat = "46.22462" lon = "-74.52634"><name>KENY1</name><desc>Obstacle 34
Images:3417
First:13.06.2025 18:38:33
Last:15.06.2025 08:19:01
Duration:1.13:40:28
</desc></wpt>
<wpt lat = "46.22462" lon = "-74.52634"><name>WTY1</name><desc>Obstacle 34
Images:6143
First:13.06.2025 18:29:41
Last:15.06.2025 07:59:00
Duration:1.13:29:19
</desc></wpt>
<wpt lat = "46.22464" lon = "-74.52628"><name>LHBC1</name><desc>Obstacle 35
Images:4730
First:14.06.2025 08:52:45
Last:14.06.2025 20:49:59
Duration:11:57:14
</desc></wpt>
<wpt lat = "46.19577" lon = "-74.64504"><name>NIMA1</name><desc>Imps
Images:589
First:14.06.2025 06:01:29
Last:15.06.2025 12:28:49
Duration:1.06:27:20
</desc></wpt>
<wpt lat = "46.22049" lon = "-74.55025"><name>THAT1DRONE1</name><desc>Imps
Images:129
First:13.06.2025 20:27:59
Last:15.06.2025 10:38:48
Duration:1.14:10:49
</desc></wpt>
<wpt lat = "46.22301" lon = "-74.54095"><name>PNR1</name><desc>Obstacle 4
Images:3156
First:14.06.2025 07:43:43
Last:15.06.2025 10:39:39
Duration:1.02:55:56
</desc></wpt>
<wpt lat = "46.22328" lon = "-74.54311"><name>THAT1</name><desc>Obstacle 6
Images:11493
First:14.06.2025 06:09:01
Last:15.06.2025 11:02:39
Duration:1.04:53:38
</desc></wpt>
</gpx>