<?xml version='1.0' encoding='utf-8'?>
<gpx version="1.1" creator="Infofile GPX Generator">
<wpt lat = "37.91600" lon = "-81.13357"><name>CIZZY1</name><desc>Obstacle 8 Water Crossing
Images:8716
First:07.09.2025 06:54:06
Last:07.09.2025 10:59:56
Duration:04:05:50
</desc></wpt>
<wpt lat = "37.91855" lon = "-81.13686"><name>CTRC1</name><desc>Obstacle 11 A-Frame Cargo #2
Images:8399
First:07.09.2025 07:00:41
Last:07.09.2025 11:13:41
Duration:04:13:00
</desc></wpt>
<wpt lat = "37.91880" lon = "-81.13630"><name>CEUGP1</name><desc>Obstacle 12 Tilting Ladder
Images:2169
First:07.09.2025 07:24:45
Last:07.09.2025 11:15:35
Duration:03:50:50
</desc></wpt>
<wpt lat = "37.91880" lon = "-81.13630"><name>CYEP1</name><desc>Obstacle 12 Tilting Ladder
Images:2808
First:07.09.2025 07:21:12
Last:07.09.2025 11:18:00
Duration:03:56:48
</desc></wpt>
<wpt lat = "37.92852" lon = "-81.12808"><name>CJBB1</name><desc>Obstacle 19 Stairway to Sparta
Images:16882
First:07.09.2025 06:51:54
Last:07.09.2025 13:04:30
Duration:06:12:36
</desc></wpt>
<wpt lat = "37.91991" lon = "-81.12458"><name>CTFUL1</name><desc>Obstacle 19 Stairway to Sparta
Images:6391
First:07.09.2025 07:46:33
Last:07.09.2025 13:16:05
Duration:05:29:32
</desc></wpt>
<wpt lat = "37.91991" lon = "-81.12458"><name>CCORS1</name><desc>Obstacle 20 Tyrolean Traverse
Images:15413
First:07.09.2025 07:46:26
Last:07.09.2025 12:19:37
Duration:04:33:11
</desc></wpt>
<wpt lat = "37.91999" lon = "-81.12502"><name>CELPA1</name><desc>Obstacle 27 Laser Pistol
Images:10960
First:07.09.2025 07:11:58
Last:07.09.2025 16:51:02
Duration:09:39:04
</desc></wpt>
<wpt lat = "37.92494" lon = "-81.13630"><name>CMSK1</name><desc>Obstacle 31 T Wall
Images:3650
First:07.09.2025 10:42:58
Last:07.09.2025 16:25:13
Duration:05:42:15
</desc></wpt>
<wpt lat = "37.92494" lon = "-81.13630"><name>CJMCK1</name><desc>Obstacle 31 T Wall
Images:2154
First:07.09.2025 10:41:20
Last:07.09.2025 15:52:50
Duration:05:11:30
</desc></wpt>
<wpt lat = "37.91822" lon = "-81.13422"><name>CGMAL1</name><desc>Obstacle 35 Chain Carry
Images:10754
First:07.09.2025 07:33:18
Last:07.09.2025 17:12:32
Duration:09:39:14
</desc></wpt>
<wpt lat = "37.91822" lon = "-81.13422"><name>CPEC1</name><desc>Obstacle 35 Chain Carry
Images:17210
First:07.09.2025 09:00:40
Last:07.09.2025 17:32:08
Duration:08:31:28
</desc></wpt>
<wpt lat = "37.91813" lon = "-81.13536"><name>CSICA1</name><desc>Obstacle 38 Fire Jump
Images:11073
First:07.09.2025 07:59:43
Last:07.09.2025 17:37:21
Duration:09:37:38
</desc></wpt>
<wpt lat = "37.91813" lon = "-81.13536"><name>CSICA1LS1</name><desc>Obstacle 38 Fire Jump
Images:2233
First:07.09.2025 07:45:57
Last:07.09.2025 17:37:43
Duration:09:51:46
</desc></wpt>
<wpt lat = "37.91813" lon = "-81.13536"><name>CSICA1LS2</name><desc>Obstacle 38 Fire Jump
Images:9485
First:07.09.2025 07:53:26
Last:07.09.2025 17:37:18
Duration:09:43:52
</desc></wpt>
<wpt lat = "37.91815" lon = "-81.13560"><name>CMBRS1</name><desc>Herotent
Images:2496
First:07.09.2025 09:19:26
Last:07.09.2025 18:05:58
Duration:08:46:32
</desc></wpt>
<wpt lat = "37.91815" lon = "-81.13560"><name>CPEC2</name><desc>Start
Images:1375
First:07.09.2025 08:28:43
Last:07.09.2025 08:55:07
Duration:00:26:24
</desc></wpt>
<wpt lat = "37.92003" lon = "-81.13018"><name>CJMCK2</name><desc>Trail Spot 1
Images:492
First:07.09.2025 08:49:47
Last:07.09.2025 10:19:57
Duration:01:30:10
</desc></wpt>
<wpt lat = "37.91925" lon = "-81.12788"><name>CMSK2</name><desc>Trail Spot 2
Images:896
First:07.09.2025 08:41:42
Last:07.09.2025 10:19:11
Duration:01:37:29
</desc></wpt>
</gpx>