<?xml version='1.0' encoding='utf-8'?>
<gpx version="1.1" creator="Infofile GPX Generator">
<wpt lat = "22.39728" lon = "114.32043"><name>DLE1</name><desc>Start
Images:322
First:17.01.2025 06:34:53
Last:17.01.2025 07:01:31
Duration:00:26:38
</desc></wpt>
<wpt lat = "22.39728" lon = "114.32043"><name>LNG1</name><desc>Start
Images:231
First:17.01.2025 06:02:21
Last:17.01.2025 07:01:36
Duration:00:59:15
</desc></wpt>
<wpt lat = "22.39728" lon = "114.32043"><name>NNG1</name><desc>Start
Images:356
First:17.01.2025 06:06:53
Last:17.01.2025 07:03:35
Duration:00:56:42
</desc></wpt>
<wpt lat = "22.42217" lon = "114.32687"><name>DLE2</name><desc>29,0 km
Images:6646
First:17.01.2025 08:24:12
Last:17.01.2025 15:24:01
Duration:06:59:49
</desc></wpt>
<wpt lat = "22.40942" lon = "114.37530"><name>HTT1</name><desc>20,0 km
Images:11398
First:17.01.2025 06:04:36
Last:17.01.2025 12:13:49
Duration:06:09:13
</desc></wpt>
<wpt lat = "22.40942" lon = "114.37530"><name>HTT1DRONE1</name><desc>20,0 km
Images:6
First:28.09.2024 19:44:00
Last:28.09.2024 21:06:54
Duration:01:22:54
</desc></wpt>
<wpt lat = "22.40942" lon = "114.37530"><name>HTT1LS1</name><desc>20,0 km
Images:1025
First:17.01.2025 07:44:49
Last:17.01.2025 11:49:42
Duration:04:04:53
</desc></wpt>
<wpt lat = "22.40942" lon = "114.37530"><name>HTT1LS2</name><desc>20,0 km
Images:940
First:17.01.2025 08:13:29
Last:17.01.2025 11:49:42
Duration:03:36:13
</desc></wpt>
<wpt lat = "22.40942" lon = "114.37530"><name>PNQ1</name><desc>20,0 km
Images:11591
First:17.01.2025 08:20:41
Last:17.01.2025 12:18:55
Duration:03:58:14
</desc></wpt>
<wpt lat = "22.40326" lon = "114.31790"><name>HTT2</name><desc>55,0 km
Images:1353
First:17.01.2025 16:37:09
Last:17.01.2025 20:43:35
Duration:04:06:26
</desc></wpt>
<wpt lat = "22.40326" lon = "114.31790"><name>HTT2LS1</name><desc>55,0 km
Images:904
First:17.01.2025 15:55:59
Last:17.01.2025 20:47:01
Duration:04:51:02
</desc></wpt>
<wpt lat = "22.40326" lon = "114.31790"><name>HTT2LS2</name><desc>55,0 km
Images:1038
First:17.01.2025 15:19:07
Last:17.01.2025 20:55:19
Duration:05:36:12
</desc></wpt>
<wpt lat = "22.40326" lon = "114.31790"><name>PNQ2</name><desc>55,0 km
Images:6634
First:17.01.2025 15:29:01
Last:17.01.2025 20:55:46
Duration:05:26:45
</desc></wpt>
<wpt lat = "22.37902" lon = "114.37998"><name>HYI1</name><desc>12,0 km
Images:4578
First:16.01.2025 05:57:50
Last:17.01.2025 10:40:54
Duration:1.04:43:04
</desc></wpt>
<wpt lat = "22.39728" lon = "114.32043"><name>HYI2</name><desc>Finish
Images:3761
First:17.01.2025 11:36:05
Last:17.01.2025 20:13:57
Duration:08:37:52
</desc></wpt>
<wpt lat = "22.39728" lon = "114.32043"><name>NP2</name><desc>Finish
Images:7524
First:17.01.2025 11:36:05
Last:17.01.2025 21:28:30
Duration:09:52:25
</desc></wpt>
<wpt lat = "22.39728" lon = "114.32043"><name>NP2LS1</name><desc>Finish
Images:4282
First:17.01.2025 11:43:21
Last:17.01.2025 19:12:24
Duration:07:29:03
</desc></wpt>
<wpt lat = "22.39728" lon = "114.32043"><name>NP2LS2</name><desc>Finish
Images:5995
First:17.01.2025 11:39:28
Last:17.01.2025 19:12:25
Duration:07:32:57
</desc></wpt>
<wpt lat = "22.42282" lon = "114.29610"><name>LNG2</name><desc>51,0 km
Images:2438
First:17.01.2025 11:04:32
Last:17.01.2025 17:39:32
Duration:06:35:00
</desc></wpt>
<wpt lat = "22.42282" lon = "114.29610"><name>LNG2LS1</name><desc>51,0 km
Images:1598
First:17.01.2025 09:30:48
Last:17.01.2025 15:52:52
Duration:06:22:04
</desc></wpt>
<wpt lat = "22.42282" lon = "114.29610"><name>LNG2LS2</name><desc>51,0 km
Images:2707
First:17.01.2025 09:13:33
Last:17.01.2025 15:46:22
Duration:06:32:49
</desc></wpt>
<wpt lat = "22.42980" lon = "114.28568"><name>NNG2</name><desc>49,0 km
Images:2259
First:17.01.2025 10:57:05
Last:17.01.2025 16:53:46
Duration:05:56:41
</desc></wpt>
<wpt lat = "22.42980" lon = "114.28568"><name>NNG2LS1</name><desc>49,0 km
Images:584
First:17.01.2025 12:37:07
Last:17.01.2025 17:17:02
Duration:04:39:55
</desc></wpt>
<wpt lat = "22.37418" lon = "114.3406"><name>NP1</name><desc>6,5 km
Images:5367
First:17.01.2025 06:23:50
Last:17.01.2025 11:25:26
Duration:05:01:36
</desc></wpt>
<wpt lat = "22.37418" lon = "114.3406"><name>NP1LS1</name><desc>6,5 km
Images:1184
First:17.01.2025 06:44:13
Last:17.01.2025 11:39:29
Duration:04:55:16
</desc></wpt>
<wpt lat = "22.37418" lon = "114.3406"><name>NP1LS2</name><desc>6,5 km
Images:5237
First:17.01.2025 06:43:20
Last:17.01.2025 09:37:05
Duration:02:53:45
</desc></wpt>
</gpx>