<?xml version='1.0' encoding='utf-8'?>
<gpx version="1.1" creator="Infofile GPX Generator">
<wpt lat = "43.96222" lon = "12.69846"><name>MMO1</name><desc>Obstacle 5 Armer
Images:5833
First:20.09.2025 07:39:17
Last:20.09.2025 12:45:11
Duration:05:05:54
</desc></wpt>
<wpt lat = "43.96045" lon = "12.70581"><name>MDV1LS1</name><desc>Obstacle 11 Log Carry
Images:775
First:20.09.2025 07:22:45
Last:20.09.2025 13:05:13
Duration:05:42:28
</desc></wpt>
<wpt lat = "43.96051" lon = "12.70595"><name>MDV1</name><desc>Obstacle 12 Tilting Ladder
Images:1708
First:20.09.2025 07:10:19
Last:20.09.2025 13:03:57
Duration:05:53:38
</desc></wpt>
<wpt lat = "43.96975" lon = "12.71987"><name>LDL1</name><desc>Obstacle 17 Starway
Images:3428
First:20.09.2025 09:22:47
Last:20.09.2025 13:44:56
Duration:04:22:09
</desc></wpt>
<wpt lat = "43.97009" lon = "12.71892"><name>MDV2</name><desc>Obstacle 18 Sandbag carry
Images:1397
First:20.09.2025 14:11:06
Last:20.09.2025 17:05:20
Duration:02:54:14
</desc></wpt>
<wpt lat = "43.97123" lon = "12.71460"><name>LDL2</name><desc>Obstacle 19 6" Wall
Images:1641
First:20.09.2025 14:01:12
Last:20.09.2025 17:12:51
Duration:03:11:39
</desc></wpt>
<wpt lat = "43.97482" lon = "12.71220"><name>MMO3</name><desc>Obstacle 20 Balance walk
Images:516
First:20.09.2025 14:03:14
Last:20.09.2025 14:17:19
Duration:00:14:05
</desc></wpt>
<wpt lat = "43.97680" lon = "12.70847"><name>MAGA1</name><desc>Obstacle 21 Bucket carry
Images:4673
First:20.09.2025 10:01:37
Last:20.09.2025 17:37:14
Duration:07:35:37
</desc></wpt>
<wpt lat = "43.98058" lon = "12.70046"><name>MMO2</name><desc>Obstacle 24 Atlas
Images:2553
First:20.09.2025 14:43:17
Last:20.09.2025 17:41:54
Duration:02:58:37
</desc></wpt>
<wpt lat = "43.98193" lon = "12.69745"><name>VHO1</name><desc>Obstacle 25 Hurdles
Images:4002
First:20.09.2025 08:04:31
Last:20.09.2025 17:58:14
Duration:09:53:43
</desc></wpt>
<wpt lat = "43.97986" lon = "12.69618"><name>GIBE1</name><desc>Obstacle 29 Multirig
Images:9362
First:20.09.2025 09:27:35
Last:20.09.2025 18:07:34
Duration:08:39:59
</desc></wpt>
<wpt lat = "43.97973" lon = "12.69720"><name>GMA1</name><desc>Obstacle 31 Rolling Mud
Images:6031
First:20.09.2025 08:58:11
Last:20.09.2025 18:10:06
Duration:09:11:55
</desc></wpt>
<wpt lat = "43.97975" lon = "12.69686"><name>DARU1</name><desc>Obstacle 34 Firejump
Images:4049
First:20.09.2025 10:16:17
Last:20.09.2025 18:13:48
Duration:07:57:31
</desc></wpt>
<wpt lat = "43.97975" lon = "12.69686"><name>DARU1LS1</name><desc>Obstacle 34 Firejump
Images:2947
First:20.09.2025 09:51:18
Last:20.09.2025 18:14:28
Duration:08:23:10
</desc></wpt>
<wpt lat = "43.97975" lon = "12.69686"><name>RLO1LS1</name><desc>Obstacle 34 Firejump
Images:1574
First:20.09.2025 10:12:41
Last:20.09.2025 18:11:54
Duration:07:59:13
</desc></wpt>
<wpt lat = "43.97958" lon = "12.69636"><name>NBE1</name><desc>Herotent
Images:2949
First:20.09.2025 09:38:59
Last:20.09.2025 18:14:12
Duration:08:35:13
</desc></wpt>
<wpt lat = "43.97958" lon = "12.69636"><name>MDV1DRONE1</name><desc>Impressions / Pano
Images:48
First:01.01.0001 23:00:00
Last:20.09.2025 17:48:40
Duration:739512.18:48:40
</desc></wpt>
<wpt lat = "43.97958" lon = "12.69636"><name>RLO1</name><desc>Jumper
Images:319
First:20.09.2025 09:37:58
Last:20.09.2025 17:03:22
Duration:07:25:24
</desc></wpt>
</gpx>