<?xml version='1.0' encoding='utf-8'?>
<gpx version="1.1" creator="Infofile GPX Generator">
<wpt lat = "46.09939" lon = "7.21866"><name>BP1IMP1</name><desc>Start
Images:116
First:06.09.2025 09:04:40
Last:06.09.2025 12:47:56
Duration:03:43:16
</desc></wpt>
<wpt lat = "46.09939" lon = "7.21866"><name>BP1DRONE1</name><desc>Start
Images:14
First:06.09.2025 07:18:35
Last:06.09.2025 12:25:57
Duration:05:07:22
</desc></wpt>
<wpt lat = "46.10317" lon = "7.20247"><name>KAM1</name><desc>Log Carry
Images:6070
First:05.09.2025 21:40:52
Last:06.09.2025 14:24:09
Duration:16:43:17
</desc></wpt>
<wpt lat = "46.10482" lon = "7.20772"><name>JTF1</name><desc>Barbed Wire
Images:2156
First:06.09.2025 07:57:06
Last:06.09.2025 14:34:39
Duration:06:37:33
</desc></wpt>
<wpt lat = "46.12171" lon = "7.23143"><name>HS1</name><desc>Chain Carry
Images:1677
First:06.09.2025 09:14:28
Last:06.09.2025 13:26:32
Duration:04:12:04
</desc></wpt>
<wpt lat = "46.12171" lon = "7.23143"><name>HS1LS1</name><desc>Chain Carry
Images:752
First:06.09.2025 09:04:01
Last:06.09.2025 13:24:39
Duration:04:20:38
</desc></wpt>
<wpt lat = "46.12171" lon = "7.23143"><name>HS1LS2</name><desc>Chain Carry
Images:670
First:06.09.2025 09:02:29
Last:06.09.2025 13:11:39
Duration:04:09:10
</desc></wpt>
<wpt lat = "46.10068" lon = "7.23039"><name>GAT1</name><desc>Sandbag Carry
Images:3451
First:06.09.2025 07:38:36
Last:06.09.2025 15:20:12
Duration:07:41:36
</desc></wpt>
<wpt lat = "46.10068" lon = "7.23039"><name>BP1</name><desc>Sandbag Carry
Images:1061
First:06.09.2025 12:56:27
Last:06.09.2025 13:26:34
Duration:00:30:07
</desc></wpt>
<wpt lat = "46.10068" lon = "7.23039"><name>BP1LS1</name><desc>Sandbag Carry
Images:1993
First:06.09.2025 07:47:34
Last:06.09.2025 15:18:36
Duration:07:31:02
</desc></wpt>
<wpt lat = "46.09773" lon = "7.22130"><name>ELLA1</name><desc>Tilting Ladders
Images:3894
First:06.09.2025 07:08:52
Last:06.09.2025 15:42:25
Duration:08:33:33
</desc></wpt>
<wpt lat = "46.09773" lon = "7.22130"><name>ELLA1LS1</name><desc>Tilting Ladders
Images:1853
First:06.09.2025 08:32:37
Last:06.09.2025 15:03:41
Duration:06:31:04
</desc></wpt>
<wpt lat = "46.09773" lon = "7.22130"><name>BP2</name><desc>Tilting Ladders
Images:679
First:06.09.2025 13:41:51
Last:06.09.2025 14:12:55
Duration:00:31:04
</desc></wpt>
<wpt lat = "46.09773" lon = "7.22130"><name>BP1LS2</name><desc>Tilting Ladders
Images:1719
First:06.09.2025 08:32:06
Last:06.09.2025 15:42:44
Duration:07:10:38
</desc></wpt>
<wpt lat = "46.09922" lon = "7.21845"><name>LEBE1LS1</name><desc>Rope Climb
Images:986
First:06.09.2025 07:38:09
Last:06.09.2025 15:22:32
Duration:07:44:23
</desc></wpt>
<wpt lat = "46.09922" lon = "7.21845"><name>LEBE1</name><desc>Multi Rig
Images:2139
First:06.09.2025 10:01:11
Last:06.09.2025 15:55:44
Duration:05:54:33
</desc></wpt>
<wpt lat = "46.09922" lon = "7.21845"><name>BP3</name><desc>Multi Rig
Images:221
First:06.09.2025 14:22:01
Last:06.09.2025 14:39:06
Duration:00:17:05
</desc></wpt>
<wpt lat = "46.09958" lon = "7.21828"><name>ARF1</name><desc>A-Frame
Images:3434
First:06.09.2025 10:02:43
Last:06.09.2025 15:57:06
Duration:05:54:23
</desc></wpt>
<wpt lat = "46.09958" lon = "7.21828"><name>BP4</name><desc>A-Frame
Images:234
First:06.09.2025 14:42:23
Last:06.09.2025 15:10:20
Duration:00:27:57
</desc></wpt>
<wpt lat = "46.09939" lon = "7.21866"><name>ALL1</name><desc>Finish
Images:1657
First:06.09.2025 09:52:01
Last:06.09.2025 16:03:42
Duration:06:11:41
</desc></wpt>
<wpt lat = "46.09939" lon = "7.21866"><name>ALL1LS1</name><desc>Finish
Images:5694
First:06.09.2025 08:54:08
Last:06.09.2025 16:12:03
Duration:07:17:55
</desc></wpt>
<wpt lat = "46.09939" lon = "7.21866"><name>BP5</name><desc>Finish
Images:338
First:06.09.2025 15:15:27
Last:06.09.2025 15:44:03
Duration:00:28:36
</desc></wpt>
<wpt lat = "46.09939" lon = "7.21866"><name>DART1</name><desc>Herotent
Images:6753
First:06.09.2025 06:54:34
Last:06.09.2025 16:07:48
Duration:09:13:14
</desc></wpt>
</gpx>