<?xml version='1.0' encoding='utf-8'?>
<gpx version="1.1" creator="Infofile GPX Generator">
<wpt lat = "41.70771" lon = "1.80594"><name>DAFE1</name><desc>Impressions / Pano
Images:94
First:14.06.2025 09:47:43
Last:15.06.2025 12:03:55
Duration:1.02:16:12
</desc></wpt>
<wpt lat = "41.70311" lon = "1.80157"><name>TGM1DRONE1</name><desc>Impressions / Pano
Images:98
First:14.06.2025 10:08:00
Last:15.06.2025 14:25:01
Duration:1.04:17:01
</desc></wpt>
<wpt lat = "41.70771" lon = "1.80594"><name>DAFE2</name><desc>Start
Images:14
First:15.06.2025 09:31:22
Last:15.06.2025 09:32:36
Duration:00:01:14
</desc></wpt>
<wpt lat = "41.70771" lon = "1.80594"><name>DARO1</name><desc>Start
Images:32
First:15.06.2025 08:49:31
Last:15.06.2025 09:32:37
Duration:00:43:06
</desc></wpt>
<wpt lat = "41.70640" lon = "1.80603"><name>MRAB1</name><desc>Alambre de espino
Images:289
First:14.06.2025 09:50:33
Last:15.06.2025 10:42:52
Duration:1.00:52:19
</desc></wpt>
<wpt lat = "41.70315" lon = "1.80183"><name>TGM1LS1</name><desc>Masia
Images:548
First:15.06.2025 08:57:28
Last:15.06.2025 13:29:08
Duration:04:31:40
</desc></wpt>
<wpt lat = "41.70311" lon = "1.80157"><name>TGM1</name><desc>Moody Spa
Images:2396
First:14.06.2025 10:21:01
Last:15.06.2025 13:16:43
Duration:1.02:55:42
</desc></wpt>
<wpt lat = "41.70303" lon = "1.80166"><name>TGM1LS2</name><desc>Bosque
Images:484
First:15.06.2025 08:41:47
Last:15.06.2025 13:38:26
Duration:04:56:39
</desc></wpt>
<wpt lat = "41.69483" lon = "1.81321"><name>JMP1</name><desc>Salto rio
Images:113
First:14.06.2025 11:11:36
Last:15.06.2025 12:11:15
Duration:1.00:59:39
</desc></wpt>
<wpt lat = "41.70771" lon = "1.80594"><name>TGM2</name><desc>Generales
Images:422
First:15.06.2025 14:23:51
Last:15.06.2025 14:59:44
Duration:00:35:53
</desc></wpt>
<wpt lat = "41.70568" lon = "1.80713"><name>JMP2LS1</name><desc>Cadenas
Images:491
First:15.06.2025 08:39:54
Last:15.06.2025 15:11:22
Duration:06:31:28
</desc></wpt>
<wpt lat = "41.70568" lon = "1.80713"><name>JMP2</name><desc>Cadenas
Images:1513
First:15.06.2025 12:51:14
Last:15.06.2025 15:10:34
Duration:02:19:20
</desc></wpt>
<wpt lat = "41.70551" lon = "1.80682"><name>MRAB2</name><desc>Air Monkeys
Images:3845
First:15.06.2025 11:00:35
Last:15.06.2025 15:14:54
Duration:04:14:19
</desc></wpt>
<wpt lat = "41.70526" lon = "1.80560"><name>DAFE3LS1</name><desc>Electric Wire
Images:1164
First:15.06.2025 08:37:32
Last:15.06.2025 15:35:55
Duration:06:58:23
</desc></wpt>
<wpt lat = "41.70532" lon = "1.80598"><name>DAFE3</name><desc>Neumaticos
Images:1928
First:15.06.2025 11:03:49
Last:15.06.2025 15:33:13
Duration:04:29:24
</desc></wpt>
<wpt lat = "41.70806" lon = "1.80627"><name>DARO1LS1</name><desc>Finish
Images:260
First:15.06.2025 08:42:38
Last:15.06.2025 15:55:24
Duration:07:12:46
</desc></wpt>
<wpt lat = "41.70806" lon = "1.80627"><name>DARO1LS2</name><desc>Finish
Images:251
First:15.06.2025 08:43:00
Last:15.06.2025 15:55:39
Duration:07:12:39
</desc></wpt>
<wpt lat = "41.70806" lon = "1.80627"><name>DARO2</name><desc>Herotent
Images:1180
First:15.06.2025 09:35:10
Last:15.06.2025 15:56:12
Duration:06:21:02
</desc></wpt>
</gpx>