<?xml version='1.0' encoding='utf-8'?>
<gpx version="1.1" creator="Infofile GPX Generator">
<wpt lat = "41.70771" lon = "1.80594"><name>DAFE1</name><desc>Impressions / Pano
Images:158
First:14.06.2025 09:46:48
Last:15.06.2025 10:30:44
Duration:1.00:43:56
</desc></wpt>
<wpt lat = "41.70316" lon = "1.80162"><name>TGM1DRONE1</name><desc>Impressions / Pano
Images:98
First:14.06.2025 10:06:31
Last:15.06.2025 09:35:46
Duration:23:29:15
</desc></wpt>
<wpt lat = "41.70551" lon = "1.80682"><name>TGM2</name><desc>Impressions / Pano
Images:204
First:14.06.2025 14:16:33
Last:14.06.2025 14:45:12
Duration:00:28:39
</desc></wpt>
<wpt lat = "41.70532" lon = "1.80595"><name>DAFE2</name><desc>Start
Images:89
First:14.06.2025 10:08:26
Last:14.06.2025 11:12:07
Duration:01:03:41
</desc></wpt>
<wpt lat = "41.70806" lon = "1.80627"><name>MRAB1</name><desc>Alambre de espino
Images:756
First:14.06.2025 09:50:33
Last:14.06.2025 11:39:48
Duration:01:49:15
</desc></wpt>
<wpt lat = "41.70322" lon = "1.80188"><name>TGM1LS1</name><desc>Masia
Images:536
First:14.06.2025 09:50:03
Last:14.06.2025 13:45:19
Duration:03:55:16
</desc></wpt>
<wpt lat = "41.70316" lon = "1.80162"><name>TGM1</name><desc>Moody spa
Images:2206
First:14.06.2025 10:21:01
Last:15.06.2025 09:40:30
Duration:23:19:29
</desc></wpt>
<wpt lat = "41.69455" lon = "1.81343"><name>JMP1</name><desc>Salto rio
Images:754
First:14.06.2025 10:39:04
Last:14.06.2025 13:57:03
Duration:03:17:59
</desc></wpt>
<wpt lat = "41.69480" lon = "1.81321"><name>JMP1LS1</name><desc>Salida rio
Images:673
First:14.06.2025 10:29:28
Last:14.06.2025 14:06:10
Duration:03:36:42
</desc></wpt>
<wpt lat = "41.70551" lon = "1.80682"><name>MRAB2</name><desc>Air Monkeys
Images:2226
First:14.06.2025 12:29:46
Last:14.06.2025 15:10:39
Duration:02:40:53
</desc></wpt>
<wpt lat = "41.70551" lon = "1.80682"><name>TGM2LS1</name><desc>Cadenas
Images:240
First:14.06.2025 14:14:30
Last:14.06.2025 15:08:36
Duration:00:54:06
</desc></wpt>
<wpt lat = "41.70521" lon = "1.80565"><name>DAFE2LS1</name><desc>Alambre electrificado
Images:711
First:14.06.2025 09:39:38
Last:14.06.2025 15:34:26
Duration:05:54:48
</desc></wpt>
<wpt lat = "41.70532" lon = "1.80595"><name>DAFE3</name><desc>Neumaticos
Images:2280
First:14.06.2025 11:28:27
Last:14.06.2025 15:38:59
Duration:04:10:32
</desc></wpt>
<wpt lat = "41.70771" lon = "1.80594"><name>JMP2</name><desc>Piramide
Images:727
First:14.06.2025 15:05:22
Last:14.06.2025 15:47:49
Duration:00:42:27
</desc></wpt>
<wpt lat = "41.70806" lon = "1.80627"><name>DARO1LS2</name><desc>Finish
Images:281
First:14.06.2025 09:43:22
Last:14.06.2025 15:58:35
Duration:06:15:13
</desc></wpt>
<wpt lat = "41.70806" lon = "1.80627"><name>DARO1LS1</name><desc>Finish
Images:298
First:14.06.2025 09:48:25
Last:15.06.2025 08:42:38
Duration:22:54:13
</desc></wpt>
<wpt lat = "41.70806" lon = "1.80627"><name>DARO1</name><desc>Herotent
Images:989
First:14.06.2025 10:29:54
Last:15.06.2025 08:49:51
Duration:22:19:57
</desc></wpt>
</gpx>