<?xml version='1.0' encoding='utf-8'?>
<gpx version="1.1" creator="Infofile GPX Generator">
<wpt lat = "47.48416" lon = "11.09512"><name>IH1</name><desc>Zugspitzview
Images:1666
First:13.06.2025 10:06:23
Last:13.06.2025 10:21:25
Duration:00:15:02
</desc></wpt>
<wpt lat = "47.49458" lon = "11.09190"><name>IH2</name><desc>Finish
Images:5053
First:13.06.2025 11:45:51
Last:13.06.2025 16:17:59
Duration:04:32:08
</desc></wpt>
<wpt lat = "47.49458" lon = "11.09190"><name>MBRE3</name><desc>Finish
Images:323
First:13.06.2025 16:20:42
Last:13.06.2025 18:33:55
Duration:02:13:13
</desc></wpt>
<wpt lat = "47.49431" lon = "11.09123"><name>MBRE1</name><desc>Start
Images:346
First:13.06.2025 09:45:11
Last:13.06.2025 10:04:10
Duration:00:18:59
</desc></wpt>
<wpt lat = "47.48416" lon = "11.09512"><name>MMART1</name><desc>Start
Images:1083
First:13.06.2025 09:35:51
Last:13.06.2025 10:02:56
Duration:00:27:05
</desc></wpt>
<wpt lat = "47.49461" lon = "11.09193"><name>NJO1</name><desc>Start
Images:404
First:13.06.2025 09:51:58
Last:13.06.2025 10:03:34
Duration:00:11:36
</desc></wpt>
<wpt lat = "47.43566" lon = "11.05437"><name>MBRE2</name><desc>Osterfelderkopf Uphill
Images:3366
First:13.06.2025 11:11:27
Last:13.06.2025 15:46:22
Duration:04:34:55
</desc></wpt>
<wpt lat = "47.49458" lon = "11.09190"><name>MBRE4</name><desc>Expo
Images:24
First:13.06.2025 17:45:01
Last:13.06.2025 18:16:40
Duration:00:31:39
</desc></wpt>
<wpt lat = "47.43925" lon = "11.05433"><name>MMART2</name><desc>Osterfelderkopf Downhill
Images:3583
First:13.06.2025 11:06:13
Last:13.06.2025 14:59:46
Duration:03:53:33
</desc></wpt>
<wpt lat = "47.43952" lon = "11.05311"><name>NJO2</name><desc>Osterfelderkopf Downhill
Images:4372
First:13.06.2025 11:53:13
Last:13.06.2025 14:54:30
Duration:03:01:17
</desc></wpt>
<wpt lat = "47.43944" lon = "11.05468"><name>NJO2LS2</name><desc>Osterfelderkopf Downhill
Images:383
First:13.06.2025 11:36:45
Last:13.06.2025 15:00:50
Duration:03:24:05
</desc></wpt>
<wpt lat = "47.43952" lon = "11.05311"><name>NJO2LS1</name><desc>Osterfelderkopf Downhill
Images:1096
First:13.06.2025 11:16:04
Last:13.06.2025 14:58:58
Duration:03:42:54
</desc></wpt>
<wpt lat = "47.43952" lon = "11.05311"><name>NJO2DRONE1</name><desc>Impressions / Pano
Images:13
First:13.06.2025 14:31:21
Last:13.06.2025 14:35:19
Duration:00:03:58
</desc></wpt>
</gpx>