<?xml version='1.0' encoding='utf-8'?>
<gpx version="1.1" creator="Infofile GPX Generator">
<wpt lat = "46.40850" lon = "14.14611"><name>GAZ1</name><desc>start 50 k
Images:38
First:19.09.2025 09:21:33
Last:19.09.2025 09:25:52
Duration:00:04:19
</desc></wpt>
<wpt lat = "46.48103" lon = "14.09502"><name>BRN1</name><desc>15km 50 k
Images:9091
First:19.09.2025 09:53:10
Last:19.09.2025 14:22:53
Duration:04:29:43
</desc></wpt>
<wpt lat = "46.48103" lon = "14.09502"><name>BRN1LS1</name><desc>15km 50 k
Images:1218
First:19.09.2025 09:05:48
Last:19.09.2025 14:32:37
Duration:05:26:49
</desc></wpt>
<wpt lat = "46.48103" lon = "14.09502"><name>BRN1LS2</name><desc>15km 50 k
Images:2619
First:19.09.2025 08:38:52
Last:19.09.2025 14:25:25
Duration:05:46:33
</desc></wpt>
<wpt lat = "46.48569" lon = "14.08637"><name>MDS1</name><desc>16km 50 k
Images:3704
First:19.09.2025 10:29:57
Last:19.09.2025 14:52:24
Duration:04:22:27
</desc></wpt>
<wpt lat = "46.48569" lon = "14.08637"><name>MDS1LS1</name><desc>16km 50 k
Images:1068
First:19.09.2025 08:16:03
Last:19.09.2025 14:33:09
Duration:06:17:06
</desc></wpt>
<wpt lat = "46.48569" lon = "14.08637"><name>MDS1LS2</name><desc>16km 50 k
Images:862
First:19.09.2025 08:07:27
Last:19.09.2025 21:10:11
Duration:13:02:44
</desc></wpt>
<wpt lat = "46.49010" lon = "14.05824"><name>MATR1</name><desc>18 km 50 k
Images:3875
First:19.09.2025 09:26:35
Last:19.09.2025 15:25:32
Duration:05:58:57
</desc></wpt>
<wpt lat = "46.49010" lon = "14.05824"><name>MATR1LS1</name><desc>18 km 50 k
Images:1172
First:19.09.2025 09:22:44
Last:19.09.2025 21:06:45
Duration:11:44:01
</desc></wpt>
<wpt lat = "46.49010" lon = "14.05824"><name>MATR1LS2</name><desc>18 km 50 k
Images:1320
First:19.09.2025 09:00:53
Last:19.09.2025 21:28:45
Duration:12:27:52
</desc></wpt>
<wpt lat = "46.34048" lon = "14.17597"><name>BRN2</name><desc>Start 120 k
Images:401
First:19.09.2025 20:52:56
Last:19.09.2025 21:31:23
Duration:00:38:27
</desc></wpt>
<wpt lat = "46.48428" lon = "13.78477"><name>GAZ2</name><desc>Finish 50 k
Images:4396
First:19.09.2025 12:45:45
Last:19.09.2025 17:32:03
Duration:04:46:18
</desc></wpt>
<wpt lat = "46.48428" lon = "13.78477"><name>GAZ2LS2</name><desc>Finish 50 k
Images:1128
First:19.09.2025 12:08:30
Last:19.09.2025 12:08:30
Duration:00:00:00
</desc></wpt>
<wpt lat = "46.48428" lon = "13.78477"><name>GAZ2LS1</name><desc>Finish 50 k
Images:1036
First:19.09.2025 12:50:01
Last:19.09.2025 19:26:46
Duration:06:36:45
</desc></wpt>
<wpt lat = "46.48428" lon = "13.78477"><name>LULE2LS1</name><desc>Finish 50 k
Images:745
First:19.09.2025 11:57:27
Last:19.09.2025 19:53:26
Duration:07:55:59
</desc></wpt>
<wpt lat = "46.48428" lon = "13.78477"><name>LULE2</name><desc>Finish 50 k
Images:2431
First:19.09.2025 17:33:18
Last:19.09.2025 22:44:18
Duration:05:11:00
</desc></wpt>
<wpt lat = "46.32845" lon = "14.18684"><name>MATR2</name><desc>Tibetan bridge 3 km after start 120 K
Images:192
First:19.09.2025 21:30:50
Last:19.09.2025 21:53:22
Duration:00:22:32
</desc></wpt>
<wpt lat = "46.32845" lon = "14.18684"><name>MATR2LS2</name><desc>Tibetan bridge 3 km after start 120 K
Images:532
First:19.09.2025 21:29:27
Last:19.09.2025 22:01:19
Duration:00:31:52
</desc></wpt>
<wpt lat = "46.32845" lon = "14.18684"><name>MATR2LS1</name><desc>Tibetan bridge 3 km after start 120 K
Images:288
First:19.09.2025 21:12:21
Last:19.09.2025 22:04:53
Duration:00:52:32
</desc></wpt>
<wpt lat = "46.32949" lon = "14.18593"><name>MDS2</name><desc>2 km after start 120 K
Images:307
First:19.09.2025 21:39:03
Last:19.09.2025 21:52:10
Duration:00:13:07
</desc></wpt>
<wpt lat = "46.32949" lon = "14.18593"><name>MDS2LS2</name><desc>2 km after start 120 K
Images:87
First:19.09.2025 21:31:38
Last:19.09.2025 21:52:09
Duration:00:20:31
</desc></wpt>
<wpt lat = "46.32949" lon = "14.18593"><name>MDS2LS1</name><desc>2 km after start 120 K
Images:523
First:19.09.2025 21:13:56
Last:19.09.2025 21:52:09
Duration:00:38:13
</desc></wpt>
<wpt lat = "46.49010" lon = "14.05820"><name>MATR1DRONE1</name><desc>Impressions / Pano
Images:44
First:26.08.2025 07:07:54
Last:20.09.2025 10:33:04
Duration:25.03:25:10
</desc></wpt>
<wpt lat = "46.36697" lon = "14.08589"><name>BRN3</name><desc>Start 80 k Bled
Images:180
First:20.09.2025 08:20:36
Last:20.09.2025 09:05:27
Duration:00:44:51
</desc></wpt>
<wpt lat = "46.39205" lon = "14.10511"><name>MATR3LS2</name><desc>7 km after start 80 K
Images:1134
First:20.09.2025 09:22:48
Last:20.09.2025 10:15:33
Duration:00:52:45
</desc></wpt>
<wpt lat = "46.39205" lon = "14.10511"><name>MATR3LS1</name><desc>7 km after start 80 K
Images:686
First:20.09.2025 09:13:54
Last:20.09.2025 10:10:14
Duration:00:56:20
</desc></wpt>
<wpt lat = "46.48487" lon = "14.08948"><name>LULE3</name><desc>1 km before aid station Sedlo Suha 120 K 80 K
Images:6048
First:20.09.2025 10:49:31
Last:20.09.2025 19:29:34
Duration:08:40:03
</desc></wpt>
<wpt lat = "46.48487" lon = "14.08948"><name>LULE3LS2</name><desc>1 km before aid station Sedlo Suha 120 K 80 K
Images:1443
First:20.09.2025 11:01:41
Last:20.09.2025 19:24:17
Duration:08:22:36
</desc></wpt>
<wpt lat = "46.48487" lon = "14.08948"><name>LULE3LS1</name><desc>1 km before aid station Sedlo Suha 120 K 80 K
Images:2112
First:20.09.2025 12:38:47
Last:20.09.2025 19:20:25
Duration:06:41:38
</desc></wpt>
<wpt lat = "46.48093" lon = "14.09482"><name>GAZ3</name><desc>Pusti Rovt
Images:5310
First:20.09.2025 11:00:22
Last:20.09.2025 19:20:26
Duration:08:20:04
</desc></wpt>
<wpt lat = "46.48093" lon = "14.09482"><name>GAZ3LS1</name><desc>Pusti Rovt
Images:360
First:20.09.2025 13:23:42
Last:20.09.2025 18:21:26
Duration:04:57:44
</desc></wpt>
<wpt lat = "46.48093" lon = "14.09482"><name>GAZ3LS2</name><desc>Pusti Rovt
Images:519
First:20.09.2025 13:40:45
Last:20.09.2025 18:46:47
Duration:05:06:02
</desc></wpt>
<wpt lat = "46.48933" lon = "13.80553"><name>MATR4</name><desc>3 km before finish
Images:2243
First:20.09.2025 09:30:09
Last:20.09.2025 10:05:39
Duration:00:35:30
</desc></wpt>
<wpt lat = "46.48933" lon = "13.80553"><name>MATR4LS2</name><desc>3 km before finish
Images:345
First:20.09.2025 13:15:24
Last:20.09.2025 19:26:01
Duration:06:10:37
</desc></wpt>
<wpt lat = "46.48933" lon = "13.80553"><name>MATR4LS1</name><desc>3 km before finish
Images:810
First:20.09.2025 13:18:51
Last:20.09.2025 19:16:35
Duration:05:57:44
</desc></wpt>
<wpt lat = "46.48933" lon = "13.80553"><name>BRN4</name><desc>3 km before finish
Images:438
First:20.09.2025 13:58:44
Last:20.09.2025 18:17:42
Duration:04:18:58
</desc></wpt>
<wpt lat = "46.48933" lon = "13.80553"><name>BRN4LS1</name><desc>3 km before finish
Images:156
First:20.09.2025 13:54:04
Last:20.09.2025 18:31:11
Duration:04:37:07
</desc></wpt>
<wpt lat = "46.48933" lon = "13.80553"><name>BRN4LS2</name><desc>3 km before finish
Images:144
First:20.09.2025 13:14:28
Last:20.09.2025 18:24:52
Duration:05:10:24
</desc></wpt>
<wpt lat = "46.48428" lon = "13.78477"><name>MDS3</name><desc>Finish  120 K E 80 K
Images:1370
First:20.09.2025 12:24:39
Last:20.09.2025 19:25:23
Duration:07:00:44
</desc></wpt>
<wpt lat = "46.48428" lon = "13.78477"><name>MDS3LS1</name><desc>Finish  120 K E 80 K
Images:361
First:20.09.2025 09:50:28
Last:20.09.2025 19:16:38
Duration:09:26:10
</desc></wpt>
<wpt lat = "46.48428" lon = "13.78477"><name>MDS3LS2</name><desc>Finish  120 K E 80 K
Images:429
First:20.09.2025 09:53:12
Last:20.09.2025 19:16:39
Duration:09:23:27
</desc></wpt>
<wpt lat = "46.48428" lon = "13.78477"><name>MATR5</name><desc>Finish  120 K E 80 K
Images:1709
First:20.09.2025 19:32:22
Last:21.09.2025 01:02:46
Duration:05:30:24
</desc></wpt>
<wpt lat = "46.48428" lon = "13.78477"><name>MATR5LS1</name><desc>Finish  120 K E 80 K
Images:892
First:20.09.2025 19:17:24
Last:21.09.2025 01:10:35
Duration:05:53:11
</desc></wpt>
<wpt lat = "46.48428" lon = "13.78477"><name>MATR5LS2</name><desc>Finish  120 K E 80 K
Images:609
First:20.09.2025 19:30:34
Last:21.09.2025 01:03:22
Duration:05:32:48
</desc></wpt>
<wpt lat = "46.48428" lon = "13.78477"><name>BRN5</name><desc>Finish  120 K E 80 K
Images:524
First:20.09.2025 14:36:03
Last:21.09.2025 06:59:14
Duration:16:23:11
</desc></wpt>
<wpt lat = "46.48428" lon = "13.78477"><name>BRN5LS1</name><desc>Finish  120 K E 80 K
Images:563
First:21.09.2025 01:11:27
Last:21.09.2025 07:00:12
Duration:05:48:45
</desc></wpt>
<wpt lat = "46.48428" lon = "13.78477"><name>BRN5LS2</name><desc>Finish  120 K E 80 K
Images:336
First:21.09.2025 01:22:57
Last:21.09.2025 06:52:49
Duration:05:29:52
</desc></wpt>
<wpt lat = "46.47681" lon = "13.78110"><name>LULE4</name><desc>5 km after start 25 k & 15 k  & Funny
Images:5097
First:21.09.2025 09:10:18
Last:21.09.2025 10:42:48
Duration:01:32:30
</desc></wpt>
<wpt lat = "46.47681" lon = "13.78110"><name>LULE4LS1</name><desc>5 km after start 25 k & 15 k  & Funny
Images:1064
First:21.09.2025 08:47:01
Last:21.09.2025 10:20:27
Duration:01:33:26
</desc></wpt>
<wpt lat = "46.47681" lon = "13.78110"><name>LULE4LS2</name><desc>5 km after start 25 k & 15 k  & Funny
Images:932
First:21.09.2025 08:43:31
Last:21.09.2025 10:20:03
Duration:01:36:32
</desc></wpt>
<wpt lat = "46.47793" lon = "13.78124"><name>GAZ4</name><desc>4 km after start 25 K & 15 K  & Funny
Images:1263
First:21.09.2025 09:28:43
Last:21.09.2025 11:11:30
Duration:01:42:47
</desc></wpt>
<wpt lat = "46.47793" lon = "13.78124"><name>GAZ4LS1</name><desc>4 km after start 25 K & 15 K  & Funny
Images:660
First:21.09.2025 08:54:11
Last:21.09.2025 11:19:54
Duration:02:25:43
</desc></wpt>
<wpt lat = "46.47793" lon = "13.78124"><name>GAZ4LS2</name><desc>4 km after start 25 K & 15 K  & Funny
Images:295
First:21.09.2025 11:25:25
Last:21.09.2025 13:35:16
Duration:02:09:51
</desc></wpt>
<wpt lat = "46.48169" lon = "13.83777"><name>MDS4</name><desc>Gozd Martljek 25 k & 15 K
Images:5614
First:21.09.2025 09:34:34
Last:21.09.2025 11:54:38
Duration:02:20:04
</desc></wpt>
<wpt lat = "46.48169" lon = "13.83777"><name>MDS4LS1</name><desc>Gozd Martljek 25 k & 15 K
Images:1813
First:21.09.2025 09:03:49
Last:21.09.2025 12:10:44
Duration:03:06:55
</desc></wpt>
<wpt lat = "46.48169" lon = "13.83777"><name>MDS4LS2</name><desc>Gozd Martljek 25 k & 15 K
Images:2093
First:21.09.2025 09:03:48
Last:21.09.2025 12:05:16
Duration:03:01:28
</desc></wpt>
<wpt lat = "46.48330" lon = "13.78238"><name>LULE5</name><desc>1 Km before Finish 25 K
Images:2297
First:21.09.2025 11:46:08
Last:21.09.2025 14:01:15
Duration:02:15:07
</desc></wpt>
<wpt lat = "46.48330" lon = "13.78238"><name>LULE5LS1</name><desc>1 Km before Finish 25 K
Images:1157
First:21.09.2025 11:19:12
Last:21.09.2025 14:02:24
Duration:02:43:12
</desc></wpt>
<wpt lat = "46.48330" lon = "13.78238"><name>LULE5LS2</name><desc>1 Km before Finish 25 K
Images:867
First:21.09.2025 11:15:46
Last:21.09.2025 14:02:42
Duration:02:46:56
</desc></wpt>
<wpt lat = "46.48649" lon = "13.79234"><name>GAZ5</name><desc>1 Km Before Finish 15 K
Images:1852
First:21.09.2025 11:40:50
Last:21.09.2025 13:32:07
Duration:01:51:17
</desc></wpt>
<wpt lat = "46.48649" lon = "13.79234"><name>GAZ5LS1</name><desc>1 Km Before Finish 15 K
Images:612
First:31.12.2012 23:00:03
Last:21.09.2025 10:22:23
Duration:4646.11:22:20
</desc></wpt>
<wpt lat = "46.48649" lon = "13.79234"><name>GAZ5LS2</name><desc>1 Km Before Finish 15 K
Images:409
First:21.09.2025 11:29:21
Last:21.09.2025 13:35:30
Duration:02:06:09
</desc></wpt>
<wpt lat = "46.48419" lon = "13.78476"><name>MATR6</name><desc>Finish 25 k & 15 k
Images:4744
First:21.09.2025 09:59:02
Last:21.09.2025 13:16:01
Duration:03:16:59
</desc></wpt>
<wpt lat = "46.48419" lon = "13.78476"><name>MATR6LS1</name><desc>Finish 25 k & 15 k
Images:1793
First:07.09.2025 11:22:33
Last:21.09.2025 15:01:50
Duration:14.03:39:17
</desc></wpt>
<wpt lat = "46.48419" lon = "13.78476"><name>MATR6LS2</name><desc>Finish 25 k & 15 k
Images:2335
First:21.09.2025 10:28:50
Last:21.09.2025 13:09:11
Duration:02:40:21
</desc></wpt>
<wpt lat = "46.48419" lon = "13.78476"><name>MDS5</name><desc>Finish 25 k & 15 k
Images:1185
First:21.09.2025 13:17:12
Last:21.09.2025 15:08:07
Duration:01:50:55
</desc></wpt>
<wpt lat = "46.48419" lon = "13.78476"><name>MDS5LS1</name><desc>Finish 25 k & 15 k
Images:219
First:21.09.2025 13:12:58
Last:21.09.2025 15:04:36
Duration:01:51:38
</desc></wpt>
</gpx>