<?xml version='1.0' encoding='utf-8'?>
<gpx version="1.1" creator="Infofile GPX Generator">
<wpt lat = "51.75779" lon = "12.45040"><name>GUD1</name><desc>Swim start - Sprint
Images:37
First:31.05.2025 10:44:21
Last:01.06.2025 10:27:08
Duration:23:42:47
</desc></wpt>
<wpt lat = "51.75779" lon = "12.45040"><name>GUD2</name><desc>Swim exit - Sprint
Images:1240
First:31.05.2025 11:10:32
Last:31.05.2025 11:29:26
Duration:00:18:54
</desc></wpt>
<wpt lat = "51.75800" lon = "12.44900"><name>SBU1</name><desc>Swim to transition zone - Sprint
Images:717
First:31.05.2025 10:58:53
Last:01.06.2025 10:19:58
Duration:23:21:05
</desc></wpt>
<wpt lat = "51.75113" lon = "12.43709"><name>EHL1</name><desc>Bike - Sprint
Images:1461
First:31.05.2025 11:15:45
Last:01.06.2025 11:23:20
Duration:1.00:07:35
</desc></wpt>
<wpt lat = "51.75113" lon = "12.43709"><name>EHL1LS2</name><desc>Bike - Sprint
Images:873
First:31.05.2025 11:45:39
Last:31.05.2025 12:17:14
Duration:00:31:35
</desc></wpt>
<wpt lat = "51.75113" lon = "12.43709"><name>EHL1LS1</name><desc>Bike - Sprint
Images:378
First:31.05.2025 11:17:17
Last:31.05.2025 11:43:28
Duration:00:26:11
</desc></wpt>
<wpt lat = "51.75889" lon = "12.44946"><name>SBU2</name><desc>Run - Sprint
Images:1704
First:31.05.2025 11:48:03
Last:31.05.2025 12:47:43
Duration:00:59:40
</desc></wpt>
<wpt lat = "51.75889" lon = "12.44946"><name>SBU1LS1</name><desc>Run - Sprint
Images:231
First:31.05.2025 11:45:21
Last:31.05.2025 12:03:27
Duration:00:18:06
</desc></wpt>
<wpt lat = "51.75847" lon = "12.44695"><name>GUD3</name><desc>Finish - Sprint
Images:2180
First:31.05.2025 11:59:14
Last:31.05.2025 13:06:13
Duration:01:06:59
</desc></wpt>
<wpt lat = "51.75847" lon = "12.44695"><name>GUD3LS1</name><desc>Finish - Sprint
Images:247
First:31.05.2025 11:48:11
Last:31.05.2025 13:22:48
Duration:01:34:37
</desc></wpt>
<wpt lat = "51.75847" lon = "12.44695"><name>GUD3LS2</name><desc>Finish - Sprint
Images:273
First:31.05.2025 11:47:51
Last:31.05.2025 13:22:48
Duration:01:34:57
</desc></wpt>
<wpt lat = "51.75779" lon = "12.45040"><name>SBU3</name><desc>Swim exit - Olympisch
Images:1742
First:31.05.2025 13:02:21
Last:31.05.2025 14:04:17
Duration:01:01:56
</desc></wpt>
<wpt lat = "51.75800" lon = "12.44900"><name>GUD4</name><desc>Swim to transition zone - Olympisch
Images:1065
First:31.05.2025 13:25:27
Last:31.05.2025 13:54:21
Duration:00:28:54
</desc></wpt>
<wpt lat = "51.75113" lon = "12.43709"><name>EHL2</name><desc>Bike - Olympisch
Images:2369
First:31.05.2025 13:32:46
Last:01.06.2025 13:17:55
Duration:23:45:09
</desc></wpt>
<wpt lat = "51.75113" lon = "12.43709"><name>EHL2LS2</name><desc>Bike - Olympisch
Images:345
First:31.05.2025 14:43:42
Last:31.05.2025 15:22:36
Duration:00:38:54
</desc></wpt>
<wpt lat = "51.75113" lon = "12.43709"><name>EHL2LS1</name><desc>Bike - Olympisch
Images:2845
First:31.05.2025 12:20:10
Last:31.05.2025 14:41:06
Duration:02:20:56
</desc></wpt>
<wpt lat = "51.75889" lon = "12.44946"><name>SBU4</name><desc>Run - Olympisch
Images:3231
First:31.05.2024 14:41:45
Last:31.05.2026 18:32:26
Duration:730.03:50:41
</desc></wpt>
<wpt lat = "51.75889" lon = "12.44946"><name>SBU3LS1</name><desc>Run - Olympisch
Images:1772
First:31.05.2025 14:16:24
Last:31.05.2025 16:48:23
Duration:02:31:59
</desc></wpt>
<wpt lat = "51.75847" lon = "12.44695"><name>GUD5</name><desc>Finish - Olympisch
Images:3160
First:31.05.2025 14:33:02
Last:31.05.2025 17:01:15
Duration:02:28:13
</desc></wpt>
<wpt lat = "51.75847" lon = "12.44695"><name>GUD5LS1</name><desc>Finish - Olympisch
Images:353
First:31.05.2025 13:35:41
Last:31.05.2025 16:59:35
Duration:03:23:54
</desc></wpt>
<wpt lat = "51.75847" lon = "12.44695"><name>GUD5LS2</name><desc>Finish - Olympisch
Images:355
First:31.05.2025 13:35:42
Last:31.05.2025 17:01:19
Duration:03:25:37
</desc></wpt>
<wpt lat = "51.75847" lon = "12.44695"><name>EHL3</name><desc>Impressions / Pano
Images:576
First:31.05.2025 14:47:00
Last:31.05.2025 14:58:09
Duration:00:11:09
</desc></wpt>
<wpt lat = "51.75847" lon = "12.44695"><name>EHL1DRONE1</name><desc>Impressions / Pano
Images:81
First:31.05.2025 10:12:12
Last:31.05.2025 15:22:38
Duration:05:10:26
</desc></wpt>
</gpx>