<?xml version='1.0' encoding='utf-8'?>
<gpx version="1.1" creator="Infofile GPX Generator">
<wpt lat = "46.22318" lon = "-74.54282"><name>CASS1</name><desc>Obstacle 6
Images:4106
First:14.06.2025 15:04:37
Last:15.06.2025 15:25:30
Duration:1.00:20:53
</desc></wpt>
<wpt lat = "46.22531" lon = "-74.52618"><name>CBAC1</name><desc>Obstacle 30
Images:8779
First:15.06.2025 08:12:51
Last:15.06.2025 17:26:43
Duration:09:13:52
</desc></wpt>
<wpt lat = "46.22477" lon = "-74.52621"><name>DMED1</name><desc>Obstacle 35
Images:3480
First:14.06.2025 08:13:26
Last:15.06.2025 17:46:26
Duration:1.09:33:00
</desc></wpt>
<wpt lat = "46.21738" lon = "-74.54547"><name>THAT1DRONE1</name><desc>General Pictures
Images:101
First:13.06.2025 20:28:04
Last:15.06.2025 14:39:05
Duration:1.18:11:01
</desc></wpt>
<wpt lat = "46.21738" lon = "-74.54547"><name>NIMA1</name><desc>General Pictures
Images:1135
First:14.06.2025 07:14:34
Last:15.06.2025 14:47:50
Duration:1.07:33:16
</desc></wpt>
<wpt lat = "46.23030" lon = "-74.53360"><name>ERIC1</name><desc>Obstacle 27
Images:16024
First:14.06.2025 08:40:52
Last:15.06.2025 16:45:29
Duration:1.08:04:37
</desc></wpt>
<wpt lat = "46.22459" lon = "-74.52630"><name>HLN1</name><desc>Obstacle 34
Images:10261
First:15.06.2025 08:54:32
Last:15.06.2025 16:54:49
Duration:08:00:17
</desc></wpt>
<wpt lat = "46.22459" lon = "-74.52630"><name>THAT1</name><desc>Obstacle 34
Images:6797
First:14.06.2025 07:50:51
Last:15.06.2025 17:46:28
Duration:1.09:55:37
</desc></wpt>
<wpt lat = "46.22580" lon = "-74.52649"><name>JSLR1</name><desc>Obstacle 29
Images:4514
First:14.06.2025 08:42:38
Last:15.06.2025 17:24:44
Duration:1.08:42:06
</desc></wpt>
<wpt lat = "46.22315" lon = "-74.54407"><name>KENY1</name><desc>Obstacle 5
Images:3990
First:14.06.2025 08:45:39
Last:15.06.2025 15:29:44
Duration:1.06:44:05
</desc></wpt>
<wpt lat = "46.22315" lon = "-74.54407"><name>WTY1</name><desc>Obstacle 5
Images:5144
First:15.06.2025 07:59:00
Last:15.06.2025 15:49:54
Duration:07:50:54
</desc></wpt>
<wpt lat = "46.22303" lon = "-74.54358"><name>LHBC1</name><desc>Obstacle 4
Images:3548
First:15.06.2025 07:56:34
Last:15.06.2025 15:49:19
Duration:07:52:45
</desc></wpt>
<wpt lat = "46.22492" lon = "-74.52525"><name>PNR1</name><desc>Herotent
Images:3358
First:15.06.2025 09:08:47
Last:15.06.2025 17:46:27
Duration:08:37:40
</desc></wpt>
</gpx>