<?xml version='1.0' encoding='utf-8'?>
<gpx version="1.1" creator="Infofile GPX Generator">
<wpt lat = "60.98495" lon = "25.63452"><name>AGP1</name><desc>Start
Images:107
First:01.01.0001 23:00:00
Last:23.08.2025 08:31:54
Duration:739484.09:31:54
</desc></wpt>
<wpt lat = "60.98495" lon = "25.63452"><name>OLM2</name><desc>Start
Images:130
First:22.08.2025 19:07:30
Last:23.08.2025 08:14:38
Duration:13:07:08
</desc></wpt>
<wpt lat = "60.98421" lon = "25.63526"><name>AGP2</name><desc>Finish
Images:3885
First:23.08.2025 09:16:51
Last:23.08.2025 14:53:44
Duration:05:36:53
</desc></wpt>
<wpt lat = "60.98421" lon = "25.63526"><name>LZA2</name><desc>Finish
Images:991
First:23.08.2025 14:53:47
Last:23.08.2025 16:23:44
Duration:01:29:57
</desc></wpt>
<wpt lat = "60.98258" lon = "25.62562"><name>BSAH1</name><desc>Obstacle 28
Images:4525
First:23.08.2025 08:09:17
Last:23.08.2025 15:23:31
Duration:07:14:14
</desc></wpt>
<wpt lat = "60.98408" lon = "25.62860"><name>JAK1</name><desc>Obstacle 32
Images:3818
First:23.08.2025 08:01:53
Last:23.08.2025 15:53:45
Duration:07:51:52
</desc></wpt>
<wpt lat = "60.99182" lon = "25.56423"><name>LZA1</name><desc>Obstacle 18
Images:4523
First:23.08.2025 08:15:37
Last:23.08.2025 12:48:51
Duration:04:33:14
</desc></wpt>
<wpt lat = "60.98418" lon = "25.63347"><name>OLM1</name><desc>Obstacle 35
Images:7438
First:23.08.2025 08:33:09
Last:23.08.2025 16:07:00
Duration:07:33:51
</desc></wpt>
<wpt lat = "60.98410" lon = "25.63412"><name>YECY1</name><desc>Obstacle 39
Images:3831
First:23.08.2025 08:01:46
Last:23.08.2025 16:22:29
Duration:08:20:43
</desc></wpt>
<wpt lat = "60.98288" lon = "25.63041"><name>FMM1</name><desc>Obstacle 31
Images:5333
First:23.08.2025 07:49:28
Last:23.08.2025 15:46:05
Duration:07:56:37
</desc></wpt>
<wpt lat = "60.98398" lon = "25.63574"><name>PEKL1</name><desc>Herotent
Images:4531
First:23.08.2025 06:51:40
Last:23.08.2025 16:22:17
Duration:09:30:37
</desc></wpt>
</gpx>