<?xml version='1.0' encoding='utf-8'?>
<gpx version="1.1" creator="Infofile GPX Generator">
<wpt lat = "48.86267" lon = "1.88684"><name>MARS1</name><desc>Obstacle 5 Sandbag Carry
Images:11968
First:20.09.2025 06:48:05
Last:20.09.2025 16:25:29
Duration:09:37:24
</desc></wpt>
<wpt lat = "48.86267" lon = "1.88684"><name>MARS1LS1</name><desc>Obstacle 5 Sandbag Carry
Images:4177
First:20.09.2025 08:42:43
Last:20.09.2025 14:52:47
Duration:06:10:04
</desc></wpt>
<wpt lat = "48.89485" lon = "1.87944"><name>JI1</name><desc>Obstacle 9 Olympus
Images:8089
First:20.09.2025 07:39:53
Last:20.09.2025 16:51:38
Duration:09:11:45
</desc></wpt>
<wpt lat = "48.86545" lon = "1.90591"><name>THL3</name><desc>Obstacle 16 Atlas Carry
Images:1555
First:20.09.2025 12:14:39
Last:20.09.2025 13:13:01
Duration:00:58:22
</desc></wpt>
<wpt lat = "48.86545" lon = "1.90591"><name>AFA1</name><desc>Obstacle 16 Atlas Carry
Images:3240
First:20.09.2025 08:04:52
Last:20.09.2025 17:08:26
Duration:09:03:34
</desc></wpt>
<wpt lat = "48.86041" lon = "1.89811"><name>THL2</name><desc>Obstacle 25 Multiring
Images:3151
First:20.09.2025 10:06:02
Last:20.09.2025 14:41:28
Duration:04:35:26
</desc></wpt>
<wpt lat = "48.86041" lon = "1.89811"><name>MAI1</name><desc>Obstacle 25 Multiring
Images:16011
First:20.09.2025 07:49:52
Last:20.09.2025 18:04:50
Duration:10:14:58
</desc></wpt>
<wpt lat = "48.86112" lon = "1.89804"><name>THL4</name><desc>Obstacle 23 Barber Wire
Images:4320
First:20.09.2025 14:42:59
Last:20.09.2025 16:28:23
Duration:01:45:24
</desc></wpt>
<wpt lat = "48.86112" lon = "1.89804"><name>MASG1</name><desc>Obstacle 23 Barber Wire
Images:2153
First:20.09.2025 08:00:22
Last:20.09.2025 17:24:12
Duration:09:23:50
</desc></wpt>
<wpt lat = "48.85879" lon = "1.89805"><name>IBLA1</name><desc>Obstacle 29 Fire Jump
Images:8735
First:19.09.2025 20:55:32
Last:20.09.2025 17:42:43
Duration:20:47:11
</desc></wpt>
<wpt lat = "48.85879" lon = "1.89805"><name>THL1LS2</name><desc>Obstacle 29 Fire Jump
Images:38646
First:20.09.2025 08:16:05
Last:20.09.2025 17:43:40
Duration:09:27:35
</desc></wpt>
<wpt lat = "48.85879" lon = "1.89805"><name>THL1</name><desc>Obstacle 29 Fire Jump
Images:1019
First:20.09.2025 06:46:10
Last:20.09.2025 14:21:42
Duration:07:35:32
</desc></wpt>
<wpt lat = "48.85879" lon = "1.89805"><name>THL1LS1</name><desc>Obstacle 29 Fire Jump
Images:37248
First:20.09.2025 08:32:20
Last:20.09.2025 17:43:55
Duration:09:11:35
</desc></wpt>
<wpt lat = "48.86007" lon = "1.89677"><name>JDU1</name><desc>Herotent
Images:9245
First:20.09.2025 05:44:54
Last:20.09.2025 18:00:16
Duration:12:15:22
</desc></wpt>
</gpx>