<?xml version='1.0' encoding='utf-8'?>
<gpx version="1.1" creator="Infofile GPX Generator">
<wpt lat = "60.98780" lon = "25.63459"><name>AGP1</name><desc>Obstacle 9 Slackline
Images:3223
First:24.08.2025 08:42:54
Last:24.08.2025 14:33:30
Duration:05:50:36
</desc></wpt>
<wpt lat = "60.98421" lon = "25.63526"><name>FMM1</name><desc>Finish
Images:5463
First:24.08.2025 09:06:23
Last:24.08.2025 15:50:22
Duration:06:43:59
</desc></wpt>
<wpt lat = "60.98418" lon = "25.63347"><name>JAK1</name><desc>Obstacle 26 Multi Rig
Images:2865
First:24.08.2025 09:33:37
Last:24.08.2025 15:31:48
Duration:05:58:11
</desc></wpt>
<wpt lat = "60.98495" lon = "25.63452"><name>JAK2</name><desc>Start
Images:15
First:24.08.2025 08:59:59
Last:24.08.2025 09:17:35
Duration:00:17:36
</desc></wpt>
<wpt lat = "60.98780" lon = "25.63459"><name>LZA1</name><desc>Obstacle 13 Bucket Carry
Images:3557
First:24.08.2025 09:27:53
Last:24.08.2025 14:51:02
Duration:05:23:09
</desc></wpt>
<wpt lat = "60.98258" lon = "25.62562"><name>OLM1</name><desc>Obstacle 20 Barbedwire
Images:9032
First:24.08.2025 08:33:43
Last:24.08.2025 14:59:20
Duration:06:25:37
</desc></wpt>
<wpt lat = "60.98226" lon = "25.62806"><name>PEKL1</name><desc>Obstacle 21 Armer
Images:11577
First:24.08.2025 08:27:47
Last:24.08.2025 15:17:09
Duration:06:49:22
</desc></wpt>
<wpt lat = "60.98398" lon = "25.63574"><name>YECY1</name><desc>Herotent
Images:956
First:24.08.2025 09:52:34
Last:24.08.2025 15:56:25
Duration:06:03:51
</desc></wpt>
<wpt lat = "60.98410" lon = "25.63412"><name>BSAH1</name><desc>Obstacle 30 A Frame
Images:5291
First:24.08.2025 09:15:11
Last:24.08.2025 15:33:04
Duration:06:17:53
</desc></wpt>
</gpx>