<?xml version='1.0' encoding='utf-8'?>
<gpx version="1.1" creator="Infofile GPX Generator">
<wpt lat = "34.54077" lon = "-112.47024"><name>LLCA1</name><desc>Start
Images:91
First:26.04.2025 07:40:54
Last:26.04.2025 08:59:49
Duration:01:18:55
</desc></wpt>
<wpt lat = "34.54077" lon = "-112.47024"><name>LLCA2</name><desc>Start
Images:239
First:26.04.2025 09:01:40
Last:26.04.2025 09:58:15
Duration:00:56:35
</desc></wpt>
<wpt lat = "34.50041" lon = "-112.52961"><name>MIGO1</name><desc>6.0 mi Apsen Creek
Images:3137
First:26.04.2025 08:11:57
Last:26.04.2025 09:11:58
Duration:01:00:01
</desc></wpt>
<wpt lat = "34.50006" lon = "-112.53034"><name>MIGO1LS1</name><desc>6.0 mi Apsen Creek
Images:852
First:26.04.2025 07:38:25
Last:26.04.2025 09:18:44
Duration:01:40:19
</desc></wpt>
<wpt lat = "34.50006" lon = "-112.53034"><name>MIGO1LS2</name><desc>6.0 mi Apsen Creek
Images:829
First:26.04.2025 07:34:45
Last:26.04.2025 09:15:42
Duration:01:40:57
</desc></wpt>
<wpt lat = "34.50472" lon = "-112.55576"><name>JOD1</name><desc>9 & 24 mi Sierra Prieta
Images:8267
First:26.04.2025 08:58:27
Last:26.04.2025 13:01:10
Duration:04:02:43
</desc></wpt>
<wpt lat = "34.50507" lon = "-112.55512"><name>JOD1LS1</name><desc>9.0 mi Sierra Prieta
Images:5417
First:26.04.2025 08:45:11
Last:26.04.2025 12:03:12
Duration:03:18:01
</desc></wpt>
<wpt lat = "34.54538" lon = "-112.54502"><name>DMCI1</name><desc>16.0 mi White Rock
Images:4720
First:25.04.2025 23:34:27
Last:26.04.2025 13:45:18
Duration:14:10:51
</desc></wpt>
<wpt lat = "34.54925" lon = "-112.53995"><name>FSCH1</name><desc>17 & 30 mi White Rock
Images:6554
First:26.04.2025 05:47:36
Last:26.04.2025 13:51:42
Duration:08:04:06
</desc></wpt>
<wpt lat = "34.55524" lon = "-112.52232"><name>VAV1</name><desc>21 & 42 mi Thumb Butte
Images:7471
First:26.04.2025 06:23:17
Last:26.04.2025 15:34:22
Duration:09:11:05
</desc></wpt>
<wpt lat = "34.54077" lon = "-112.47024"><name>LLCA3</name><desc>Finish
Images:3616
First:26.04.2025 10:00:27
Last:26.04.2025 14:49:59
Duration:04:49:32
</desc></wpt>
<wpt lat = "34.54077" lon = "-112.47024"><name>MIGO2</name><desc>Finish
Images:1384
First:26.04.2025 11:01:45
Last:26.04.2025 12:59:36
Duration:01:57:51
</desc></wpt>
</gpx>