<?xml version='1.0' encoding='utf-8'?>
<gpx version="1.1" creator="Infofile GPX Generator">
<wpt lat = "34.27961" lon = "-81.56873"><name>MSK1</name><desc>#4 SLIP WALL
Images:16283
First:15.11.2025 05:47:31
Last:16.11.2025 13:18:38
Duration:1.07:31:07
</desc></wpt>
<wpt lat = "34.28017" lon = "-81.57040"><name>CHIT1</name><desc>#6 MONKEY BARS
Images:4148
First:16.11.2025 06:35:05
Last:16.11.2025 13:23:04
Duration:06:47:59
</desc></wpt>
<wpt lat = "34.28017" lon = "-81.57040"><name>TAT1</name><desc>#6 MONKEY BARS
Images:3526
First:15.11.2025 05:18:19
Last:16.11.2025 13:18:31
Duration:1.08:00:12
</desc></wpt>
<wpt lat = "34.27990" lon = "-81.57167"><name>RUHO1</name><desc>#7 BERBED WIRE CRAWL
Images:6664
First:15.11.2025 05:47:11
Last:16.11.2025 13:31:00
Duration:1.07:43:49
</desc></wpt>
<wpt lat = "34.27907" lon = "-81.56736"><name>MBRS1</name><desc>#31 A-FRAME CARGO
Images:9782
First:15.11.2025 05:30:27
Last:16.11.2025 14:45:46
Duration:1.09:15:19
</desc></wpt>
<wpt lat = "34.27751" lon = "-81.56868"><name>TFUL1</name><desc>#29 ATLAS CARRY
Images:8012
First:16.11.2025 07:46:52
Last:16.11.2025 15:34:41
Duration:07:47:49
</desc></wpt>
<wpt lat = "34.27973" lon = "-81.56835"><name>AAD1</name><desc>#32 FIRE JUMP
Images:9447
First:15.11.2025 05:20:01
Last:16.11.2025 14:48:29
Duration:1.09:28:28
</desc></wpt>
<wpt lat = "34.27973" lon = "-81.56835"><name>SICA1LS1</name><desc>#32 FIRE JUMP
Images:5617
First:16.11.2026 06:42:38
Last:16.11.2026 14:39:19
Duration:07:56:41
</desc></wpt>
<wpt lat = "34.27973" lon = "-81.56835"><name>SAMT1</name><desc>Herotent
Images:1605
First:16.11.2025 06:52:47
Last:16.11.2025 14:49:59
Duration:07:57:12
</desc></wpt>
<wpt lat = "34.27973" lon = "-81.56835"><name>SICA1</name><desc>Herotent
Images:145
First:15.11.2025 07:52:29
Last:15.11.2026 07:32:23
Duration:364.23:39:54
</desc></wpt>
<wpt lat = "34.27973" lon = "-81.56835"><name>SICA2</name><desc>Impressions / Pano
Images:220
First:16.11.2025 07:40:11
Last:16.11.2026 09:01:25
Duration:365.01:21:14
</desc></wpt>
</gpx>