<?xml version='1.0' encoding='utf-8'?>
<gpx version="1.1" creator="Infofile GPX Generator">
<wpt lat = "38.37437" lon = "-121.34160"><name>MKI1</name><desc>Obstacle 7 Bucket Carry
Images:9175
First:22.08.2025 21:58:19
Last:23.08.2025 12:48:56
Duration:14:50:37
</desc></wpt>
<wpt lat = "38.37097" lon = "-121.33768"><name>DEST1</name><desc>Obstacle 9 Atlas Carry
Images:6004
First:22.08.2025 22:48:22
Last:23.08.2025 13:06:44
Duration:14:18:22
</desc></wpt>
<wpt lat = "38.37097" lon = "-121.33768"><name>HOG1</name><desc>Obstacle 9 Atlas Carry
Images:4011
First:22.08.2025 22:54:25
Last:23.08.2025 12:37:57
Duration:13:43:32
</desc></wpt>
<wpt lat = "38.36904" lon = "-121.33317"><name>RUMU1</name><desc>Obstacle 11 Barbed Wire Crawl
Images:2148
First:22.08.2025 20:44:43
Last:23.08.2025 13:38:14
Duration:16:53:31
</desc></wpt>
<wpt lat = "38.36894" lon = "-121.33451"><name>DANG1</name><desc>Obstacle 12 Multi-Rig
Images:6895
First:23.08.2025 07:27:24
Last:23.08.2025 13:27:37
Duration:06:00:13
</desc></wpt>
<wpt lat = "38.36894" lon = "-121.33451"><name>MAT1</name><desc>Obstacle 12 Multi-Rig
Images:9027
First:23.08.2025 06:50:56
Last:23.08.2025 13:28:00
Duration:06:37:04
</desc></wpt>
<wpt lat = "38.36935" lon = "-121.33427"><name>DANG1LS1</name><desc>Trail by Barbed Wire Crawl
Images:1894
First:23.08.2025 07:26:43
Last:23.08.2025 12:47:16
Duration:05:20:33
</desc></wpt>
<wpt lat = "38.36935" lon = "-121.33427"><name>MAT1LS1</name><desc>Trail by Barbed Wire Crawl
Images:1941
First:23.08.2025 07:26:53
Last:23.08.2025 12:47:26
Duration:05:20:33
</desc></wpt>
<wpt lat = "38.36818" lon = "-121.33411"><name>AIPA1</name><desc>Obstacle 13 Sand Bag Carry
Images:4007
First:23.08.2025 05:54:14
Last:23.08.2025 13:33:28
Duration:07:39:14
</desc></wpt>
<wpt lat = "38.36967" lon = "-121.33182"><name>DDS1</name><desc>Obstacle 15 Vertical Cargo
Images:5418
First:22.08.2025 20:26:05
Last:23.08.2025 13:48:53
Duration:17:22:48
</desc></wpt>
<wpt lat = "38.37240" lon = "-121.33091"><name>TERT1</name><desc>Obstacle 24 Rolling Mud
Images:1495
First:22.08.2025 18:27:01
Last:23.08.2025 04:01:24
Duration:09:34:23
</desc></wpt>
<wpt lat = "38.37240" lon = "-121.33091"><name>DMCI1</name><desc>Obstacle 25 Dunk Wall
Images:3571
First:22.08.2025 21:37:19
Last:23.08.2025 16:04:07
Duration:18:26:48
</desc></wpt>
<wpt lat = "38.37240" lon = "-121.33091"><name>DMCI1LS1</name><desc>Obstacle 25 Dunk Wall
Images:3618
First:22.08.2025 21:49:22
Last:23.08.2025 16:04:07
Duration:18:14:45
</desc></wpt>
<wpt lat = "38.36884" lon = "-121.33082"><name>DVAL1</name><desc>Obstacle 21 Bender
Images:8418
First:23.08.2025 05:40:46
Last:23.08.2025 15:42:29
Duration:10:01:43
</desc></wpt>
<wpt lat = "38.37205" lon = "-121.33221"><name>AMON1</name><desc>Herotent
Images:3306
First:22.08.2025 22:24:28
Last:23.08.2025 16:11:06
Duration:17:46:38
</desc></wpt>
<wpt lat = "38.37205" lon = "-121.33221"><name>MCAR1</name><desc>Random/Promo
Images:949
First:23.08.2025 06:50:56
Last:23.08.2025 10:30:57
Duration:03:40:01
</desc></wpt>
<wpt lat = "38.37205" lon = "-121.33221"><name>MCAR1IMP1</name><desc>Drone
Images:40
First:23.08.2025 09:32:19
Last:23.08.2025 10:06:00
Duration:00:33:41
</desc></wpt>
</gpx>