<?xml version='1.0' encoding='utf-8'?>
<gpx version="1.1" creator="Infofile GPX Generator">
<wpt lat = "44.19132" lon = "12.41708"><name>LULE1</name><desc>Obstacle 5 Swim
Images:7140
First:24.05.2025 10:44:48
Last:25.05.2025 14:26:44
Duration:1.03:41:56
</desc></wpt>
<wpt lat = "44.19120" lon = "12.41588"><name>LULE1LS2</name><desc>Obstacle 15 Bucket
Images:2087
First:25.05.2025 09:04:42
Last:25.05.2025 12:57:05
Duration:03:52:23
</desc></wpt>
<wpt lat = "44.19120" lon = "12.41588"><name>LULE1LS1</name><desc>Obstacle 15 Bucket
Images:3062
First:25.05.2025 09:01:04
Last:25.05.2025 14:36:25
Duration:05:35:21
</desc></wpt>
<wpt lat = "44.19079" lon = "12.41427"><name>BRN1LS1</name><desc>Obstacle 17 Chain Carry
Images:2164
First:25.05.2025 08:38:34
Last:25.05.2025 13:13:46
Duration:04:35:12
</desc></wpt>
<wpt lat = "44.19079" lon = "12.41427"><name>BRN1</name><desc>Obstacle 18 Balance
Images:7919
First:25.05.2025 09:21:53
Last:25.05.2025 14:51:55
Duration:05:30:02
</desc></wpt>
<wpt lat = "44.18682" lon = "12.41505"><name>MATR1LS2</name><desc>Obstacle 19 Sand Bag
Images:1761
First:25.05.2025 09:05:11
Last:25.05.2025 15:06:55
Duration:06:01:44
</desc></wpt>
<wpt lat = "44.18682" lon = "12.41505"><name>MATR1LS1</name><desc>Obstacle 19 Sand Bag
Images:1457
First:25.05.2025 08:52:56
Last:25.05.2025 15:03:25
Duration:06:10:29
</desc></wpt>
<wpt lat = "44.18682" lon = "12.41505"><name>MDS1LS1</name><desc>Obstacle 19 Sand Bag
Images:1365
First:25.05.2025 08:56:08
Last:25.05.2025 15:07:45
Duration:06:11:37
</desc></wpt>
<wpt lat = "44.18519" lon = "12.41492"><name>MDS1</name><desc>Obstacle 20 Armer
Images:6506
First:25.05.2025 09:29:04
Last:25.05.2025 15:05:11
Duration:05:36:07
</desc></wpt>
<wpt lat = "44.18519" lon = "12.41492"><name>MATR1</name><desc>Obstacle 20 Armer
Images:2764
First:24.05.2025 09:29:32
Last:25.05.2025 15:04:55
Duration:1.05:35:23
</desc></wpt>
<wpt lat = "44.18869" lon = "12.41131"><name>RLO1</name><desc>Obstacle 22 Inverted Wall
Images:7183
First:24.05.2025 08:54:51
Last:25.05.2025 15:19:34
Duration:1.06:24:43
</desc></wpt>
<wpt lat = "44.18869" lon = "12.41131"><name>FRN3</name><desc>Obstacle 22 Inverted Wall
Images:564
First:25.05.2025 11:48:47
Last:25.05.2025 11:58:29
Duration:00:09:42
</desc></wpt>
<wpt lat = "44.18869" lon = "12.41131"><name>DEC1</name><desc>Obstacle 23 Barbed
Images:4965
First:25.05.2025 09:33:54
Last:25.05.2025 15:22:23
Duration:05:48:29
</desc></wpt>
<wpt lat = "44.18869" lon = "12.41131"><name>FRN2</name><desc>Obstacle 23 Barbed
Images:2799
First:25.05.2025 11:59:34
Last:25.05.2025 14:11:10
Duration:02:11:36
</desc></wpt>
<wpt lat = "44.18839" lon = "12.41118"><name>MCO1</name><desc>Obstacle 26 Monkey Bar
Images:4916
First:25.05.2025 09:35:13
Last:25.05.2025 15:27:21
Duration:05:52:08
</desc></wpt>
<wpt lat = "44.18839" lon = "12.41118"><name>FRN1</name><desc>Obstacle 26 Monkey Bar
Images:575
First:24.05.2025 11:05:20
Last:25.05.2025 11:47:40
Duration:1.00:42:20
</desc></wpt>
<wpt lat = "44.18808" lon = "12.41158"><name>VHO1</name><desc>Fire Jump
Images:3511
First:24.05.2025 08:58:02
Last:25.05.2025 15:28:20
Duration:1.06:30:18
</desc></wpt>
<wpt lat = "44.18808" lon = "12.41158"><name>FRN1LS1</name><desc>Fire Jump
Images:1326
First:24.05.2025 09:16:30
Last:25.05.2025 14:56:27
Duration:1.05:39:57
</desc></wpt>
<wpt lat = "44.18808" lon = "12.41158"><name>MDV1</name><desc>Herotent
Images:2997
First:25.05.2025 09:40:20
Last:25.05.2025 15:29:26
Duration:05:49:06
</desc></wpt>
<wpt lat = "44.18869" lon = "12.41131"><name>MATR1DRONE1</name><desc>Impressions / Pano
Images:54
First:24.05.2025 14:28:42
Last:25.05.2025 11:58:55
Duration:21:30:13
</desc></wpt>
</gpx>