<?xml version='1.0' encoding='utf-8'?>
<gpx version="1.1" creator="Infofile GPX Generator">
<wpt lat = "44.19132" lon = "12.41708"><name>LULE1</name><desc>Obstacle 5 Swim
Images:6022
First:24.05.2025 09:15:35
Last:24.05.2025 14:01:08
Duration:04:45:33
</desc></wpt>
<wpt lat = "44.19132" lon = "12.41708"><name>FRN1</name><desc>Obstacle 5 Swim
Images:4242
First:24.05.2025 10:48:17
Last:24.05.2025 12:15:18
Duration:01:27:01
</desc></wpt>
<wpt lat = "44.19449" lon = "12.41441"><name>MCO1</name><desc>Obstacle 6 Bender
Images:3418
First:24.05.2025 09:16:20
Last:24.05.2025 14:08:24
Duration:04:52:04
</desc></wpt>
<wpt lat = "44.19449" lon = "12.41441"><name>FRN2</name><desc>Obstacle 6 Bender
Images:1475
First:24.05.2025 12:03:40
Last:24.05.2025 12:15:18
Duration:00:11:38
</desc></wpt>
<wpt lat = "44.20196" lon = "12.40804"><name>MATR1</name><desc>Obstacle 7 Log Carry
Images:5682
First:24.05.2025 08:03:41
Last:25.05.2025 09:34:02
Duration:1.01:30:21
</desc></wpt>
<wpt lat = "44.20196" lon = "12.40804"><name>FRN3</name><desc>Obstacle 7 Log Carry
Images:2601
First:24.05.2025 12:28:04
Last:24.05.2025 12:45:53
Duration:00:17:49
</desc></wpt>
<wpt lat = "44.20196" lon = "12.40804"><name>MATR1LS2</name><desc>Obstacle 7 Log Carry
Images:1299
First:24.05.2025 09:14:42
Last:24.05.2025 14:23:58
Duration:05:09:16
</desc></wpt>
<wpt lat = "44.20196" lon = "12.40804"><name>MATR1LS1</name><desc>Obstacle 7 Log Carry
Images:2417
First:24.05.2025 09:06:27
Last:24.05.2025 14:23:20
Duration:05:16:53
</desc></wpt>
<wpt lat = "44.20109" lon = "12.40549"><name>MDS1LS1</name><desc>Run before Obstacle 9
Images:1611
First:24.05.2025 09:08:48
Last:24.05.2025 14:32:13
Duration:05:23:25
</desc></wpt>
<wpt lat = "44.20109" lon = "12.40549"><name>MDS1</name><desc>Obstacle 9 Beater
Images:6519
First:24.05.2025 08:04:04
Last:24.05.2025 14:33:30
Duration:06:29:26
</desc></wpt>
<wpt lat = "44.20092" lon = "12.40581"><name>RLO1</name><desc>Obstacle 10 Starway to Sparta
Images:5248
First:23.05.2025 16:30:36
Last:25.05.2025 11:28:41
Duration:1.18:58:05
</desc></wpt>
<wpt lat = "44.20092" lon = "12.40581"><name>FRN4</name><desc>Obstacle 10 Starway to Sparta
Images:499
First:24.05.2025 13:08:36
Last:24.05.2025 13:22:40
Duration:00:14:04
</desc></wpt>
<wpt lat = "44.19072" lon = "12.41648"><name>LULE1LS1</name><desc>Run before obstacle 16
Images:1642
First:24.05.2025 09:01:42
Last:24.05.2025 15:07:59
Duration:06:06:17
</desc></wpt>
<wpt lat = "44.19072" lon = "12.41648"><name>LULE2</name><desc>Obstacle 16 Buketr carry
Images:683
First:24.05.2025 14:06:46
Last:24.05.2025 14:53:02
Duration:00:46:16
</desc></wpt>
<wpt lat = "44.19072" lon = "12.41648"><name>LULE1LS2</name><desc>Obstacle 16 Buketr carry
Images:1328
First:24.05.2025 11:21:06
Last:24.05.2025 14:55:43
Duration:03:34:37
</desc></wpt>
<wpt lat = "44.19073" lon = "12.41427"><name>BRN1</name><desc>Obstacle 17 Chain Carry
Images:9101
First:24.05.2025 09:40:29
Last:24.05.2025 15:24:04
Duration:05:43:35
</desc></wpt>
<wpt lat = "44.19073" lon = "12.41427"><name>BRN1LS1</name><desc>Obstacle 17 Chain Carry
Images:1112
First:24.05.2025 09:29:59
Last:24.05.2025 15:30:11
Duration:06:00:12
</desc></wpt>
<wpt lat = "44.18847" lon = "12.41193"><name>DEC1</name><desc>Obstacle 23 Barbed Wire
Images:4425
First:24.05.2025 09:52:10
Last:24.05.2025 16:00:53
Duration:06:08:43
</desc></wpt>
<wpt lat = "44.18847" lon = "12.41193"><name>FRN5</name><desc>Obstacle 23 Barbed Wire
Images:3100
First:24.05.2025 10:25:41
Last:24.05.2025 14:37:12
Duration:04:11:31
</desc></wpt>
<wpt lat = "44.18811" lon = "12.41154"><name>VHO1</name><desc>Fire Jump
Images:3426
First:24.05.2025 08:56:17
Last:25.05.2025 09:25:34
Duration:1.00:29:17
</desc></wpt>
<wpt lat = "44.18811" lon = "12.41154"><name>FRN1LS1</name><desc>Fire Jump
Images:1198
First:24.05.2025 09:16:30
Last:24.05.2025 16:12:54
Duration:06:56:24
</desc></wpt>
<wpt lat = "44.18799" lon = "12.41161"><name>MDV1</name><desc>Herotent
Images:2414
First:24.05.2025 09:58:49
Last:24.05.2025 16:16:55
Duration:06:18:06
</desc></wpt>
<wpt lat = "44.18847" lon = "12.41193"><name>DEC1DRONE1</name><desc>Impressions / Pano
Images:13
First:24.05.2025 14:27:14
Last:24.05.2025 14:36:32
Duration:00:09:18
</desc></wpt>
<wpt lat = "44.20109" lon = "12.40549"><name>MATR1DRONE1</name><desc>Impressions / Pano
Images:31
First:24.05.2025 14:28:42
Last:25.05.2025 11:58:36
Duration:21:29:54
</desc></wpt>
<wpt lat = "44.19073" lon = "12.41427"><name>MDS2</name><desc>Obstacle 17 Chain Carry NIGHT
Images:253
First:24.05.2025 21:02:52
Last:24.05.2025 22:04:28
Duration:01:01:36
</desc></wpt>
<wpt lat = "44.19073" lon = "12.41427"><name>MDS2LS1</name><desc>Obstacle 17 Chain Carry NIGHT
Images:322
First:24.05.2025 20:11:40
Last:24.05.2025 22:04:42
Duration:01:53:02
</desc></wpt>
<wpt lat = "44.18866" lon = "12.41169"><name>BRN2</name><desc>Obstacle 21 Multirig NIGHT
Images:601
First:24.05.2025 20:22:37
Last:24.05.2025 22:38:20
Duration:02:15:43
</desc></wpt>
<wpt lat = "44.18866" lon = "12.41169"><name>MATR2LS1</name><desc>Penalty Loop Obstacle 21 Multirig NIGHT
Images:431
First:24.05.2025 20:06:38
Last:24.05.2025 22:42:32
Duration:02:35:54
</desc></wpt>
<wpt lat = "44.18866" lon = "12.41169"><name>MATR2</name><desc>Obstacle 23 Barbed NIGHT
Images:864
First:24.05.2025 21:21:04
Last:24.05.2025 22:39:31
Duration:01:18:27
</desc></wpt>
<wpt lat = "44.18801" lon = "12.41157"><name>FRN6LS1</name><desc>Fire Jump NIGHT
Images:558
First:24.05.2025 20:26:18
Last:24.05.2025 22:50:47
Duration:02:24:29
</desc></wpt>
<wpt lat = "44.18801" lon = "12.41157"><name>LULE3LS1</name><desc>Fire Jump NIGHT
Images:606
First:24.05.2025 20:01:43
Last:24.05.2025 22:50:31
Duration:02:48:48
</desc></wpt>
<wpt lat = "44.18801" lon = "12.41157"><name>LULE3</name><desc>Herotent NIGHT
Images:1031
First:24.05.2025 21:23:33
Last:24.05.2025 22:53:27
Duration:01:29:54
</desc></wpt>
</gpx>