<?xml version='1.0' encoding='utf-8'?>
<gpx version="1.1" creator="Infofile GPX Generator">
<wpt lat = "50.19120" lon = "4.37885"><name>BA1</name><desc>Swim - Start
Images:2100
First:21.09.2025 08:44:03
Last:21.09.2025 09:36:23
Duration:00:52:20
</desc></wpt>
<wpt lat = "50.19120" lon = "4.37885"><name>SDT2</name><desc>Swim - Transition zone
Images:973
First:21.09.2025 08:50:13
Last:21.09.2025 09:37:15
Duration:00:47:02
</desc></wpt>
<wpt lat = "50.19120" lon = "4.37885"><name>SDT2LS2</name><desc>Swim - Transition zone
Images:1057
First:21.09.2025 08:43:09
Last:21.09.2025 09:39:07
Duration:00:55:58
</desc></wpt>
<wpt lat = "50.19120" lon = "4.37885"><name>SDT2LS1</name><desc>Swim - Transition zone
Images:2046
First:21.09.2025 08:41:47
Last:21.09.2025 09:39:15
Duration:00:57:28
</desc></wpt>
<wpt lat = "50.21535" lon = "4.39185"><name>SBRO1</name><desc>Bike - 4.8 km after Start
Images:1159
First:20.09.2025 12:58:52
Last:21.09.2025 14:46:33
Duration:1.01:47:41
</desc></wpt>
<wpt lat = "50.18580" lon = "4.40328"><name>ROB1</name><desc>Bike - 9.2 km after Start
Images:3541
First:20.09.2025 13:08:13
Last:21.09.2025 10:16:38
Duration:21:08:25
</desc></wpt>
<wpt lat = "50.18580" lon = "4.40328"><name>ROB1LS2</name><desc>Bike - 9.2 km after Start
Images:833
First:21.09.2025 09:04:47
Last:21.09.2025 10:23:03
Duration:01:18:16
</desc></wpt>
<wpt lat = "50.18580" lon = "4.40328"><name>ROB1LS1</name><desc>Bike - 9.2 km after Start
Images:893
First:21.09.2025 08:58:30
Last:21.09.2025 10:23:03
Duration:01:24:33
</desc></wpt>
<wpt lat = "50.18580" lon = "4.40328"><name>ROB1DRONE1</name><desc>Bike - 9.2 km after Start
Images:14
First:20.09.2025 12:55:44
Last:21.09.2025 09:38:19
Duration:20:42:35
</desc></wpt>
<wpt lat = "50.19010" lon = "4.36607"><name>MSAI1</name><desc>Bike - 20.9 km after Start
Images:295
First:20.09.2025 13:05:39
Last:21.09.2025 14:36:16
Duration:1.01:30:37
</desc></wpt>
<wpt lat = "50.18888" lon = "4.37710"><name>BA2</name><desc>Run - 0.7 km after Start
Images:1478
First:21.09.2025 09:50:27
Last:21.09.2025 11:13:52
Duration:01:23:25
</desc></wpt>
<wpt lat = "50.18915" lon = "4.36539"><name>MSAI2</name><desc>Run - 1.9 km after Start
Images:2189
First:21.09.2025 10:09:11
Last:21.09.2025 16:54:50
Duration:06:45:39
</desc></wpt>
<wpt lat = "50.19136" lon = "4.37869"><name>SDT1</name><desc>Finish
Images:1024
First:21.09.2025 10:05:56
Last:21.09.2025 15:04:22
Duration:04:58:26
</desc></wpt>
<wpt lat = "50.19136" lon = "4.37869"><name>SDT1LS2</name><desc>Finish
Images:990
First:21.09.2025 09:57:41
Last:21.09.2025 11:50:36
Duration:01:52:55
</desc></wpt>
<wpt lat = "50.19136" lon = "4.37869"><name>SDT1LS1</name><desc>Finish
Images:963
First:21.09.2025 09:57:42
Last:21.09.2025 11:50:37
Duration:01:52:55
</desc></wpt>
<wpt lat = "50.19136" lon = "4.37869"><name>PANO1</name><desc>Swim - Impressions / Pano
Images:41
First:20.09.2025 14:26:00
Last:21.09.2025 11:28:53
Duration:21:02:53
</desc></wpt>
</gpx>