<?xml version='1.0' encoding='utf-8'?>
<gpx version="1.1" creator="Infofile GPX Generator">
<wpt lat = "52.88525" lon = "-0.77834"><name>LOT1</name><desc>12 - Barbed Wire Crawl
Images:7667
First:12.07.2025 08:53:20
Last:12.07.2025 15:42:19
Duration:06:48:59
</desc></wpt>
<wpt lat = "52.88525" lon = "-0.77834"><name>BKO2</name><desc>12 - Barbed Wire Crawl
Images:672
First:12.07.2025 11:43:11
Last:12.07.2025 12:00:14
Duration:00:17:03
</desc></wpt>
<wpt lat = "52.88516" lon = "-0.77649"><name>MSO1</name><desc>13 - Inverted Wall
Images:8888
First:12.07.2025 08:57:15
Last:13.07.2025 08:49:59
Duration:23:52:44
</desc></wpt>
<wpt lat = "52.88516" lon = "-0.77649"><name>BKO3</name><desc>13 - Inverted Wall
Images:342
First:12.07.2025 12:02:42
Last:12.07.2025 12:18:04
Duration:00:15:22
</desc></wpt>
<wpt lat = "52.88531" lon = "-0.77411"><name>DANO1</name><desc>14 - Monkey Bars
Images:9470
First:12.07.2025 08:36:49
Last:12.07.2025 15:15:48
Duration:06:38:59
</desc></wpt>
<wpt lat = "52.88531" lon = "-0.77411"><name>BKO4</name><desc>14 - Monkey Bars
Images:863
First:12.07.2025 12:23:15
Last:12.07.2025 12:41:51
Duration:00:18:36
</desc></wpt>
<wpt lat = "52.88326" lon = "-0.77231"><name>MLI1</name><desc>15 - Atlas Carry
Images:6746
First:12.07.2025 08:17:23
Last:12.07.2025 15:18:57
Duration:07:01:34
</desc></wpt>
<wpt lat = "52.88326" lon = "-0.77231"><name>BKO5</name><desc>15 - Atlas Carry
Images:525
First:12.07.2025 12:46:57
Last:12.07.2025 13:08:19
Duration:00:21:22
</desc></wpt>
<wpt lat = "52.88422" lon = "-0.77305"><name>KSTH1</name><desc>16 - Sandbag Carry
Images:3906
First:12.07.2025 07:24:42
Last:12.07.2025 15:23:44
Duration:07:59:02
</desc></wpt>
<wpt lat = "52.88422" lon = "-0.77305"><name>BKO6</name><desc>16 - Sandbag Carry
Images:283
First:12.07.2025 13:10:28
Last:12.07.2025 13:25:31
Duration:00:15:03
</desc></wpt>
<wpt lat = "52.88251" lon = "-0.77558"><name>CUP1</name><desc>20 - Dunk Wall
Images:10499
First:12.07.2025 09:03:28
Last:12.07.2025 15:40:19
Duration:06:36:51
</desc></wpt>
<wpt lat = "52.88251" lon = "-0.77558"><name>BKO7</name><desc>20 - Dunk Wall
Images:774
First:12.07.2025 13:33:40
Last:12.07.2025 13:51:43
Duration:00:18:03
</desc></wpt>
<wpt lat = "52.89057" lon = "-0.77023"><name>PHA1</name><desc>33 - A Frame
Images:14829
First:12.07.2025 07:51:16
Last:12.07.2025 17:34:37
Duration:09:43:21
</desc></wpt>
<wpt lat = "52.89057" lon = "-0.77023"><name>BKO8</name><desc>33 - A Frame
Images:1130
First:12.07.2025 14:08:24
Last:12.07.2025 14:24:56
Duration:00:16:32
</desc></wpt>
<wpt lat = "52.89065" lon = "-0.77362"><name>APDA1</name><desc>35 - Fire Jump
Images:5182
First:12.07.2025 07:05:39
Last:13.07.2025 08:09:11
Duration:1.01:03:32
</desc></wpt>
<wpt lat = "52.89065" lon = "-0.77362"><name>LOT2</name><desc>35 - Fire Jump
Images:21
First:12.07.2025 15:33:17
Last:12.07.2025 15:34:08
Duration:00:00:51
</desc></wpt>
<wpt lat = "52.89065" lon = "-0.77362"><name>BKO9</name><desc>35 - Fire Jump
Images:576
First:12.07.2025 14:27:19
Last:12.07.2025 14:40:38
Duration:00:13:19
</desc></wpt>
<wpt lat = "52.89152" lon = "-0.77322"><name>BKO1LS1</name><desc>Finish
Images:1255
First:12.07.2025 10:05:26
Last:12.07.2025 17:39:51
Duration:07:34:25
</desc></wpt>
<wpt lat = "52.89152" lon = "-0.77322"><name>CUP2LS1</name><desc>Finish
Images:1284
First:12.07.2025 09:48:21
Last:12.07.2025 17:38:05
Duration:07:49:44
</desc></wpt>
<wpt lat = "52.89068" lon = "-0.77371"><name>STA1</name><desc>Hero Wall
Images:1510
First:12.07.2025 08:07:57
Last:12.07.2025 17:39:08
Duration:09:31:11
</desc></wpt>
<wpt lat = "52.89068" lon = "-0.77371"><name>BKO10</name><desc>Hero Wall
Images:212
First:12.07.2025 14:47:35
Last:12.07.2025 15:09:20
Duration:00:21:45
</desc></wpt>
<wpt lat = "52.89152" lon = "-0.77322"><name>BKO11</name><desc>Impressions / Pano
Images:397
First:12.07.2025 10:23:00
Last:13.07.2025 09:58:56
Duration:23:35:56
</desc></wpt>
<wpt lat = "52.89152" lon = "-0.77322"><name>BKO11DRONE1</name><desc>Impressions / Pano
Images:19
First:12.07.2025 11:14:44
Last:13.07.2025 10:08:55
Duration:22:54:11
</desc></wpt>
</gpx>