<?xml version='1.0' encoding='utf-8'?>
<gpx version="1.1" creator="Infofile GPX Generator">
<wpt lat = "54.14176" lon = "10.95256"><name>LEM1DRONE1</name><desc>Impressions / Pano
Images:12
First:13.09.2025 16:20:15
Last:13.09.2025 16:23:56
Duration:00:03:41
</desc></wpt>
<wpt lat = "54.14176" lon = "10.95256"><name>LEM1</name><desc>Impressions / Pano
Images:302
First:13.09.2025 10:45:20
Last:13.09.2025 18:02:00
Duration:07:16:40
</desc></wpt>
<wpt lat = "54.14473" lon = "10.96218"><name>QCC1</name><desc>Obstacle 2 Freak Froster
Images:8740
First:13.09.2025 09:18:36
Last:13.09.2025 16:46:37
Duration:07:28:01
</desc></wpt>
<wpt lat = "54.14473" lon = "10.96218"><name>VR1</name><desc>Obstacle 2 Freak Froster
Images:5721
First:13.09.2025 08:57:45
Last:13.09.2025 16:45:47
Duration:07:48:02
</desc></wpt>
<wpt lat = "54.14408" lon = "10.94565"><name>LSI1</name><desc>Obstacle 6 Crew Carry
Images:7923
First:13.09.2025 09:52:25
Last:13.09.2025 16:35:39
Duration:06:43:14
</desc></wpt>
<wpt lat = "54.13699" lon = "10.94553"><name>RET1</name><desc>Obstacle 9 Muddy Maniacs
Images:10501
First:13.09.2025 09:58:58
Last:13.09.2025 17:38:05
Duration:07:39:07
</desc></wpt>
<wpt lat = "54.13684" lon = "10.94520"><name>JMAR1</name><desc>Obstacle 10 Barbwire Battle
Images:27469
First:13.09.2025 10:08:13
Last:13.09.2025 17:40:45
Duration:07:32:32
</desc></wpt>
<wpt lat = "54.13684" lon = "10.94520"><name>PSA1</name><desc>Obstacle 10 Barbwire Battle
Images:5692
First:13.09.2025 09:14:44
Last:13.09.2025 17:40:44
Duration:08:26:00
</desc></wpt>
<wpt lat = "54.13394" lon = "10.94354"><name>LEM1LS1</name><desc>Obstacle 11 Speed Slide
Images:2281
First:13.09.2025 10:35:10
Last:13.09.2025 17:55:51
Duration:07:20:41
</desc></wpt>
<wpt lat = "54.13394" lon = "10.94354"><name>LEM1LS2</name><desc>Obstacle 11 Speed Slide
Images:1812
First:13.09.2025 10:28:16
Last:13.09.2025 17:55:51
Duration:07:27:35
</desc></wpt>
<wpt lat = "54.13641" lon = "10.94663"><name>DAB1</name><desc>Obstacle 13 Rotten River
Images:3040
First:13.09.2025 10:04:24
Last:13.09.2025 17:07:46
Duration:07:03:22
</desc></wpt>
<wpt lat = "54.13641" lon = "10.94663"><name>SLOM1</name><desc>Obstacle 13 Rotten River
Images:6542
First:13.09.2025 09:40:22
Last:13.09.2025 17:55:30
Duration:08:15:08
</desc></wpt>
<wpt lat = "54.14951" lon = "10.97786"><name>FDC1</name><desc>Obstacle 18 Clumsy Cliffhanger
Images:4639
First:13.09.2025 09:24:56
Last:13.09.2025 17:14:10
Duration:07:49:14
</desc></wpt>
<wpt lat = "54.14951" lon = "10.97786"><name>LUKS1</name><desc>Obstacle 18 Clumsy Cliffhanger
Images:5008
First:13.09.2025 10:05:01
Last:13.09.2025 17:14:24
Duration:07:09:23
</desc></wpt>
<wpt lat = "54.15324" lon = "10.98765"><name>CM1</name><desc>Obstacle 19 Rapid Rings
Images:7174
First:13.09.2025 09:13:16
Last:13.09.2025 17:28:09
Duration:08:14:53
</desc></wpt>
<wpt lat = "54.15324" lon = "10.98765"><name>CM1LS1</name><desc>Obstacle 19 Rapid Rings
Images:3480
First:13.09.2025 09:06:05
Last:13.09.2025 17:26:11
Duration:08:20:06
</desc></wpt>
<wpt lat = "54.14176" lon = "10.95514"><name>RYS1</name><desc>Finish
Images:10475
First:13.09.2025 09:49:27
Last:13.09.2025 18:19:47
Duration:08:30:20
</desc></wpt>
<wpt lat = "54.14176" lon = "10.95514"><name>RYS1LS2</name><desc>Finish
Images:2172
First:13.09.2025 09:13:00
Last:13.09.2025 18:24:40
Duration:09:11:40
</desc></wpt>
<wpt lat = "54.14176" lon = "10.95514"><name>RYS1LS1</name><desc>Finish
Images:2784
First:13.09.2025 09:06:17
Last:13.09.2025 17:59:50
Duration:08:53:33
</desc></wpt>
<wpt lat = "54.14176" lon = "10.95256"><name>MFR1</name><desc>Herotent
Images:2740
First:13.09.2025 09:19:56
Last:13.09.2025 18:19:32
Duration:08:59:36
</desc></wpt>
<wpt lat = "54.14176" lon = "10.95256"><name>PJE1</name><desc>Herotent
Images:3692
First:13.09.2025 09:20:22
Last:13.09.2025 18:16:45
Duration:08:56:23
</desc></wpt>
</gpx>