<?xml version='1.0' encoding='utf-8'?>
<gpx version="1.1" creator="Infofile GPX Generator">
<wpt lat = "41.63832" lon = "2.70434"><name>DAFE1</name><desc>Generales
Images:98
First:18.10.2025 08:53:46
Last:19.10.2025 09:02:44
Duration:1.00:08:58
</desc></wpt>
<wpt lat = "41.63832" lon = "2.70434"><name>MANR1</name><desc>Generales
Images:241
First:18.10.2025 08:49:54
Last:19.10.2025 09:21:23
Duration:1.00:31:29
</desc></wpt>
<wpt lat = "41.63832" lon = "2.70434"><name>AFGA1</name><desc>Generales
Images:19
First:19.10.2025 08:38:23
Last:19.10.2025 08:59:41
Duration:00:21:18
</desc></wpt>
<wpt lat = "41.63832" lon = "2.70434"><name>MANR4</name><desc>Generales
Images:111
First:19.10.2025 11:31:31
Last:19.10.2025 11:45:16
Duration:00:13:45
</desc></wpt>
<wpt lat = "41.63832" lon = "2.70434"><name>MANR6</name><desc>Generales
Images:176
First:19.10.2025 12:59:31
Last:19.10.2025 13:51:16
Duration:00:51:45
</desc></wpt>
<wpt lat = "41.64082" lon = "2.70836"><name>JLTG1LS2</name><desc>Bucket Carry
Images:1882
First:19.10.2025 09:04:41
Last:19.10.2025 14:55:58
Duration:05:51:17
</desc></wpt>
<wpt lat = "41.64082" lon = "2.70836"><name>JLTG1LS1</name><desc>Bucket Carry
Images:2046
First:19.10.2025 08:58:37
Last:19.10.2025 14:55:03
Duration:05:56:26
</desc></wpt>
<wpt lat = "41.64082" lon = "2.70836"><name>JLTG1</name><desc>Bucket Carry
Images:9161
First:18.10.2025 09:45:10
Last:19.10.2025 14:53:19
Duration:1.05:08:09
</desc></wpt>
<wpt lat = "41.64082" lon = "2.70836"><name>MANR2</name><desc>Bucket Carry
Images:324
First:19.10.2025 09:35:31
Last:19.10.2025 11:07:23
Duration:01:31:52
</desc></wpt>
<wpt lat = "41.63878" lon = "2.70779"><name>DAFE2</name><desc>Rolling Mud
Images:16593
First:19.10.2025 09:33:10
Last:19.10.2025 15:46:55
Duration:06:13:45
</desc></wpt>
<wpt lat = "41.63878" lon = "2.70779"><name>MANR3</name><desc>Rolling Mud
Images:198
First:19.10.2025 11:08:17
Last:19.10.2025 11:20:21
Duration:00:12:04
</desc></wpt>
<wpt lat = "41.62897" lon = "2.71334"><name>JIA1</name><desc>Multi Rig
Images:7213
First:19.10.2025 08:55:49
Last:19.10.2025 15:20:03
Duration:06:24:14
</desc></wpt>
<wpt lat = "41.62897" lon = "2.71334"><name>MANR7</name><desc>Multi Rig
Images:219
First:18.10.2025 13:12:01
Last:19.10.2025 15:17:22
Duration:1.02:05:21
</desc></wpt>
<wpt lat = "41.62891" lon = "2.71303"><name>MIFP1</name><desc>Barbed wire
Images:7809
First:18.10.2025 10:00:11
Last:19.10.2025 15:24:39
Duration:1.05:24:28
</desc></wpt>
<wpt lat = "41.62891" lon = "2.71303"><name>MANR9</name><desc>Barbed wire
Images:980
First:19.10.2025 11:58:38
Last:19.10.2025 12:20:21
Duration:00:21:43
</desc></wpt>
<wpt lat = "41.62899" lon = "2.71354"><name>MIFP1LS1</name><desc>Log Carry
Images:5286
First:18.10.2025 08:50:07
Last:19.10.2025 15:34:25
Duration:1.06:44:18
</desc></wpt>
<wpt lat = "41.62899" lon = "2.71354"><name>JRD1</name><desc>Log Carry
Images:9938
First:19.10.2025 09:41:59
Last:19.10.2025 15:28:25
Duration:05:46:26
</desc></wpt>
<wpt lat = "41.62899" lon = "2.71354"><name>MANR5</name><desc>Log Carry
Images:597
First:19.10.2025 12:24:53
Last:19.10.2025 12:55:43
Duration:00:30:50
</desc></wpt>
<wpt lat = "41.62784" lon = "2.70917"><name>TGM1</name><desc>Sandbag Carry
Images:11263
First:19.10.2025 09:44:49
Last:19.10.2025 15:38:17
Duration:05:53:28
</desc></wpt>
<wpt lat = "41.62784" lon = "2.70917"><name>TGM1LS2</name><desc>Sandbag Carry
Images:2062
First:18.10.2025 08:59:21
Last:19.10.2025 15:38:14
Duration:1.06:38:53
</desc></wpt>
<wpt lat = "41.62784" lon = "2.70917"><name>TGM1LS1</name><desc>Sandbag Carry
Images:2634
First:19.10.2025 09:45:15
Last:19.10.2025 15:38:41
Duration:05:53:26
</desc></wpt>
<wpt lat = "41.63833" lon = "2.70786"><name>JCR1</name><desc>Fire jump
Images:5717
First:18.10.2025 10:55:37
Last:19.10.2025 16:24:49
Duration:1.05:29:12
</desc></wpt>
<wpt lat = "41.63833" lon = "2.70786"><name>AFGA2LS1</name><desc>Fire jump
Images:2545
First:19.10.2025 08:08:35
Last:19.10.2025 16:33:54
Duration:08:25:19
</desc></wpt>
<wpt lat = "41.63833" lon = "2.70786"><name>JCR1LS1</name><desc>Fire jump
Images:5572
First:19.10.2025 08:36:08
Last:19.10.2025 16:03:31
Duration:07:27:23
</desc></wpt>
<wpt lat = "41.63833" lon = "2.70786"><name>MANR8</name><desc>Fire jump
Images:141
First:19.10.2025 15:19:21
Last:19.10.2025 16:43:13
Duration:01:23:52
</desc></wpt>
<wpt lat = "41.63839" lon = "2.70748"><name>AFGA2</name><desc>Herotent
Images:1644
First:19.10.2025 10:08:16
Last:19.10.2025 16:29:25
Duration:06:21:09
</desc></wpt>
<wpt lat = "41.63833" lon = "2.70786"><name>MANR1DRONE1</name><desc>Impressions / Pano
Images:9
First:19.10.2025 10:10:45
Last:19.10.2025 10:19:09
Duration:00:08:24
</desc></wpt>
</gpx>