<?xml version='1.0' encoding='utf-8'?>
<gpx version="1.1" creator="Infofile GPX Generator">
<wpt lat = "35.98055" lon = "-114.93329"><name>MCAR1</name><desc>Obstacle 3 Barb Wire Crawl
Images:1945
First:16.03.2025 05:49:34
Last:16.03.2025 11:06:14
Duration:05:16:40
</desc></wpt>
<wpt lat = "35.98055" lon = "-114.93329"><name>TUD1</name><desc>Obstacle 3 Barb Wire Crawl
Images:3968
First:15.03.2025 05:38:40
Last:16.03.2025 11:10:23
Duration:1.05:31:43
</desc></wpt>
<wpt lat = "35.98222" lon = "-114.93343"><name>MCAR1DRONE1</name><desc>Drone
Images:19
First:15.03.2025 07:08:28
Last:16.03.2025 06:39:13
Duration:23:30:45
</desc></wpt>
<wpt lat = "35.98170" lon = "-114.93291"><name>DDC1</name><desc>Obstacle 4 Monkey Bars
Images:4366
First:16.03.2025 06:13:02
Last:16.03.2025 11:15:41
Duration:05:02:39
</desc></wpt>
<wpt lat = "35.98170" lon = "-114.93291"><name>DDS1</name><desc>Obstacle 4 Monkey Bars
Images:4010
First:15.03.2025 06:02:27
Last:16.03.2025 11:15:49
Duration:1.05:13:22
</desc></wpt>
<wpt lat = "35.98177" lon = "-114.93306"><name>GOB1</name><desc>Obstacle 5 Slip Wall
Images:3286
First:15.03.2025 06:39:27
Last:16.03.2025 11:16:41
Duration:1.04:37:14
</desc></wpt>
<wpt lat = "35.98059" lon = "-114.93389"><name>JANH1</name><desc>Obstacle 6 Plate Drag
Images:2511
First:16.03.2025 05:55:52
Last:16.03.2025 11:21:23
Duration:05:25:31
</desc></wpt>
<wpt lat = "35.98059" lon = "-114.93389"><name>MATA1</name><desc>Obstacle 6 Plate Drag
Images:3010
First:15.03.2025 06:36:47
Last:16.03.2025 11:19:07
Duration:1.04:42:20
</desc></wpt>
<wpt lat = "35.98120" lon = "-114.94488"><name>MIGO1</name><desc>Obstacle 14 Multu-Rig
Images:3620
First:15.03.2025 19:45:14
Last:16.03.2025 10:06:20
Duration:14:21:06
</desc></wpt>
<wpt lat = "35.98120" lon = "-114.94488"><name>SCTH1</name><desc>Obstacle 14 Multu-Rig
Images:3045
First:15.03.2025 05:42:06
Last:16.03.2025 12:06:19
Duration:1.06:24:13
</desc></wpt>
<wpt lat = "35.98120" lon = "-114.94057"><name>KHN1LS2</name><desc>Obstacle 17 Inverted Wall
Images:1151
First:16.03.2025 05:51:15
Last:16.03.2025 12:42:33
Duration:06:51:18
</desc></wpt>
<wpt lat = "35.97924" lon = "-114.93951"><name>KHN1</name><desc>Obstacle 18 Bucket Carry
Images:8870
First:15.03.2025 06:22:06
Last:16.03.2025 12:38:41
Duration:1.06:16:35
</desc></wpt>
<wpt lat = "35.97983" lon = "-114.94002"><name>KHN1LS1</name><desc>Obstacle 18 Bucket Carry
Images:24675
First:14.03.2025 20:09:21
Last:16.03.2025 12:38:41
Duration:1.16:29:20
</desc></wpt>
<wpt lat = "35.98162" lon = "-114.93341"><name>JO1</name><desc>Obstacle 22 A-Frame Cargo
Images:1197
First:15.03.2025 06:10:03
Last:16.03.2025 12:55:42
Duration:1.06:45:39
</desc></wpt>
<wpt lat = "35.98162" lon = "-114.93341"><name>JO1LS1</name><desc>Obstacle 22 A-Frame Cargo
Images:845
First:14.03.2025 07:52:37
Last:16.03.2025 00:53:29
Duration:1.17:00:52
</desc></wpt>
<wpt lat = "35.98175" lon = "-114.93330"><name>MKI1</name><desc>Obstacle 23 Fire Jump
Images:4388
First:15.03.2025 05:53:00
Last:16.03.2025 12:56:20
Duration:1.07:03:20
</desc></wpt>
<wpt lat = "35.98222" lon = "-114.93343"><name>JAL1</name><desc>Herotent
Images:542
First:15.03.2025 06:12:25
Last:16.03.2025 12:44:46
Duration:1.06:32:21
</desc></wpt>
<wpt lat = "35.98222" lon = "-114.93343"><name>DVAL1</name><desc>Herotent
Images:762
First:15.03.2025 06:05:43
Last:16.03.2025 12:57:45
Duration:1.06:52:02
</desc></wpt>
</gpx>