<?xml version='1.0' encoding='utf-8'?>
<gpx version="1.1" creator="Infofile GPX Generator">
<wpt lat = "41.18977" lon = "-74.51300"><name>ALTO1</name><desc>Obstacle 5 Tyrolean Traverse
Images:4633
First:26.04.2025 08:09:17
Last:27.04.2025 08:16:41
Duration:1.00:07:24
</desc></wpt>
<wpt lat = "41.18977" lon = "-74.51300"><name>MRKE1</name><desc>Obstacle 5 Tyrolean Traverse
Images:3989
First:26.04.2025 08:16:05
Last:26.04.2025 16:38:04
Duration:08:21:59
</desc></wpt>
<wpt lat = "41.17080" lon = "-74.53258"><name>JSAN1</name><desc>Obstacle 18 Barbed Wire Crawl #2
Images:4871
First:01.01.0001 23:00:00
Last:26.04.2025 17:34:00
Duration:739365.18:34:00
</desc></wpt>
<wpt lat = "41.17572" lon = "-74.53252"><name>YEP1</name><desc>Obstacle 19 Multi-Rig
Images:4277
First:26.04.2025 09:09:33
Last:26.04.2025 20:03:32
Duration:10:53:59
</desc></wpt>
<wpt lat = "41.17572" lon = "-74.53252"><name>EUGP1</name><desc>Obstacle 19 Multi-Rig
Images:3417
First:26.04.2025 09:09:15
Last:27.04.2025 08:19:46
Duration:23:10:31
</desc></wpt>
<wpt lat = "41.17741" lon = "-74.53177"><name>ANMF1</name><desc>Obstacle 22 Slip Wall
Images:11614
First:26.04.2022 14:07:51
Last:26.04.2025 20:01:02
Duration:1096.05:53:11
</desc></wpt>
<wpt lat = "41.17419" lon = "-74.53227"><name>MAU1</name><desc>Obstacle 23 Traverse Wall
Images:4812
First:26.04.2025 07:01:40
Last:26.04.2025 19:16:21
Duration:12:14:41
</desc></wpt>
<wpt lat = "41.17419" lon = "-74.53227"><name>JAYA1</name><desc>Obstacle 23 Traverse Wall
Images:6215
First:25.04.2025 21:03:57
Last:26.04.2025 19:57:21
Duration:22:53:24
</desc></wpt>
<wpt lat = "41.17119" lon = "-74.52811"><name>KLOW1</name><desc>Obstacle 26 Sandbag Carry
Images:10826
First:25.04.2025 21:30:50
Last:26.04.2025 20:00:49
Duration:22:29:59
</desc></wpt>
<wpt lat = "41.17241" lon = "-74.52702"><name>SWDY1</name><desc>Obstacle 29 Craft A-Frame Cargo
Images:7707
First:25.04.2025 23:32:31
Last:26.04.2025 17:53:35
Duration:18:21:04
</desc></wpt>
<wpt lat = "41.17322" lon = "-74.52788"><name>WMY1</name><desc>Obstacle 30 Bucket Carry
Images:6663
First:25.04.2025 22:10:17
Last:27.04.2025 08:32:17
Duration:1.10:22:00
</desc></wpt>
<wpt lat = "41.17786" lon = "-74.53147"><name>AAD1</name><desc>Obstacle 33 Fire Jump
Images:6663
First:26.04.2025 09:17:14
Last:27.04.2025 07:59:12
Duration:22:41:58
</desc></wpt>
<wpt lat = "41.17800" lon = "-74.53138"><name>PEC1</name><desc>Herotent
Images:5129
First:25.04.2025 22:21:00
Last:26.04.2025 20:24:02
Duration:22:03:02
</desc></wpt>
</gpx>