<?xml version='1.0' encoding='utf-8'?>
<gpx version="1.1" creator="Infofile GPX Generator">
<wpt lat = "38.70519" lon = "-104.81603"><name>LLCA1</name><desc>Obstacle 2 Kiss of Mud
Images:8258
First:27.09.2025 08:17:14
Last:27.09.2025 13:20:19
Duration:05:03:05
</desc></wpt>
<wpt lat = "38.70668" lon = "-104.81317"><name>SAMT1</name><desc>Obstacle 6 Pit Fall
Images:3475
First:27.09.2025 07:36:59
Last:27.09.2025 13:50:56
Duration:06:13:57
</desc></wpt>
<wpt lat = "38.70452" lon = "-104.80805"><name>KECO1</name><desc>Obstacle 9 Tipping Point
Images:2615
First:27.09.2025 07:42:06
Last:27.09.2025 14:04:27
Duration:06:22:21
</desc></wpt>
<wpt lat = "38.70452" lon = "-104.80805"><name>JGAB1</name><desc>Obstacle 10 Cage Crawl
Images:5414
First:27.09.2025 08:47:45
Last:27.09.2025 14:15:54
Duration:05:28:09
</desc></wpt>
<wpt lat = "38.70337" lon = "-104.80844"><name>SURO1</name><desc>Obstacle 12 Funky Monkey
Images:12412
First:27.09.2025 08:51:04
Last:27.09.2025 14:11:04
Duration:05:20:00
</desc></wpt>
<wpt lat = "38.69913" lon = "-104.80828"><name>STYS1</name><desc>Obstacle 25 Mudderhorn
Images:1572
First:26.09.2025 17:11:56
Last:27.09.2025 12:00:23
Duration:18:48:27
</desc></wpt>
<wpt lat = "38.69715" lon = "-104.80924"><name>STYS2</name><desc>Obstacle 26 Artic Enema
Images:7712
First:27.09.2025 12:15:28
Last:27.09.2025 17:33:05
Duration:05:17:37
</desc></wpt>
<wpt lat = "38.69734" lon = "-104.81002"><name>HARB1</name><desc>Obstacle 27 Electroshock Therapy
Images:10976
First:26.09.2025 21:58:30
Last:27.09.2025 17:37:24
Duration:19:38:54
</desc></wpt>
<wpt lat = "38.69734" lon = "-104.81002"><name>JOD1</name><desc>Festival Area
Images:464
First:26.09.2025 13:44:08
Last:27.09.2025 15:02:26
Duration:1.01:18:18
</desc></wpt>
</gpx>