<?xml version='1.0' encoding='utf-8'?>
<gpx version="1.1" creator="Infofile GPX Generator">
<wpt lat = "26.37627" lon = "-80.23365"><name>JAZZ1</name><desc>OVER WALLS #2
Images:3907
First:30.03.2025 06:51:18
Last:30.03.2025 11:41:00
Duration:04:49:42
</desc></wpt>
<wpt lat = "26.37574" lon = "-80.23896"><name>JHRO1</name><desc>MONKEY BARS #4
Images:4967
First:29.03.2025 06:12:04
Last:30.03.2025 11:50:07
Duration:1.05:38:03
</desc></wpt>
<wpt lat = "26.37286" lon = "-80.23324"><name>CUL1</name><desc>BARBED WIRE CRAWL
Images:5824
First:30.03.2025 07:10:36
Last:30.03.2025 12:56:42
Duration:05:46:06
</desc></wpt>
<wpt lat = "26.37465" lon = "-80.23284"><name>JOVI1</name><desc>HELIX
Images:7378
First:29.03.2025 06:10:12
Last:30.03.2025 12:36:15
Duration:1.06:26:03
</desc></wpt>
<wpt lat = "26.37465" lon = "-80.23284"><name>RASC1</name><desc>HELIX
Images:2539
First:30.03.2025 06:53:55
Last:30.03.2025 12:36:11
Duration:05:42:16
</desc></wpt>
<wpt lat = "26.37286" lon = "-80.23324"><name>BESC1</name><desc>ATLAS CARRY #14
Images:6811
First:30.03.2025 07:03:32
Last:30.03.2025 12:49:13
Duration:05:45:41
</desc></wpt>
<wpt lat = "26.37286" lon = "-80.23324"><name>JACL1</name><desc>ATLAS CARRY #14
Images:3330
First:30.03.2025 06:58:24
Last:30.03.2025 12:50:41
Duration:05:52:17
</desc></wpt>
<wpt lat = "26.37235" lon = "-80.23310"><name>AUC1</name><desc>PLATE DRAG #15
Images:5326
First:29.03.2025 05:50:59
Last:30.03.2025 12:53:20
Duration:1.07:02:21
</desc></wpt>
<wpt lat = "26.37235" lon = "-80.23310"><name>BMY1</name><desc>PLATE DRAG #15
Images:1719
First:30.03.2025 07:19:43
Last:30.03.2025 12:53:08
Duration:05:33:25
</desc></wpt>
<wpt lat = "26.37350" lon = "-80.23407"><name>ORGA1</name><desc>TITAN FITNESS MULTI-RIG #17
Images:1874
First:28.03.2025 18:09:10
Last:30.03.2025 13:02:42
Duration:1.18:53:32
</desc></wpt>
<wpt lat = "26.37350" lon = "-80.23407"><name>JPP1</name><desc>TITAN FITNESS MULTI-RIG #17
Images:2270
First:30.03.2025 07:03:21
Last:30.03.2025 13:02:36
Duration:05:59:15
</desc></wpt>
<wpt lat = "26.37407" lon = "-80.23445"><name>KEMA1</name><desc>CRAFT A-FRAME CARGO #18
Images:3161
First:29.03.2025 05:45:47
Last:30.03.2025 13:06:18
Duration:1.07:20:31
</desc></wpt>
<wpt lat = "26.37457" lon = "-80.23436"><name>GMAIL1</name><desc>HERO TENT
Images:2298
First:30.03.2025 06:55:12
Last:30.03.2025 13:06:27
Duration:06:11:15
</desc></wpt>
<wpt lat = "26.37457" lon = "-80.23436"><name>SICA1</name><desc>Impressions / Pano
Images:336
First:29.03.2025 06:50:52
Last:30.03.2025 11:45:14
Duration:1.04:54:22
</desc></wpt>
</gpx>