<?xml version='1.0' encoding='utf-8'?>
<gpx version="1.1" creator="Infofile GPX Generator">
<wpt lat = "43.48665" lon = "11.37424"><name>EB1</name><desc>Start
Images:223
First:22.03.2025 03:01:07
Last:22.03.2025 03:03:01
Duration:00:01:54
</desc></wpt>
<wpt lat = "43.43118" lon = "11.34779"><name>EB2</name><desc>Dievole, 5 km after start
Images:3382
First:22.03.2025 03:39:22
Last:22.03.2025 08:05:11
Duration:04:25:49
</desc></wpt>
<wpt lat = "43.43118" lon = "11.34779"><name>EB2LS1</name><desc>Dievole, 5 km after start
Images:1004
First:22.03.2025 06:27:02
Last:22.03.2025 08:24:20
Duration:01:57:18
</desc></wpt>
<wpt lat = "43.43118" lon = "11.34779"><name>EB2LS2</name><desc>Dievole, 5 km after start
Images:828
First:22.03.2025 06:48:27
Last:22.03.2025 08:20:55
Duration:01:32:28
</desc></wpt>
<wpt lat = "43.41989" lon = "11.36281"><name>FRN1</name><desc>Arillo, 7 km after start
Images:1072
First:22.03.2025 03:49:05
Last:23.03.2025 08:24:22
Duration:1.04:35:17
</desc></wpt>
<wpt lat = "43.41989" lon = "11.36281"><name>FRN1LS2</name><desc>Arillo, 7 km after start
Images:769
First:22.03.2025 06:02:37
Last:22.03.2025 08:19:42
Duration:02:17:05
</desc></wpt>
<wpt lat = "43.41989" lon = "11.36281"><name>FRN1LS1</name><desc>Arillo, 7 km after start
Images:585
First:22.03.2025 06:36:26
Last:22.03.2025 08:17:54
Duration:01:41:28
</desc></wpt>
<wpt lat = "43.41989" lon = "11.36289"><name>FRN1DRONE1</name><desc>Impressions / Pano
Images:85
First:22.03.2025 07:46:49
Last:23.03.2025 16:12:39
Duration:1.08:25:50
</desc></wpt>
<wpt lat = "43.46807" lon = "11.41834"><name>FRN2</name><desc>Vertine
Images:1232
First:22.03.2025 11:27:29
Last:22.03.2025 16:59:48
Duration:05:32:19
</desc></wpt>
<wpt lat = "43.46807" lon = "11.41834"><name>FRN2LS1</name><desc>Vertine
Images:6751
First:22.03.2025 09:55:56
Last:22.03.2025 17:03:55
Duration:07:07:59
</desc></wpt>
<wpt lat = "43.46807" lon = "11.41834"><name>FRN2LS2</name><desc>Vertine
Images:756
First:22.03.2025 10:47:16
Last:22.03.2025 16:33:14
Duration:05:45:58
</desc></wpt>
<wpt lat = "43.46807" lon = "11.41834"><name>FRN2LS3</name><desc>Vertine
Images:4453
First:22.03.2025 10:24:39
Last:22.03.2025 17:07:49
Duration:06:43:10
</desc></wpt>
<wpt lat = "43.46981" lon = "11.41786"><name>EB3</name><desc>Vertine old town
Images:2058
First:22.03.2025 09:41:34
Last:22.03.2025 16:56:53
Duration:07:15:19
</desc></wpt>
<wpt lat = "43.46981" lon = "11.41786"><name>EB3LS1</name><desc>Vertine old town
Images:1798
First:22.03.2025 11:03:33
Last:22.03.2025 17:16:44
Duration:06:13:11
</desc></wpt>
<wpt lat = "43.51871" lon = "11.40287"><name>GAZ1</name><desc>Castello albola
Images:4766
First:22.03.2025 09:56:19
Last:22.03.2025 19:22:33
Duration:09:26:14
</desc></wpt>
<wpt lat = "43.51871" lon = "11.40287"><name>GAZ1LS1</name><desc>Castello albola
Images:1522
First:22.03.2025 09:58:32
Last:22.03.2025 19:08:15
Duration:09:09:43
</desc></wpt>
<wpt lat = "43.51903" lon = "11.40030"><name>LULE1</name><desc>After Castello albola
Images:4209
First:22.03.2025 10:53:59
Last:22.03.2025 19:34:15
Duration:08:40:16
</desc></wpt>
<wpt lat = "43.51903" lon = "11.40030"><name>LULE1LS1</name><desc>After Castello albola
Images:1605
First:22.03.2025 10:01:41
Last:22.03.2025 16:51:00
Duration:06:49:19
</desc></wpt>
<wpt lat = "43.51903" lon = "11.40030"><name>LULE1LS2</name><desc>After Castello albola
Images:1240
First:22.03.2025 11:18:59
Last:22.03.2025 18:50:58
Duration:07:31:59
</desc></wpt>
<wpt lat = "43.55252" lon = "11.38803"><name>MATR1</name><desc>S.Michele
Images:4201
First:22.03.2025 10:54:59
Last:22.03.2025 20:36:18
Duration:09:41:19
</desc></wpt>
<wpt lat = "43.55252" lon = "11.38803"><name>MATR1LS1</name><desc>S.Michele
Images:4466
First:22.03.2025 10:27:41
Last:22.03.2025 21:50:49
Duration:11:23:08
</desc></wpt>
<wpt lat = "43.55185" lon = "11.38563"><name>LEBE1</name><desc>S.Michele
Images:3885
First:22.03.2025 10:58:11
Last:22.03.2025 21:51:12
Duration:10:53:01
</desc></wpt>
<wpt lat = "43.48665" lon = "11.37424"><name>RALLA1</name><desc>Finish
Images:7096
First:31.12.2017 23:00:06
Last:22.03.2025 23:05:51
Duration:2638.00:05:45
</desc></wpt>
<wpt lat = "43.48665" lon = "11.37424"><name>RALLA1LS1</name><desc>Finish
Images:1054
First:22.03.2025 08:54:57
Last:22.03.2025 23:02:42
Duration:14:07:45
</desc></wpt>
<wpt lat = "43.48665" lon = "11.37424"><name>LULE2</name><desc>Finish
Images:821
First:22.03.2025 23:20:55
Last:23.03.2025 04:52:31
Duration:05:31:36
</desc></wpt>
<wpt lat = "43.48665" lon = "11.37424"><name>LULE2LS1</name><desc>Finish
Images:358
First:22.03.2025 23:16:43
Last:23.03.2025 04:58:33
Duration:05:41:50
</desc></wpt>
</gpx>