<?xml version='1.0' encoding='utf-8'?>
<gpx version="1.1" creator="Infofile GPX Generator">
<wpt lat = "48.60403" lon = "4.74539"><name>JSCH1</name><desc>Swim - Start
Images:5349
First:21.06.2025 07:26:56
Last:22.06.2025 15:20:33
Duration:1.07:53:37
</desc></wpt>
<wpt lat = "48.61144" lon = "4.73755"><name>MAI1</name><desc>bike km1,2/21,2
Images:7725
First:22.06.2025 09:03:05
Last:22.06.2025 16:23:54
Duration:07:20:49
</desc></wpt>
<wpt lat = "48.60965" lon = "4.75577"><name>JI1</name><desc>bike km19,9/39,9
Images:10725
First:21.06.2025 07:59:36
Last:22.06.2025 17:12:39
Duration:1.09:13:03
</desc></wpt>
<wpt lat = "48.60965" lon = "4.75577"><name>JI1LS1</name><desc>bike km19,9/39,9
Images:7776
First:22.06.2025 09:11:18
Last:22.06.2025 17:12:51
Duration:08:01:33
</desc></wpt>
<wpt lat = "48.60183" lon = "4.74332"><name>DIG1</name><desc>run km5,1/10,2
Images:7393
First:01.01.0001 23:00:00
Last:22.06.2025 18:16:19
Duration:739422.19:16:19
</desc></wpt>
<wpt lat = "48.60181" lon = "4.74335"><name>DIG1LS2</name><desc>run km5,1/10,2
Images:2320
First:22.06.2025 09:58:49
Last:22.06.2025 18:44:29
Duration:08:45:40
</desc></wpt>
<wpt lat = "48.60181" lon = "4.74335"><name>DIG1LS1</name><desc>run km5,1/10,2
Images:1659
First:21.06.2025 14:06:28
Last:22.06.2025 17:40:47
Duration:1.03:34:19
</desc></wpt>
<wpt lat = "48.60183" lon = "4.74332"><name>DIG1DRONE1</name><desc>Swim - Impressions / Pano
Images:254
First:21.06.2025 06:48:34
Last:22.06.2025 11:51:01
Duration:1.05:02:27
</desc></wpt>
<wpt lat = "48.60289" lon = "4.74645"><name>FVOR1</name><desc>Finish
Images:2109
First:22.06.2025 09:19:11
Last:22.06.2025 18:59:27
Duration:09:40:16
</desc></wpt>
<wpt lat = "48.60289" lon = "4.74645"><name>FVOR1LS1</name><desc>Finish
Images:4798
First:22.06.2025 08:59:54
Last:22.06.2025 18:49:09
Duration:09:49:15
</desc></wpt>
</gpx>