<?xml version='1.0' encoding='utf-8'?>
<gpx version="1.1" creator="Infofile GPX Generator">
<wpt lat = "1.28814" lon = "103.85168"><name>AHTT1LS1</name><desc>Anderson Bridge - 10K-KM9.7/M-KM41.9
Images:6911
First:07.12.2025 06:56:46
Last:07.12.2025 11:17:32
Duration:04:20:46
</desc></wpt>
<wpt lat = "1.28814" lon = "103.85168"><name>AHTT2</name><desc>Anderson Bridge - 10K-KM9.7/M-KM41.9
Images:28905
First:07.12.2025 06:39:54
Last:07.12.2025 11:34:00
Duration:04:54:06
</desc></wpt>
<wpt lat = "1.28814" lon = "103.85168"><name>ARSK2</name><desc>Anderson Bridge - 10K-KM9.7/M-KM41.9
Images:16168
First:07.12.2025 08:36:24
Last:07.12.2025 11:28:52
Duration:02:52:28
</desc></wpt>
<wpt lat = "1.28691" lon = "103.85294"><name>DARM1</name><desc>Anderson Bridge - 10K-KM9.7/M-KM41.9
Images:9632
First:07.12.2025 04:16:34
Last:07.12.2025 11:27:54
Duration:07:11:20
</desc></wpt>
<wpt lat = "1.28691" lon = "103.85294"><name>DSUA1</name><desc>Anderson Bridge - 10K-KM9.7/M-KM41.9
Images:2168
First:07.12.2025 07:29:35
Last:07.12.2025 11:27:56
Duration:03:58:21
</desc></wpt>
<wpt lat = "1.28808" lon = "103.86901"><name>BLDB1</name><desc>Bay East Garden - M-KM15
Images:5491
First:07.12.2025 04:08:05
Last:07.12.2025 06:25:30
Duration:02:17:25
</desc></wpt>
<wpt lat = "1.28808" lon = "103.86901"><name>BLDB1LS1</name><desc>Bay East Garden - M-KM15
Images:779
First:07.12.2025 06:01:10
Last:07.12.2025 06:40:43
Duration:00:39:33
</desc></wpt>
<wpt lat = "1.28808" lon = "103.86901"><name>BNTA1</name><desc>Bay East Garden - M-KM15
Images:7396
First:07.12.2025 04:21:55
Last:07.12.2025 08:41:31
Duration:04:19:36
</desc></wpt>
<wpt lat = "1.28808" lon = "103.86901"><name>BNTA1LS1</name><desc>Bay East Garden - M-KM15
Images:1307
First:07.12.2025 05:58:00
Last:07.12.2025 06:42:06
Duration:00:44:06
</desc></wpt>
<wpt lat = "1.28362" lon = "103.85987"><name>EJMAO2</name><desc>Bayfront - M-KM33.7
Images:2216
First:07.12.2025 08:15:23
Last:07.12.2025 10:06:29
Duration:01:51:06
</desc></wpt>
<wpt lat = "1.28362" lon = "103.85987"><name>EVMM2</name><desc>Bayfront - M-KM33.7
Images:20791
First:07.12.2025 05:49:56
Last:07.12.2025 10:06:16
Duration:04:16:20
</desc></wpt>
<wpt lat = "1.28361" lon = "103.86244"><name>BPNQ1</name><desc>Bayfront - M/KM33.7
Images:33066
First:07.12.2025 03:59:28
Last:07.12.2025 10:20:36
Duration:06:21:08
</desc></wpt>
<wpt lat = "1.28361" lon = "103.86244"><name>BTDK1</name><desc>Bayfront - M/KM33.7
Images:15030
First:07.12.2025 03:58:21
Last:07.12.2025 10:04:30
Duration:06:06:09
</desc></wpt>
<wpt lat = "1.2845" lon = "103.85311"><name>DJOSS2</name><desc>Collyer Quay - M-KM41.7
Images:1119
First:07.12.2025 08:32:20
Last:07.12.2025 11:06:32
Duration:02:34:12
</desc></wpt>
<wpt lat = "1.2845" lon = "103.85311"><name>DWIG2</name><desc>Collyer Quay - M-KM41.7
Images:4640
First:07.12.2025 08:25:03
Last:07.12.2025 11:11:46
Duration:02:46:43
</desc></wpt>
<wpt lat = "1.2845" lon = "103.85311"><name>EPCT1</name><desc>Collyer Quay - M-KM41.7
Images:14425
First:07.12.2025 04:27:40
Last:07.12.2025 11:27:21
Duration:06:59:41
</desc></wpt>
<wpt lat = "1.2845" lon = "103.85311"><name>EPCT1LS1</name><desc>Collyer Quay - M-KM41.7
Images:4398
First:07.12.2025 05:58:47
Last:07.12.2025 09:49:24
Duration:03:50:37
</desc></wpt>
<wpt lat = "1.2845" lon = "103.85311"><name>ERDI1</name><desc>Collyer Quay - M-KM41.7
Images:5092
First:07.12.2025 04:59:09
Last:07.12.2025 11:06:58
Duration:06:07:49
</desc></wpt>
<wpt lat = "1.2845" lon = "103.85311"><name>ERDI1LS1</name><desc>Collyer Quay - M-KM41.7
Images:2624
First:07.12.2025 04:34:04
Last:07.12.2025 11:06:23
Duration:06:32:19
</desc></wpt>
<wpt lat = "1.28972" lon = "103.85327"><name>CLEHA1</name><desc>Connaught Dr - 10K-KM9.9/M-KM42
Images:19269
First:07.12.2025 05:34:53
Last:07.12.2025 11:30:56
Duration:05:56:03
</desc></wpt>
<wpt lat = "1.28972" lon = "103.85327"><name>CREC1</name><desc>Connaught Dr - 10K-KM9.9/M-KM42
Images:40422
First:07.12.2025 05:33:07
Last:07.12.2025 11:33:26
Duration:06:00:19
</desc></wpt>
<wpt lat = "1.28972" lon = "103.85327"><name>CTYO1</name><desc>Connaught Dr - 10K-KM9.9/M-KM42
Images:5268
First:07.12.2025 05:25:34
Last:07.12.2025 11:29:35
Duration:06:04:01
</desc></wpt>
<wpt lat = "1.29638" lon = "103.89841"><name>AMVV1</name><desc>East Coast Park - M-KM19.5/KM28
Images:10165
First:07.12.2025 04:06:56
Last:07.12.2025 08:52:10
Duration:04:45:14
</desc></wpt>
<wpt lat = "1.29638" lon = "103.89841"><name>AMVV1LS1</name><desc>East Coast Park - M-KM19.5/KM28
Images:5331
First:07.12.2025 03:12:13
Last:07.12.2025 09:12:52
Duration:06:00:39
</desc></wpt>
<wpt lat = "1.29638" lon = "103.89841"><name>ANTT1</name><desc>East Coast Park - M-KM19.5/KM28
Images:15098
First:07.12.2025 03:45:24
Last:07.12.2025 09:03:03
Duration:05:17:39
</desc></wpt>
<wpt lat = "1.29638" lon = "103.89841"><name>ANTT1LS1</name><desc>East Coast Park - M-KM19.5/KM28
Images:7381
First:07.12.2025 03:31:13
Last:07.12.2025 09:03:18
Duration:05:32:05
</desc></wpt>
<wpt lat = "1.29638" lon = "103.89841"><name>ECHTE2</name><desc>East Coast Park - M-KM19.5/KM28
Images:812
First:07.12.2025 08:24:52
Last:07.12.2025 09:02:49
Duration:00:37:57
</desc></wpt>
<wpt lat = "1.29993" lon = "103.90692"><name>BNP1</name><desc>East Coast Park - M-KM21/KM26
Images:15301
First:07.12.2025 04:08:16
Last:07.12.2025 08:44:08
Duration:04:35:52
</desc></wpt>
<wpt lat = "1.29993" lon = "103.90692"><name>BNP1LS1</name><desc>East Coast Park - M-KM21/KM26
Images:13195
First:07.12.2025 03:18:17
Last:07.12.2025 08:33:59
Duration:05:15:42
</desc></wpt>
<wpt lat = "1.29993" lon = "103.90692"><name>CANDR1</name><desc>East Coast Park - M-KM21/KM26
Images:8586
First:07.12.2025 04:12:50
Last:07.12.2025 09:36:57
Duration:05:24:07
</desc></wpt>
<wpt lat = "1.29993" lon = "103.90692"><name>CCAH2</name><desc>East Coast Park - M-KM21/KM26
Images:649
First:07.12.2025 08:09:07
Last:07.12.2025 08:45:07
Duration:00:36:00
</desc></wpt>
<wpt lat = "1.27912" lon = "103.86045"><name>EVMM1</name><desc>Ekiden Changeover Zone 1 - M-KM11.5
Images:1940
First:07.12.2025 03:13:06
Last:07.12.2025 05:41:12
Duration:02:28:06
</desc></wpt>
<wpt lat = "1.30801" lon = "103.93005"><name>CCAH1</name><desc>Ekiden Changeover Zone 2 - M-KM24
Images:1031
First:07.12.2025 04:42:22
Last:07.12.2025 07:03:38
Duration:02:21:16
</desc></wpt>
<wpt lat = "1.288" lon = "103.85419"><name>DJOSS1</name><desc>Esplanade Dr - 10K-KM8.2/M-KM9.4
Images:2254
First:07.12.2025 03:02:51
Last:07.12.2025 08:28:43
Duration:05:25:52
</desc></wpt>
<wpt lat = "1.288" lon = "103.85419"><name>DVLA1</name><desc>Esplanade Dr - 10K-KM8.2/M-KM9.4
Images:7385
First:07.12.2025 02:56:36
Last:07.12.2025 08:13:48
Duration:05:17:12
</desc></wpt>
<wpt lat = "1.288" lon = "103.85419"><name>DWIG1</name><desc>Esplanade Dr - 10K-KM8.2/M-KM9.4
Images:9826
First:07.12.2025 02:53:19
Last:07.12.2025 08:12:39
Duration:05:19:20
</desc></wpt>
<wpt lat = "1.28989" lon = "103.85298"><name>AGIP1</name><desc>Finish
Images:30
First:07.12.2025 09:51:41
Last:07.12.2025 09:53:47
Duration:00:02:06
</desc></wpt>
<wpt lat = "1.28989" lon = "103.85298"><name>AGIP1DRONE2</name><desc>Finish
Images:19
First:07.12.2025 08:18:35
Last:07.12.2025 08:49:43
Duration:00:31:08
</desc></wpt>
<wpt lat = "1.28989" lon = "103.85298"><name>AGIP1LS1</name><desc>Finish
Images:3031
First:07.12.2025 05:52:26
Last:07.12.2025 08:57:37
Duration:03:05:11
</desc></wpt>
<wpt lat = "1.28989" lon = "103.85298"><name>AGIP1LS2</name><desc>Finish
Images:6020
First:07.12.2025 05:25:47
Last:07.12.2025 11:42:24
Duration:06:16:37
</desc></wpt>
<wpt lat = "1.28989" lon = "103.85298"><name>ARYH2</name><desc>Finish
Images:1021
First:07.12.2025 09:18:16
Last:07.12.2025 11:23:17
Duration:02:05:01
</desc></wpt>
<wpt lat = "1.28989" lon = "103.85298"><name>ARYT2</name><desc>Finish
Images:2115
First:07.12.2025 09:46:37
Last:07.12.2025 11:23:24
Duration:01:36:47
</desc></wpt>
<wpt lat = "1.29059" lon = "103.85252"><name>BBXC2</name><desc>Finish
Images:18212
First:07.12.2025 08:51:36
Last:07.12.2025 11:42:22
Duration:02:50:46
</desc></wpt>
<wpt lat = "1.29059" lon = "103.85252"><name>BLDB2</name><desc>Finish
Images:7930
First:07.12.2025 08:21:33
Last:07.12.2025 10:28:48
Duration:02:07:15
</desc></wpt>
<wpt lat = "1.29059" lon = "103.85252"><name>BLVM1</name><desc>Finish
Images:17566
First:07.12.2025 05:35:37
Last:07.12.2025 11:38:45
Duration:06:03:08
</desc></wpt>
<wpt lat = "1.29059" lon = "103.85252"><name>BNNG1</name><desc>Finish
Images:9051
First:07.12.2025 05:31:13
Last:07.12.2025 08:57:04
Duration:03:25:51
</desc></wpt>
<wpt lat = "1.29059" lon = "103.85252"><name>BNNG1LS1</name><desc>Finish
Images:8870
First:07.12.2025 05:15:24
Last:07.12.2025 11:39:11
Duration:06:23:47
</desc></wpt>
<wpt lat = "1.29059" lon = "103.85252"><name>BNNG1LS2</name><desc>Finish
Images:5682
First:07.12.2025 05:00:26
Last:07.12.2025 11:39:03
Duration:06:38:37
</desc></wpt>
<wpt lat = "1.29059" lon = "103.85252"><name>BNTA2</name><desc>Finish
Images:6006
First:07.12.2025 08:44:47
Last:07.12.2025 09:52:35
Duration:01:07:48
</desc></wpt>
<wpt lat = "1.29059" lon = "103.85252"><name>BTDB1</name><desc>Finish
Images:16443
First:07.12.2025 04:48:46
Last:07.12.2025 10:14:58
Duration:05:26:12
</desc></wpt>
<wpt lat = "1.29059" lon = "103.85252"><name>BTDB1LS1</name><desc>Finish
Images:13175
First:07.12.2025 06:05:35
Last:07.12.2025 11:43:03
Duration:05:37:28
</desc></wpt>
<wpt lat = "1.29059" lon = "103.85252"><name>BTNA2</name><desc>Finish
Images:6285
First:07.12.2025 08:48:45
Last:07.12.2025 11:11:41
Duration:02:22:56
</desc></wpt>
<wpt lat = "1.29004" lon = "103.85185"><name>CLEM1</name><desc>Finish
Images:16017
First:07.12.2025 05:34:13
Last:07.12.2025 11:38:41
Duration:06:04:28
</desc></wpt>
<wpt lat = "1.29004" lon = "103.85185"><name>CLEM1LS1</name><desc>Finish
Images:5971
First:07.12.2025 05:04:20
Last:07.12.2025 11:20:27
Duration:06:16:07
</desc></wpt>
<wpt lat = "1.29004" lon = "103.85185"><name>CLEM1LS2</name><desc>Finish
Images:5942
First:07.12.2025 07:00:40
Last:07.12.2025 11:20:27
Duration:04:19:47
</desc></wpt>
<wpt lat = "1.29004" lon = "103.85185"><name>CMLWH1</name><desc>Finish
Images:7877
First:07.12.2025 05:08:26
Last:07.12.2025 11:01:46
Duration:05:53:20
</desc></wpt>
<wpt lat = "1.29004" lon = "103.85185"><name>CVW1</name><desc>Finish
Images:10520
First:07.12.2025 05:35:40
Last:07.12.2025 11:38:24
Duration:06:02:44
</desc></wpt>
<wpt lat = "1.28995" lon = "103.85222"><name>DBIC1LS1</name><desc>Finish
Images:4151
First:07.12.2025 06:02:42
Last:07.12.2025 11:20:27
Duration:05:17:45
</desc></wpt>
<wpt lat = "1.28995" lon = "103.85222"><name>DJBR1</name><desc>Finish
Images:15204
First:07.12.2025 05:35:43
Last:07.12.2025 11:38:51
Duration:06:03:08
</desc></wpt>
<wpt lat = "1.28525" lon = "103.86358"><name>EDCL1</name><desc>Flower Dome - M-KM13/KM33
Images:19531
First:07.12.2025 04:01:06
Last:07.12.2025 12:01:29
Duration:08:00:23
</desc></wpt>
<wpt lat = "1.28525" lon = "103.86358"><name>EDCL1LS1</name><desc>Flower Dome - M-KM13/KM33
Images:9058
First:07.12.2025 06:18:14
Last:07.12.2025 12:39:37
Duration:06:21:23
</desc></wpt>
<wpt lat = "1.28525" lon = "103.86358"><name>EOCH1</name><desc>Flower Dome - M-KM13/KM33
Images:11075
First:07.12.2025 03:50:53
Last:07.12.2025 11:36:07
Duration:07:45:14
</desc></wpt>
<wpt lat = "1.28525" lon = "103.86358"><name>EOCH1LS1</name><desc>Flower Dome - M-KM13/KM33
Images:8775
First:07.12.2025 03:18:16
Last:07.12.2025 06:33:49
Duration:03:15:33
</desc></wpt>
<wpt lat = "1.28525" lon = "103.86358"><name>EOCH1LS2</name><desc>Flower Dome - M-KM13/KM33
Images:5768
First:07.12.2025 06:34:00
Last:07.12.2025 10:03:56
Duration:03:29:56
</desc></wpt>
<wpt lat = "1.28083" lon = "103.84988"><name>DBUP1</name><desc>Lau Pa Sat - M-KM36/KM41
Images:9653
First:07.12.2025 05:10:08
Last:07.12.2025 11:27:14
Duration:06:17:06
</desc></wpt>
<wpt lat = "1.28083" lon = "103.84988"><name>DYR1</name><desc>Lau Pa Sat - M-KM36/KM41
Images:8914
First:07.12.2025 05:31:23
Last:07.12.2025 11:27:54
Duration:05:56:31
</desc></wpt>
<wpt lat = "1.28083" lon = "103.84988"><name>ELMD2</name><desc>Lau Pa Sat - M-KM36/KM41
Images:9018
First:07.12.2025 06:32:38
Last:07.12.2025 11:27:55
Duration:04:55:17
</desc></wpt>
<wpt lat = "1.28083" lon = "103.84988"><name>ERPB2</name><desc>Lau Pa Sat - M-KM36/KM41
Images:10024
First:07.12.2025 06:35:08
Last:07.12.2025 11:27:41
Duration:04:52:33
</desc></wpt>
<wpt lat = "1.2816" lon = "103.87024"><name>DMFAZ1</name><desc>Marina Barrage Dam - M-KM32
Images:18293
First:07.12.2025 03:48:54
Last:07.12.2025 10:34:14
Duration:06:45:20
</desc></wpt>
<wpt lat = "1.2816" lon = "103.87024"><name>DPZIE1</name><desc>Marina Barrage Dam - M-KM32
Images:13767
First:07.12.2025 04:48:45
Last:07.12.2025 10:26:52
Duration:05:38:07
</desc></wpt>
<wpt lat = "1.28989" lon = "103.85298"><name>ABB1</name><desc>Medals
Images:7782
First:07.12.2025 05:05:09
Last:07.12.2025 10:31:34
Duration:05:26:25
</desc></wpt>
<wpt lat = "1.28989" lon = "103.85298"><name>AKIK2</name><desc>Medals
Images:2531
First:06.12.2025 09:03:19
Last:06.12.2025 11:29:35
Duration:02:26:16
</desc></wpt>
<wpt lat = "1.28989" lon = "103.85298"><name>AKTA1</name><desc>Medals
Images:3674
First:07.12.2025 06:08:33
Last:07.12.2025 11:31:16
Duration:05:22:43
</desc></wpt>
<wpt lat = "1.28989" lon = "103.85298"><name>AYH2</name><desc>Medals
Images:965
First:07.12.2025 09:03:23
Last:07.12.2025 11:39:29
Duration:02:36:06
</desc></wpt>
<wpt lat = "1.29004" lon = "103.85185"><name>CBRPE1</name><desc>Medals
Images:2167
First:07.12.2025 06:08:29
Last:07.12.2025 10:26:30
Duration:04:18:01
</desc></wpt>
<wpt lat = "1.29004" lon = "103.85185"><name>CCAH3</name><desc>Medals
Images:93
First:07.12.2025 10:32:38
Last:07.12.2025 10:45:15
Duration:00:12:37
</desc></wpt>
<wpt lat = "1.29004" lon = "103.85185"><name>CROH1</name><desc>Medals
Images:10419
First:07.12.2025 05:12:15
Last:07.12.2025 11:39:39
Duration:06:27:24
</desc></wpt>
<wpt lat = "1.28995" lon = "103.85222"><name>DBIC1</name><desc>Medals
Images:6263
First:07.12.2025 05:47:26
Last:07.12.2025 09:58:20
Duration:04:10:54
</desc></wpt>
<wpt lat = "1.28995" lon = "103.85222"><name>DVLA2</name><desc>Medals
Images:2405
First:07.12.2025 08:33:45
Last:07.12.2025 11:41:28
Duration:03:07:43
</desc></wpt>
<wpt lat = "1.29026" lon = "103.84993"><name>ECAA2</name><desc>Medals
Images:924
First:07.12.2025 10:27:40
Last:07.12.2025 11:28:18
Duration:01:00:38
</desc></wpt>
<wpt lat = "1.30427" lon = "103.86855"><name>BBXC1</name><desc>Merdeka Bridge - 10K-KM5.5/M-KM7
Images:29538
First:07.12.2025 03:18:20
Last:07.12.2025 07:23:19
Duration:04:04:59
</desc></wpt>
<wpt lat = "1.30427" lon = "103.86855"><name>BTNA1</name><desc>Merdeka Bridge - 10K-KM5.5/M-KM7
Images:22000
First:07.12.2025 03:29:18
Last:07.12.2025 07:32:11
Duration:04:02:53
</desc></wpt>
<wpt lat = "1.30708" lon = "103.88"><name>ELMD1</name><desc>Mountbatten Rd - M-KM5.5
Images:3654
First:07.12.2025 03:29:42
Last:07.12.2025 05:04:53
Duration:01:35:11
</desc></wpt>
<wpt lat = "1.30708" lon = "103.88"><name>ERPB1</name><desc>Mountbatten Rd - M-KM5.5
Images:3253
First:07.12.2025 03:36:56
Last:07.12.2025 05:04:53
Duration:01:27:57
</desc></wpt>
<wpt lat = "1.30057" lon = "103.86061"><name>ARSK1</name><desc>Nicoll Hwy Station - 10K-KM7.3/M-KM8.5
Images:8561
First:07.12.2025 03:29:05
Last:07.12.2025 07:51:05
Duration:04:22:00
</desc></wpt>
<wpt lat = "1.30057" lon = "103.86061"><name>ARYH1</name><desc>Nicoll Hwy Station - 10K-KM7.3/M-KM8.5
Images:6522
First:07.12.2025 03:44:05
Last:07.12.2025 07:51:53
Duration:04:07:48
</desc></wpt>
<wpt lat = "1.30057" lon = "103.86061"><name>ARYT1</name><desc>Nicoll Hwy Station - 10K-KM7.3/M-KM8.5
Images:12839
First:07.12.2025 03:49:22
Last:07.12.2025 09:46:36
Duration:05:57:14
</desc></wpt>
<wpt lat = "1.30341" lon = "103.86680"><name>ECAA1</name><desc>Republic Ave - 10K/M-KM1.5
Images:3195
First:07.12.2025 02:49:02
Last:07.12.2025 06:40:18
Duration:03:51:16
</desc></wpt>
<wpt lat = "1.30341" lon = "103.86680"><name>ECHTE1</name><desc>Republic Ave - 10K/M-KM1.5
Images:4558
First:07.12.2025 03:28:40
Last:07.12.2025 06:39:19
Duration:03:10:39
</desc></wpt>
<wpt lat = "1.30341" lon = "103.86680"><name>EJMAO1</name><desc>Republic Ave - 10K/M-KM1.5
Images:4947
First:07.12.2025 02:52:54
Last:07.12.2025 08:13:57
Duration:05:21:03
</desc></wpt>
<wpt lat = "1.30341" lon = "103.86680"><name>EJMAO1LS1</name><desc>Republic Ave - 10K/M-KM1.5
Images:1032
First:07.12.2025 03:32:44
Last:07.12.2025 06:16:04
Duration:02:43:20
</desc></wpt>
<wpt lat = "1.29243" lon = "103.86399"><name>AHTT1</name><desc>Start
Images:5363
First:07.12.2025 02:56:39
Last:07.12.2025 06:19:35
Duration:03:22:56
</desc></wpt>
<wpt lat = "1.29291" lon = "103.85329"><name>AKIK1</name><desc>Suntec City - 10K-KM7.7/M-KM8.9
Images:4853
First:06.12.2025 03:47:58
Last:06.12.2025 08:06:50
Duration:04:18:52
</desc></wpt>
<wpt lat = "1.29291" lon = "103.85329"><name>AYH1</name><desc>Suntec City - 10K-KM7.7/M-KM8.9
Images:5981
First:07.12.2025 03:27:38
Last:07.12.2025 07:54:53
Duration:04:27:15
</desc></wpt>
</gpx>