<?xml version='1.0' encoding='utf-8'?>
<gpx version="1.1" creator="Infofile GPX Generator">
<wpt lat = "43.42653" lon = "6.81533"><name>GAT1</name><desc>Obstacle 2 Barber Wire Beast / Sprint
Images:8396
First:04.10.2025 07:02:44
Last:04.10.2025 13:30:24
Duration:06:27:40
</desc></wpt>
<wpt lat = "43.42653" lon = "6.81533"><name>FRN1LS1</name><desc>Obstacle 12 Chain Carry / Beast
Images:861
First:04.10.2025 08:41:53
Last:04.10.2025 11:34:18
Duration:02:52:25
</desc></wpt>
<wpt lat = "43.42653" lon = "6.81533"><name>FRN1</name><desc>Obstacle 12 Chain Carry / Beast
Images:621
First:04.10.2025 08:34:33
Last:04.10.2025 10:44:15
Duration:02:09:42
</desc></wpt>
<wpt lat = "43.42653" lon = "6.81533"><name>FRN1DRONE1</name><desc>Impressions / Pano
Images:51
First:04.10.2025 09:32:23
Last:05.10.2025 14:15:48
Duration:1.04:43:25
</desc></wpt>
<wpt lat = "43.42653" lon = "6.81533"><name>HUM1</name><desc>Obstacle 13 Armer / Beast
Images:2894
First:04.10.2025 08:21:39
Last:05.10.2025 08:33:20
Duration:1.00:11:41
</desc></wpt>
<wpt lat = "43.42653" lon = "6.81533"><name>FRN2</name><desc>Obstacle 13 Armer / Beast
Images:687
First:04.10.2025 10:54:35
Last:04.10.2025 14:47:07
Duration:03:52:32
</desc></wpt>
<wpt lat = "43.42752" lon = "6.81572"><name>DIBO1</name><desc>Obstacle 14 Tilting Ladder / BEAST
Images:5488
First:04.10.2025 09:04:28
Last:04.10.2025 11:33:13
Duration:02:28:45
</desc></wpt>
<wpt lat = "43.42561" lon = "6.85615"><name>DIBO2</name><desc>Obstacle 23 Bucket CArry Beast / Sprint
Images:4105
First:04.10.2025 12:17:13
Last:04.10.2025 15:34:47
Duration:03:17:34
</desc></wpt>
<wpt lat = "43.42005" lon = "6.85515"><name>LELBE1</name><desc>Obstacle 24 Atlas CArry Beast / Sprint
Images:3870
First:04.10.2025 07:46:08
Last:04.10.2025 15:45:28
Duration:07:59:20
</desc></wpt>
<wpt lat = "43.42005" lon = "6.85515"><name>HUM2</name><desc>Obstacle 24 Atlas CArry Beast / Sprint
Images:893
First:04.10.2025 12:31:33
Last:04.10.2025 14:33:08
Duration:02:01:35
</desc></wpt>
<wpt lat = "43.42005" lon = "6.85515"><name>DART1</name><desc>Obstacle 26 Dunk Wall  Beast / Sprint
Images:13944
First:04.10.2025 07:03:00
Last:04.10.2025 15:50:17
Duration:08:47:17
</desc></wpt>
<wpt lat = "43.41573" lon = "6.84551"><name>GAT2</name><desc>Obstacle 28 Water Traverse 2 Beast /Sprint
Images:1360
First:04.10.2025 14:08:44
Last:04.10.2025 16:22:51
Duration:02:14:07
</desc></wpt>
<wpt lat = "43.41573" lon = "6.84551"><name>GAT1LS1</name><desc>Run Before OB 29 Slip Wall Best / Sprint
Images:3668
First:04.10.2025 10:28:09
Last:04.10.2025 16:29:18
Duration:06:01:09
</desc></wpt>
<wpt lat = "43.41712" lon = "6.84535"><name>ALL1</name><desc>Finish
Images:4803
First:04.10.2025 09:39:24
Last:05.10.2025 07:44:46
Duration:22:05:22
</desc></wpt>
<wpt lat = "43.41712" lon = "6.84535"><name>ALL1LS1</name><desc>Finish
Images:2462
First:04.10.2025 07:43:44
Last:04.10.2025 16:44:26
Duration:09:00:42
</desc></wpt>
<wpt lat = "43.41712" lon = "6.84535"><name>CC1</name><desc>Herotent
Images:2970
First:04.10.2025 10:08:05
Last:04.10.2025 16:52:23
Duration:06:44:18
</desc></wpt>
</gpx>