<?xml version='1.0' encoding='utf-8'?>
<gpx version="1.1" creator="Infofile GPX Generator">
<wpt lat = "46.06539" lon = "7.07516"><name>MHO1</name><desc>Technical Downhill KM15.5
Images:4736
First:28.08.2025 11:21:53
Last:28.08.2025 15:44:50
Duration:04:22:57
</desc></wpt>
<wpt lat = "46.06539" lon = "7.07516"><name>MHO1LS1</name><desc>Technical Downhill KM15.5
Images:1597
First:28.08.2025 10:49:56
Last:28.08.2025 14:00:55
Duration:03:10:59
</desc></wpt>
<wpt lat = "46.08410" lon = "7.04609"><name>RSJ1</name><desc>View of Martigny
Images:5539
First:28.08.2025 10:27:15
Last:28.08.2025 16:04:57
Duration:05:37:42
</desc></wpt>
<wpt lat = "46.08410" lon = "7.04609"><name>RSJ1LS1</name><desc>View of Martigny
Images:1501
First:28.08.2025 11:00:22
Last:28.08.2025 16:04:01
Duration:05:03:39
</desc></wpt>
<wpt lat = "46.05683" lon = "7.00151"><name>PKA1</name><desc>Col de la Forclaz
Images:2865
First:28.08.2025 12:03:41
Last:28.08.2025 18:16:34
Duration:06:12:53
</desc></wpt>
<wpt lat = "46.05683" lon = "7.00151"><name>PKA1LS1</name><desc>Col de la Forclaz
Images:2526
First:28.08.2025 11:58:30
Last:28.08.2025 17:12:13
Duration:05:13:43
</desc></wpt>
<wpt lat = "46.02884" lon = "6.97633"><name>ALL1</name><desc>Before Col de Balme KM36,8
Images:4887
First:28.08.2025 13:04:19
Last:28.08.2025 19:55:40
Duration:06:51:21
</desc></wpt>
<wpt lat = "46.02884" lon = "6.97633"><name>ALL1LS1</name><desc>Before Col de Balme KM36,8
Images:2851
First:28.08.2025 13:29:50
Last:28.08.2025 19:51:43
Duration:06:21:53
</desc></wpt>
<wpt lat = "46.02730" lon = "6.97068"><name>CHR1</name><desc>Before Col de Balme KM37.4
Images:5172
First:28.08.2025 13:07:03
Last:28.08.2025 20:09:12
Duration:07:02:09
</desc></wpt>
<wpt lat = "46.02730" lon = "6.97068"><name>CHR1LS1</name><desc>Before Col de Balme KM37.4
Images:2479
First:28.08.2025 13:26:13
Last:28.08.2025 19:21:33
Duration:05:55:20
</desc></wpt>
<wpt lat = "46.02730" lon = "6.97068"><name>CHR1DRONE1</name><desc>Before Col de Balme KM37.4
Images:16
First:28.08.2025 15:43:27
Last:28.08.2025 15:52:14
Duration:00:08:47
</desc></wpt>
<wpt lat = "46.01412" lon = "6.94099"><name>EP1</name><desc>After Col de Balme KM41.5
Images:6167
First:28.08.2025 14:09:01
Last:28.08.2025 20:53:31
Duration:06:44:30
</desc></wpt>
<wpt lat = "46.01412" lon = "6.94099"><name>EP1LS1</name><desc>After Col de Balme KM41.5
Images:2237
First:28.08.2025 13:46:40
Last:28.08.2025 20:11:45
Duration:06:25:05
</desc></wpt>
<wpt lat = "46.00558" lon = "6.94511"><name>COR1</name><desc>Downhill Le Tour KM44
Images:1001
First:28.08.2025 14:06:18
Last:28.08.2025 16:33:42
Duration:02:27:24
</desc></wpt>
<wpt lat = "46.00558" lon = "6.94511"><name>COR1LS1</name><desc>Downhill Le Tour KM44
Images:268
First:28.08.2025 14:54:11
Last:28.08.2025 16:37:30
Duration:01:43:19
</desc></wpt>
<wpt lat = "46.00566" lon = "6.94766"><name>COR2</name><desc>Downhill Le Tour KM44.5
Images:2285
First:28.08.2025 16:42:48
Last:28.08.2025 19:54:07
Duration:03:11:19
</desc></wpt>
<wpt lat = "46.00566" lon = "6.94766"><name>COR2LS1</name><desc>Downhill Le Tour KM44.5
Images:296
First:28.08.2025 16:38:36
Last:28.08.2025 17:52:51
Duration:01:14:15
</desc></wpt>
<wpt lat = "45.92362" lon = "6.86880"><name>NJO1</name><desc>Finish
Images:5748
First:28.08.2025 15:07:13
Last:29.08.2025 01:15:43
Duration:10:08:30
</desc></wpt>
<wpt lat = "45.92362" lon = "6.86880"><name>NJO1LS1</name><desc>Finish
Images:4140
First:28.08.2025 16:50:35
Last:29.08.2025 01:09:39
Duration:08:19:04
</desc></wpt>
</gpx>