<?xml version='1.0' encoding='utf-8'?>
<gpx version="1.1" creator="Infofile GPX Generator">
<wpt lat = "50.71716" lon = "6.14901"><name>JKE1</name><desc>Start
Images:1258
First:31.05.2025 21:27:51
Last:01.06.2025 10:49:00
Duration:13:21:09
</desc></wpt>
<wpt lat = "50.71716" lon = "6.14901"><name>JKE3</name><desc>Impressions / Pano
Images:7
First:01.06.2025 07:44:00
Last:01.06.2025 08:32:27
Duration:00:48:27
</desc></wpt>
<wpt lat = "50.74300" lon = "6.11945"><name>ALN1</name><desc>12,5km before finish
Images:1291
First:31.05.2025 09:07:19
Last:01.06.2025 15:26:39
Duration:1.06:19:20
</desc></wpt>
<wpt lat = "50.74300" lon = "6.11945"><name>ALN1LS1</name><desc>12,5km before finish
Images:336
First:01.06.2025 09:53:32
Last:01.06.2025 15:27:44
Duration:05:34:12
</desc></wpt>
<wpt lat = "50.74300" lon = "6.11945"><name>ALN1LS2</name><desc>12,5km before finish
Images:412
First:01.06.2025 09:25:29
Last:01.06.2025 15:27:52
Duration:06:02:23
</desc></wpt>
<wpt lat = "50.74207" lon = "6.15116"><name>NWO1</name><desc>8km before finish
Images:662
First:01.06.2025 09:57:00
Last:01.06.2025 15:17:46
Duration:05:20:46
</desc></wpt>
<wpt lat = "50.74207" lon = "6.15116"><name>NWO1LS1</name><desc>8km before finish
Images:415
First:01.06.2025 09:44:15
Last:01.06.2025 15:07:55
Duration:05:23:40
</desc></wpt>
<wpt lat = "50.74207" lon = "6.15116"><name>NWO1LS2</name><desc>8km before finish
Images:299
First:01.06.2025 09:46:48
Last:01.06.2025 14:09:40
Duration:04:22:52
</desc></wpt>
<wpt lat = "50.73767" lon = "6.15684"><name>TOG1</name><desc>5km before finish
Images:1056
First:31.05.2025 11:26:24
Last:01.06.2025 15:34:01
Duration:1.04:07:37
</desc></wpt>
<wpt lat = "50.73767" lon = "6.15684"><name>TOG1LS1</name><desc>5km before finish
Images:219
First:01.06.2025 09:36:15
Last:01.06.2025 15:29:16
Duration:05:53:01
</desc></wpt>
<wpt lat = "50.73767" lon = "6.15684"><name>TOG1LS2</name><desc>5km before finish
Images:215
First:01.06.2025 09:39:45
Last:01.06.2025 15:33:59
Duration:05:54:14
</desc></wpt>
<wpt lat = "50.71662" lon = "6.14584"><name>JKE2</name><desc>0.3km before finish
Images:1430
First:01.06.2025 11:09:19
Last:01.06.2025 16:34:05
Duration:05:24:46
</desc></wpt>
<wpt lat = "50.71662" lon = "6.14584"><name>JKE2LS1</name><desc>0.3km before finish
Images:332
First:01.06.2025 11:23:15
Last:01.06.2025 16:35:00
Duration:05:11:45
</desc></wpt>
<wpt lat = "50.71662" lon = "6.14584"><name>JKE2LS2</name><desc>0.3km before finish
Images:318
First:01.06.2025 11:32:46
Last:01.06.2025 16:34:06
Duration:05:01:20
</desc></wpt>
</gpx>