<?xml version='1.0' encoding='utf-8'?>
<gpx version="1.1" creator="Infofile GPX Generator">
<wpt lat = "50.14353" lon = "5.65969"><name>MW1</name><desc>0,3 km
Images:4091
First:10.08.2025 08:00:16
Last:10.08.2025 12:10:12
Duration:04:09:56
</desc></wpt>
<wpt lat = "50.14353" lon = "5.65969"><name>MW1LS1</name><desc>0,3 km
Images:793
First:10.08.2025 07:46:33
Last:10.08.2025 12:12:45
Duration:04:26:12
</desc></wpt>
<wpt lat = "50.14353" lon = "5.65969"><name>MW1LS2</name><desc>0,3 km
Images:784
First:10.08.2025 07:44:09
Last:10.08.2025 12:12:43
Duration:04:28:34
</desc></wpt>
<wpt lat = "50.13877" lon = "5.65874"><name>TOBB1</name><desc>1,5 km
Images:4989
First:09.08.2025 09:59:00
Last:10.08.2025 12:17:12
Duration:1.02:18:12
</desc></wpt>
<wpt lat = "50.13877" lon = "5.65874"><name>TOBB1DRONE1</name><desc>1,5 km
Images:44
First:09.08.2025 12:28:12
Last:10.08.2025 13:35:53
Duration:1.01:07:41
</desc></wpt>
<wpt lat = "50.13877" lon = "5.65874"><name>TOBB1LS1</name><desc>1,5 km
Images:2115
First:10.08.2025 07:25:59
Last:10.08.2025 12:19:31
Duration:04:53:32
</desc></wpt>
<wpt lat = "50.13877" lon = "5.65874"><name>TOBB1LS2</name><desc>1,5 km
Images:1152
First:09.08.2025 08:59:14
Last:10.08.2025 12:22:41
Duration:1.03:23:27
</desc></wpt>
<wpt lat = "50.13925" lon = "5.66114"><name>ALN1</name><desc>2,3 km
Images:4073
First:10.08.2025 08:05:02
Last:10.08.2025 12:19:10
Duration:04:14:08
</desc></wpt>
<wpt lat = "50.13925" lon = "5.66114"><name>ALN1LS1</name><desc>2,3 km
Images:1122
First:10.08.2025 07:41:00
Last:10.08.2025 12:23:08
Duration:04:42:08
</desc></wpt>
<wpt lat = "50.13925" lon = "5.66114"><name>ALN1LS2</name><desc>2,3 km
Images:1064
First:10.08.2025 07:42:48
Last:10.08.2025 12:24:24
Duration:04:41:36
</desc></wpt>
<wpt lat = "50.14395" lon = "5.66864"><name>MBEN1</name><desc>3,0 km
Images:2604
First:10.08.2025 08:13:06
Last:10.08.2025 10:47:37
Duration:02:34:31
</desc></wpt>
<wpt lat = "50.14395" lon = "5.66864"><name>MBEN1LS1</name><desc>3,0 km
Images:617
First:10.08.2025 07:47:33
Last:10.08.2025 10:47:53
Duration:03:00:20
</desc></wpt>
<wpt lat = "50.14979" lon = "5.66432"><name>SSW1</name><desc>8,2 km /6,8km/-
Images:2187
First:09.08.2025 06:43:52
Last:10.08.2025 12:47:16
Duration:1.06:03:24
</desc></wpt>
<wpt lat = "50.14979" lon = "5.66432"><name>SSW1LS1</name><desc>8,2 km /6,8km/-
Images:1065
First:10.08.2025 07:37:26
Last:10.08.2025 11:21:39
Duration:03:44:13
</desc></wpt>
<wpt lat = "50.14979" lon = "5.66432"><name>SSW1LS2</name><desc>8,2 km /6,8km/-
Images:1721
First:10.08.2025 08:08:03
Last:10.08.2025 11:18:32
Duration:03:10:29
</desc></wpt>
<wpt lat = "50.15515" lon = "5.66105"><name>MBEN2</name><desc>2,5 km before finish
Images:4802
First:10.08.2025 11:57:16
Last:10.08.2025 15:13:57
Duration:03:16:41
</desc></wpt>
<wpt lat = "50.15515" lon = "5.66105"><name>MBEN2LS1</name><desc>2,5 km before finish
Images:1521
First:31.12.2013 23:00:45
Last:10.08.2025 15:09:11
Duration:4239.16:08:26
</desc></wpt>
<wpt lat = "50.15494" lon = "5.66122"><name>SSW2</name><desc>2,3 km before finish
Images:3798
First:09.08.2025 09:33:42
Last:10.08.2025 14:56:24
Duration:1.05:22:42
</desc></wpt>
<wpt lat = "50.15494" lon = "5.66122"><name>SSW2LS1</name><desc>2,3 km before finish
Images:2688
First:09.08.2025 07:39:54
Last:10.08.2025 15:08:06
Duration:1.07:28:12
</desc></wpt>
<wpt lat = "50.14798" lon = "5.66247"><name>ALN2</name><desc>0,6 km before finish
Images:5540
First:10.08.2025 13:06:27
Last:10.08.2025 15:50:53
Duration:02:44:26
</desc></wpt>
<wpt lat = "50.14798" lon = "5.66247"><name>ALN2LS1</name><desc>0,6 km before finish
Images:1348
First:10.08.2025 12:57:24
Last:10.08.2025 15:31:52
Duration:02:34:28
</desc></wpt>
<wpt lat = "50.14798" lon = "5.66247"><name>ALN2LS2</name><desc>0,6 km before finish
Images:1271
First:10.08.2025 12:55:01
Last:10.08.2025 15:30:04
Duration:02:35:03
</desc></wpt>
<wpt lat = "50.14714" lon = "5.66282"><name>TOBB2</name><desc>0,3 km before finish
Images:2674
First:10.08.2025 12:46:58
Last:10.08.2025 15:32:57
Duration:02:45:59
</desc></wpt>
<wpt lat = "50.14714" lon = "5.66282"><name>TOBB2LS1</name><desc>0,3 km before finish
Images:2026
First:10.08.2025 12:55:12
Last:10.08.2025 15:45:46
Duration:02:50:34
</desc></wpt>
<wpt lat = "50.14714" lon = "5.66282"><name>TOBB2LS2</name><desc>0,3 km before finish
Images:973
First:09.08.2025 11:09:48
Last:10.08.2025 15:51:23
Duration:1.04:41:35
</desc></wpt>
<wpt lat = "50.14583" lon = "5.66289"><name>MW2</name><desc>Finish
Images:5555
First:10.08.2025 12:27:30
Last:10.08.2025 16:12:19
Duration:03:44:49
</desc></wpt>
<wpt lat = "50.14583" lon = "5.66289"><name>MW2LS1</name><desc>Finish
Images:925
First:10.08.2025 12:27:36
Last:10.08.2025 16:10:31
Duration:03:42:55
</desc></wpt>
<wpt lat = "50.14583" lon = "5.66289"><name>MW2LS2</name><desc>Finish
Images:741
First:09.08.2025 12:07:19
Last:10.08.2025 16:01:56
Duration:1.03:54:37
</desc></wpt>
</gpx>