<?xml version='1.0' encoding='utf-8'?>
<gpx version="1.1" creator="Infofile GPX Generator">
<wpt lat = "48.01663" lon = "8.53095"><name>JNK1</name><desc>Start
Images:313
First:06.09.2025 11:29:06
Last:06.09.2025 13:18:50
Duration:01:49:44
</desc></wpt>
<wpt lat = "47.98977" lon = "8.62548"><name>BECK1</name><desc>8,1 km
Images:957
First:06.09.2025 12:13:26
Last:06.09.2025 12:45:11
Duration:00:31:45
</desc></wpt>
<wpt lat = "47.98977" lon = "8.62548"><name>BECK1LS1</name><desc>8,1 km
Images:245
First:06.09.2025 11:27:09
Last:06.09.2025 12:22:40
Duration:00:55:31
</desc></wpt>
<wpt lat = "47.99962" lon = "8.64291"><name>TE1DRONE1</name><desc>11,2 km
Images:16
First:06.09.2025 11:27:51
Last:06.09.2025 13:38:44
Duration:02:10:53
</desc></wpt>
<wpt lat = "47.99962" lon = "8.64291"><name>TE1</name><desc>11,2 km
Images:931
First:06.09.2025 11:55:23
Last:06.09.2025 12:31:34
Duration:00:36:11
</desc></wpt>
<wpt lat = "47.99962" lon = "8.64291"><name>TE1LS1</name><desc>11,2 km
Images:299
First:06.09.2025 11:50:47
Last:06.09.2025 12:33:44
Duration:00:42:57
</desc></wpt>
<wpt lat = "47.99962" lon = "8.64291"><name>TE1LS2</name><desc>11,2 km
Images:513
First:06.09.2025 11:52:19
Last:06.09.2025 12:31:27
Duration:00:39:08
</desc></wpt>
<wpt lat = "47.99421" lon = "8.63618"><name>BECK2</name><desc>80,0 km
Images:1438
First:06.09.2025 13:36:28
Last:06.09.2025 15:15:54
Duration:01:39:26
</desc></wpt>
<wpt lat = "47.99421" lon = "8.63618"><name>BECK2LS1</name><desc>80,0 km
Images:1117
First:06.09.2025 13:47:55
Last:06.09.2025 15:16:19
Duration:01:28:24
</desc></wpt>
<wpt lat = "48.01245" lon = "8.65198"><name>TE2</name><desc>83,0 km
Images:1827
First:06.09.2025 13:58:10
Last:06.09.2025 15:24:05
Duration:01:25:55
</desc></wpt>
<wpt lat = "48.01245" lon = "8.65198"><name>TE2LS1</name><desc>83,0 km
Images:323
First:06.09.2025 13:45:12
Last:06.09.2025 14:33:15
Duration:00:48:03
</desc></wpt>
<wpt lat = "48.01245" lon = "8.65198"><name>TE2LS2</name><desc>83,0 km
Images:255
First:06.09.2025 13:47:40
Last:06.09.2025 14:09:56
Duration:00:22:16
</desc></wpt>
<wpt lat = "48.01693" lon = "8.53116"><name>JNK2</name><desc>Finish
Images:1308
First:06.09.2025 13:20:03
Last:06.09.2025 16:30:35
Duration:03:10:32
</desc></wpt>
<wpt lat = "48.01693" lon = "8.53116"><name>JNK2LS1</name><desc>Finish
Images:1121
First:06.09.2025 13:15:10
Last:06.09.2025 16:08:50
Duration:02:53:40
</desc></wpt>
</gpx>