<?xml version='1.0' encoding='utf-8'?>
<gpx version="1.1" creator="Infofile GPX Generator">
<wpt lat = "46.69978" lon = "10.09493"><name>JNK1</name><desc>Start
Images:514
First:06.07.2025 06:45:31
Last:06.07.2025 07:22:22
Duration:00:36:51
</desc></wpt>
<wpt lat = "46.65928" lon = "10.03693"><name>MOG2</name><desc>110,0 km
Images:1098
First:06.07.2025 10:38:40
Last:06.07.2025 14:08:03
Duration:03:29:23
</desc></wpt>
<wpt lat = "46.65928" lon = "10.03693"><name>MOG2LS2</name><desc>110,0 km
Images:1648
First:06.07.2025 10:25:21
Last:06.07.2025 14:12:36
Duration:03:47:15
</desc></wpt>
<wpt lat = "46.65928" lon = "10.03693"><name>MOG2LS1</name><desc>110,0 km
Images:1654
First:06.07.2025 10:29:18
Last:06.07.2025 14:11:25
Duration:03:42:07
</desc></wpt>
<wpt lat = "46.67717" lon = "10.06994"><name>EVL2LS2</name><desc>113,0 km
Images:1605
First:06.07.2025 10:15:24
Last:06.07.2025 14:13:58
Duration:03:58:34
</desc></wpt>
<wpt lat = "46.67717" lon = "10.06994"><name>EVL2LS1</name><desc>113,0 km
Images:1089
First:06.07.2025 10:07:34
Last:06.07.2025 14:14:25
Duration:04:06:51
</desc></wpt>
<wpt lat = "46.67717" lon = "10.06994"><name>EVL2</name><desc>113,0 km
Images:1045
First:06.07.2025 10:23:48
Last:06.07.2025 14:13:12
Duration:03:49:24
</desc></wpt>
<wpt lat = "46.74600" lon = "9.99419"><name>EVL1</name><desc>14,7 km
Images:1519
First:06.07.2025 07:14:01
Last:06.07.2025 08:21:16
Duration:01:07:15
</desc></wpt>
<wpt lat = "46.74600" lon = "9.99419"><name>EVL1LS2</name><desc>14,7 km
Images:821
First:06.07.2025 07:11:03
Last:06.07.2025 08:23:55
Duration:01:12:52
</desc></wpt>
<wpt lat = "46.74600" lon = "9.99419"><name>EVL1LS1</name><desc>14,7 km
Images:628
First:06.07.2025 07:08:18
Last:06.07.2025 08:21:55
Duration:01:13:37
</desc></wpt>
<wpt lat = "46.75689" lon = "9.93921"><name>MOG1</name><desc>20,3 km
Images:798
First:06.07.2025 07:57:48
Last:06.07.2025 09:14:21
Duration:01:16:33
</desc></wpt>
<wpt lat = "46.75689" lon = "9.93921"><name>MOG1LS2</name><desc>20,3 km
Images:1264
First:06.07.2025 07:40:51
Last:06.07.2025 09:17:15
Duration:01:36:24
</desc></wpt>
<wpt lat = "46.75689" lon = "9.93921"><name>MOG1LS1</name><desc>20,3 km
Images:1149
First:06.07.2025 07:41:57
Last:06.07.2025 09:17:34
Duration:01:35:37
</desc></wpt>
<wpt lat = "46.60217" lon = "9.75487"><name>ROB1</name><desc>Albulaviadukte
Images:2354
First:06.07.2025 08:26:39
Last:06.07.2025 11:57:30
Duration:03:30:51
</desc></wpt>
<wpt lat = "46.60217" lon = "9.75487"><name>ROB1LS1</name><desc>Albulaviadukte
Images:1671
First:06.07.2025 08:10:51
Last:06.07.2025 12:03:03
Duration:03:52:12
</desc></wpt>
<wpt lat = "46.60217" lon = "9.75487"><name>ROB1LS2</name><desc>Albulaviadukte
Images:1188
First:06.07.2025 09:23:58
Last:06.07.2025 12:02:23
Duration:02:38:25
</desc></wpt>
<wpt lat = "46.69916" lon = "10.09400"><name>JNK2</name><desc>Finish
Images:692
First:06.07.2025 10:20:54
Last:06.07.2025 14:18:15
Duration:03:57:21
</desc></wpt>
<wpt lat = "46.69916" lon = "10.09400"><name>JNK2LS1</name><desc>Finish
Images:1623
First:06.07.2025 10:12:03
Last:06.07.2025 14:18:03
Duration:04:06:00
</desc></wpt>
<wpt lat = "46.74600" lon = "9.99419"><name>EVL1DRONE1</name><desc>Impressions / Pano
Images:16
First:06.07.2025 07:23:05
Last:06.07.2025 11:11:54
Duration:03:48:49
</desc></wpt>
</gpx>