<?xml version='1.0' encoding='utf-8'?>
<gpx version="1.1" creator="Infofile GPX Generator">
<wpt lat = "20.69298" lon = "-103.45556"><name>AGAV1</name><desc>10 km | 18 km | 73 km | 81 km
Images:1796
First:01.01.0001 23:00:00
Last:04.05.2025 11:03:08
Duration:739373.12:03:08
</desc></wpt>
<wpt lat = "20.69298" lon = "-103.45556"><name>EDD3</name><desc>10 km | 18 km | 73 km | 81 km
Images:8674
First:01.01.0001 23:00:00
Last:04.05.2025 11:10:11
Duration:739373.12:10:11
</desc></wpt>
<wpt lat = "20.72762" lon = "-103.38617"><name>EDD1</name><desc>Expo
Images:694
First:02.05.2025 12:55:48
Last:02.05.2025 17:59:24
Duration:05:03:36
</desc></wpt>
<wpt lat = "20.72762" lon = "-103.38617"><name>EDD2</name><desc>Expo
Images:1247
First:03.05.2025 11:58:59
Last:03.05.2025 17:57:01
Duration:05:58:02
</desc></wpt>
<wpt lat = "20.72762" lon = "-103.38617"><name>EGG1</name><desc>Start
Images:101
First:04.05.2025 05:41:28
Last:04.05.2025 06:34:24
Duration:00:52:56
</desc></wpt>
<wpt lat = "20.72762" lon = "-103.38617"><name>EGG1DRONE1</name><desc>Start
Images:42
First:14.12.2024 21:07:32
Last:14.12.2024 21:21:01
Duration:00:13:29
</desc></wpt>
<wpt lat = "20.72762" lon = "-103.38617"><name>EGG2LS2</name><desc>Start
Images:626
First:04.05.2025 06:13:23
Last:04.05.2025 06:39:09
Duration:00:25:46
</desc></wpt>
<wpt lat = "20.72762" lon = "-103.38617"><name>PM1</name><desc>Start
Images:988
First:04.05.2025 05:38:23
Last:04.05.2025 06:36:10
Duration:00:57:47
</desc></wpt>
<wpt lat = "20.72762" lon = "-103.38617"><name>PM1LS1</name><desc>Start
Images:412
First:04.05.2025 06:10:10
Last:04.05.2025 06:36:42
Duration:00:26:32
</desc></wpt>
<wpt lat = "20.72091" lon = "-103.38708"><name>EGG2</name><desc>91.5 km
Images:3984
First:31.12.2018 23:00:02
Last:04.05.2025 09:01:04
Duration:2315.10:01:02
</desc></wpt>
<wpt lat = "20.72091" lon = "-103.38708"><name>EGG2LS1</name><desc>91.5 km
Images:1361
First:04.05.2025 07:58:57
Last:04.05.2025 11:44:08
Duration:03:45:11
</desc></wpt>
<wpt lat = "20.72762" lon = "-103.38617"><name>EGG3</name><desc>Best of
Images:145
First:31.12.2018 23:03:11
Last:04.05.2025 12:14:36
Duration:2315.13:11:25
</desc></wpt>
<wpt lat = "20.62831" lon = "-103.41823"><name>RHR1</name><desc>42 km | 44.5 km | 105 km | 107.5 km
Images:3366
First:04.05.2025 06:31:38
Last:04.05.2025 11:16:16
Duration:04:44:38
</desc></wpt>
<wpt lat = "20.71020" lon = "-103.37200"><name>PAROM1</name><desc>31 km | 60 km | 93.5 km | 123 km
Images:3516
First:04.05.2025 06:42:09
Last:04.05.2025 11:11:31
Duration:04:29:22
</desc></wpt>
<wpt lat = "20.72762" lon = "-103.38617"><name>PM2</name><desc>Finish
Images:4874
First:04.05.2025 07:26:14
Last:04.05.2025 12:14:47
Duration:04:48:33
</desc></wpt>
<wpt lat = "20.72762" lon = "-103.38617"><name>PM1LS2</name><desc>Finish
Images:4371
First:04.05.2025 07:05:45
Last:04.05.2025 11:18:54
Duration:04:13:09
</desc></wpt>
<wpt lat = "20.66315" lon = "-103.39480"><name>JCSH1</name><desc>37.5 km | 49 km | 100 km | 112 km
Images:8366
First:04.05.2025 07:18:57
Last:04.05.2025 11:37:53
Duration:04:18:56
</desc></wpt>
</gpx>