<?xml version='1.0' encoding='utf-8'?>
<gpx version="1.1" creator="Infofile GPX Generator">
<wpt lat = "43.18162" lon = "2.41599"><name>DAFE2</name><desc>Start
Images:66
First:11.05.2025 08:00:15
Last:11.05.2025 08:20:38
Duration:00:20:23
</desc></wpt>
<wpt lat = "43.18279" lon = "2.41508"><name>DAFE1</name><desc>Impressions / Pano
Images:68
First:10.05.2025 08:28:35
Last:11.05.2025 10:07:32
Duration:1.01:38:57
</desc></wpt>
<wpt lat = "43.18297" lon = "2.41582"><name>MRAB1</name><desc>Impressions / Pano
Images:96
First:10.05.2025 08:00:24
Last:11.05.2025 08:22:30
Duration:1.00:22:06
</desc></wpt>
<wpt lat = "43.18279" lon = "2.41508"><name>TGM1DRONE1</name><desc>Impressions / Pano
Images:89
First:10.05.2025 08:02:21
Last:11.05.2025 13:23:35
Duration:1.05:21:14
</desc></wpt>
<wpt lat = "43.18279" lon = "2.41508"><name>TGM1</name><desc>Impressions / Pano
Images:165
First:10.05.2025 09:23:19
Last:11.05.2025 12:20:18
Duration:1.02:56:59
</desc></wpt>
<wpt lat = "43.18191" lon = "2.42062"><name>RAVE1</name><desc>8 Lake Traverse
Images:5938
First:10.05.2025 07:55:47
Last:11.05.2025 15:22:18
Duration:1.07:26:31
</desc></wpt>
<wpt lat = "43.18103" lon = "2.42150"><name>STO1</name><desc>9 Bucket Carry
Images:11635
First:11.05.2025 07:45:24
Last:11.05.2025 15:29:04
Duration:07:43:40
</desc></wpt>
<wpt lat = "43.18103" lon = "2.42150"><name>STO1LS1</name><desc>9 Bucket Carry
Images:3869
First:11.05.2025 08:02:44
Last:11.05.2025 15:31:21
Duration:07:28:37
</desc></wpt>
<wpt lat = "43.18404" lon = "2.41490"><name>JCR1LS1</name><desc>Run
Images:3313
First:11.05.2025 08:26:35
Last:11.05.2025 15:34:26
Duration:07:07:51
</desc></wpt>
<wpt lat = "43.18395" lon = "2.41506"><name>JCR1</name><desc>26 BarberWire
Images:12086
First:11.05.2025 08:27:18
Last:11.05.2025 16:18:39
Duration:07:51:21
</desc></wpt>
<wpt lat = "43.18391" lon = "2.41600"><name>TGM1LS1</name><desc>29 Sandbag Carry
Images:3949
First:11.05.2025 07:57:06
Last:11.05.2025 16:33:13
Duration:08:36:07
</desc></wpt>
<wpt lat = "43.18401" lon = "2.41639"><name>URU1</name><desc>29 Sandbag Carry
Images:19901
First:10.05.2025 07:59:15
Last:11.05.2025 16:27:58
Duration:1.08:28:43
</desc></wpt>
<wpt lat = "43.18297" lon = "2.41582"><name>MRAB2</name><desc>34 MultiRing
Images:9804
First:11.05.2025 08:32:54
Last:11.05.2025 16:46:13
Duration:08:13:19
</desc></wpt>
<wpt lat = "43.18297" lon = "2.41582"><name>TGM2</name><desc>34 MultiRing
Images:895
First:11.05.2025 12:28:29
Last:11.05.2025 14:40:17
Duration:02:11:48
</desc></wpt>
<wpt lat = "43.18275" lon = "2.41526"><name>DAFE1LS1</name><desc>36 Fire Jump
Images:3132
First:11.05.2025 07:41:59
Last:11.05.2025 16:48:32
Duration:09:06:33
</desc></wpt>
<wpt lat = "43.18275" lon = "2.41526"><name>DARO1LS1</name><desc>36 Fire Jump
Images:2348
First:11.05.2025 07:45:03
Last:11.05.2025 15:39:00
Duration:07:53:57
</desc></wpt>
<wpt lat = "43.18275" lon = "2.41526"><name>DAFE3</name><desc>36 Fire Jump
Images:8673
First:11.05.2025 08:34:20
Last:11.05.2025 16:48:34
Duration:08:14:14
</desc></wpt>
<wpt lat = "43.18279" lon = "2.41508"><name>DARO1</name><desc>Herotent
Images:4476
First:10.05.2025 07:59:08
Last:11.05.2025 16:49:27
Duration:1.08:50:19
</desc></wpt>
</gpx>