<?xml version='1.0' encoding='utf-8'?>
<gpx version="1.1" creator="Infofile GPX Generator">
<wpt lat = "43.18117" lon = "2.41563"><name>DARO1</name><desc>Start
Images:44
First:10.05.2025 07:56:58
Last:11.05.2025 08:16:59
Duration:1.00:20:01
</desc></wpt>
<wpt lat = "43.18315" lon = "2.41492"><name>DAFE1</name><desc>Impressions / Pano
Images:93
First:09.05.2025 22:34:28
Last:11.05.2025 10:06:11
Duration:1.11:31:43
</desc></wpt>
<wpt lat = "43.18315" lon = "2.41492"><name>RAVE1</name><desc>Impressions / Pano
Images:84
First:10.05.2025 07:55:26
Last:10.05.2025 08:27:37
Duration:00:32:11
</desc></wpt>
<wpt lat = "43.18315" lon = "2.41492"><name>TGM1</name><desc>Impressions / Pano
Images:623
First:10.05.2025 09:23:13
Last:10.05.2025 14:40:26
Duration:05:17:13
</desc></wpt>
<wpt lat = "43.18315" lon = "2.41492"><name>TGM1DRONE1</name><desc>Impressions / Pano
Images:52
First:10.05.2025 08:00:58
Last:11.05.2025 13:23:25
Duration:1.05:22:27
</desc></wpt>
<wpt lat = "43.18191" lon = "2.42062"><name>TGM2</name><desc>8 Lake Traverse
Images:536
First:10.05.2025 10:09:21
Last:10.05.2025 10:29:59
Duration:00:20:38
</desc></wpt>
<wpt lat = "43.18191" lon = "2.42062"><name>MRAB1</name><desc>8 Lake Traverse
Images:6753
First:10.05.2025 08:00:24
Last:11.05.2025 08:10:29
Duration:1.00:10:05
</desc></wpt>
<wpt lat = "43.18103" lon = "2.42150"><name>JCR1</name><desc>9 Bucket Carry
Images:5815
First:10.05.2025 08:55:28
Last:10.05.2025 14:04:20
Duration:05:08:52
</desc></wpt>
<wpt lat = "43.18103" lon = "2.42150"><name>TGM3</name><desc>9 Bucket Carry
Images:521
First:10.05.2025 10:43:57
Last:10.05.2025 10:53:37
Duration:00:09:40
</desc></wpt>
<wpt lat = "43.18103" lon = "2.42150"><name>JCR1LS1</name><desc>9 Bucket Carry
Images:2130
First:10.05.2025 06:27:09
Last:10.05.2025 13:59:43
Duration:07:32:34
</desc></wpt>
<wpt lat = "43.18412" lon = "2.41507"><name>STO1LS1</name><desc>Run
Images:1856
First:10.05.2025 09:21:49
Last:10.05.2025 15:28:28
Duration:06:06:39
</desc></wpt>
<wpt lat = "43.18384" lon = "2.41540"><name>STO1</name><desc>26 Barber Wire
Images:9201
First:10.05.2025 09:01:31
Last:10.05.2025 15:24:03
Duration:06:22:32
</desc></wpt>
<wpt lat = "43.18384" lon = "2.41540"><name>TGM4</name><desc>26 Barber Wire
Images:787
First:10.05.2025 13:43:28
Last:10.05.2025 13:57:54
Duration:00:14:26
</desc></wpt>
<wpt lat = "43.18387" lon = "2.41618"><name>DAFE2LS1</name><desc>29 Sandbag Carry
Images:1807
First:09.05.2025 22:43:08
Last:10.05.2025 15:38:09
Duration:16:55:01
</desc></wpt>
<wpt lat = "43.18404" lon = "2.41659"><name>DAFE2</name><desc>29 Sandbag Carry
Images:7447
First:10.05.2025 09:48:34
Last:11.05.2025 08:03:56
Duration:22:15:22
</desc></wpt>
<wpt lat = "43.18305" lon = "2.41601"><name>URU1</name><desc>34 Multiring
Images:9101
First:10.05.2025 07:53:33
Last:10.05.2025 15:44:10
Duration:07:50:37
</desc></wpt>
<wpt lat = "43.18305" lon = "2.41601"><name>TGM5</name><desc>34 Multiring
Images:565
First:10.05.2025 14:04:42
Last:10.05.2025 14:22:08
Duration:00:17:26
</desc></wpt>
<wpt lat = "43.18275" lon = "2.41526"><name>RAVE2</name><desc>36 Fire Jump
Images:14979
First:10.05.2025 09:52:30
Last:10.05.2025 15:45:38
Duration:05:53:08
</desc></wpt>
<wpt lat = "43.18275" lon = "2.41526"><name>TGM1LS1</name><desc>36 Fire Jump
Images:1362
First:10.05.2025 08:48:58
Last:10.05.2025 15:49:16
Duration:07:00:18
</desc></wpt>
<wpt lat = "43.18275" lon = "2.41526"><name>DARO2LS1</name><desc>36 Fire Jump
Images:1370
First:10.05.2025 06:26:03
Last:10.05.2025 15:49:02
Duration:09:22:59
</desc></wpt>
<wpt lat = "43.18275" lon = "2.41526"><name>DARO2</name><desc>Herotent
Images:2334
First:10.05.2025 09:54:47
Last:10.05.2025 15:46:22
Duration:05:51:35
</desc></wpt>
</gpx>