<?xml version='1.0' encoding='utf-8'?>
<gpx version="1.1" creator="Infofile GPX Generator">
<wpt lat = "61.00489" lon = "14.47148"><name>GUD1</name><desc>4,9 km till finish
Images:5799
First:01.03.2025 09:13:37
Last:01.03.2025 11:31:58
Duration:02:18:21
</desc></wpt>
<wpt lat = "61.00489" lon = "14.47148"><name>GUD1LS1</name><desc>4,9 km till finish
Images:1293
First:01.03.2025 08:37:46
Last:01.03.2025 11:32:51
Duration:02:55:05
</desc></wpt>
<wpt lat = "61.00489" lon = "14.47148"><name>GUD1LS2</name><desc>4,9 km till finish
Images:1294
First:01.03.2025 08:34:53
Last:01.03.2025 11:32:51
Duration:02:57:58
</desc></wpt>
<wpt lat = "61.00323" lon = "14.48623"><name>MAV1</name><desc>3,9 km till finish
Images:3582
First:01.03.2025 08:46:18
Last:01.03.2025 11:51:26
Duration:03:05:08
</desc></wpt>
<wpt lat = "61.00389" lon = "14.50514"><name>DADA1</name><desc>2,7 km till finish
Images:1880
First:01.03.2025 09:19:49
Last:01.03.2025 12:41:51
Duration:03:22:02
</desc></wpt>
<wpt lat = "61.00622" lon = "14.51911"><name>IVAH1</name><desc>1,7 km till finish
Images:2633
First:01.03.2025 09:22:43
Last:01.03.2025 12:10:11
Duration:02:47:28
</desc></wpt>
<wpt lat = "61.00622" lon = "14.51911"><name>IVAH1LS1</name><desc>1,7 km till finish
Images:894
First:01.03.2025 09:12:27
Last:01.03.2025 11:18:22
Duration:02:05:55
</desc></wpt>
<wpt lat = "61.00975" lon = "14.52536"><name>RKO1</name><desc>1,2 km till finish
Images:2807
First:01.03.2025 09:24:19
Last:01.03.2025 12:17:01
Duration:02:52:42
</desc></wpt>
<wpt lat = "61.00704" lon = "14.54303"><name>JLA1</name><desc>Finish
Images:1844
First:21.02.2025 07:50:58
Last:01.03.2025 12:35:15
Duration:8.04:44:17
</desc></wpt>
<wpt lat = "61.00489" lon = "14.47148"><name>GUD1DRONE1</name><desc>Impressions / Pano
Images:8
First:01.03.2025 08:46:35
Last:01.03.2025 08:52:55
Duration:00:06:20
</desc></wpt>
</gpx>