<?xml version='1.0' encoding='utf-8'?>
<gpx version="1.1" creator="Infofile GPX Generator">
<wpt lat = "61.11836" lon = "13.29068"><name>TIM1</name><desc>Start
Images:2577
First:23.02.2025 06:24:09
Last:23.02.2025 07:31:16
Duration:01:07:07
</desc></wpt>
<wpt lat = "61.11836" lon = "13.29068"><name>MAE1</name><desc>Start
Images:4726
First:23.02.2025 06:19:38
Last:23.02.2025 07:29:37
Duration:01:09:59
</desc></wpt>
<wpt lat = "61.12880" lon = "13.90720"><name>RYS1</name><desc>46,4 km before Finish (Evertsberg)
Images:15010
First:23.02.2025 07:18:19
Last:23.02.2025 14:18:37
Duration:07:00:18
</desc></wpt>
<wpt lat = "61.12880" lon = "13.90720"><name>RYS1LS1</name><desc>46,4 km before Finish (Evertsberg)
Images:9673
First:23.02.2025 07:32:23
Last:23.02.2025 14:09:28
Duration:06:37:05
</desc></wpt>
<wpt lat = "61.13500" lon = "13.98641"><name>MFR1LS1</name><desc>40,8 km before Finish (Evertsberg)
Images:10949
First:23.02.2025 06:55:05
Last:23.02.2025 14:53:55
Duration:07:58:50
</desc></wpt>
<wpt lat = "61.13500" lon = "13.98641"><name>MFR1</name><desc>40,8 km before Finish (Evertsberg)
Images:6944
First:23.02.2025 06:31:47
Last:23.02.2025 14:33:12
Duration:08:01:25
</desc></wpt>
<wpt lat = "61.11306" lon = "14.10733"><name>ADRE1</name><desc>33,0 km before Finish (Sjurby)
Images:7999
First:23.02.2025 07:50:08
Last:23.02.2025 15:30:08
Duration:07:40:00
</desc></wpt>
<wpt lat = "61.11422" lon = "14.17690"><name>ROB1LS2</name><desc>28,5 km before Finish (Oxberg)
Images:5947
First:23.02.2025 08:16:17
Last:23.02.2025 16:12:39
Duration:07:56:22
</desc></wpt>
<wpt lat = "61.11422" lon = "14.17690"><name>ROB1LS1</name><desc>28,5 km before Finish (Oxberg)
Images:6715
First:23.02.2025 08:25:57
Last:23.02.2025 16:19:21
Duration:07:53:24
</desc></wpt>
<wpt lat = "61.11422" lon = "14.17690"><name>ROB1</name><desc>28,5 km before Finish (Oxberg)
Images:8754
First:23.02.2025 08:49:08
Last:23.02.2025 16:00:40
Duration:07:11:32
</desc></wpt>
<wpt lat = "61.07426" lon = "14.32425"><name>SBRO1</name><desc>18,1 km before Finish (Spjutmo)
Images:10918
First:23.02.2025 08:48:00
Last:23.02.2025 16:42:31
Duration:07:54:31
</desc></wpt>
<wpt lat = "61.06348" lon = "14.35333"><name>COR1LS1</name><desc>16,1 km before Finish (Hökberget)
Images:1967
First:23.02.2025 08:42:26
Last:23.02.2025 16:08:18
Duration:07:25:52
</desc></wpt>
<wpt lat = "61.06348" lon = "14.35333"><name>COR1</name><desc>16,1 km before Finish (Hökberget)
Images:8922
First:23.02.2025 08:33:05
Last:23.02.2025 17:02:05
Duration:08:29:00
</desc></wpt>
<wpt lat = "61.00479" lon = "14.47153"><name>IVAH1LS1</name><desc>4,7 km before Finish (Hemus)
Images:4042
First:23.02.2025 09:34:10
Last:23.02.2025 16:23:19
Duration:06:49:09
</desc></wpt>
<wpt lat = "61.00479" lon = "14.47153"><name>IVAH1</name><desc>4,7 km before Finish (Hemus)
Images:8491
First:23.02.2025 09:53:00
Last:23.02.2025 19:05:40
Duration:09:12:40
</desc></wpt>
<wpt lat = "61.00330" lon = "14.48619"><name>RKO1</name><desc>3,8 km before Finish (Hemus)
Images:9825
First:23.02.2025 10:17:47
Last:23.02.2025 19:01:50
Duration:08:44:03
</desc></wpt>
<wpt lat = "61.00400" lon = "14.50515"><name>DADA1</name><desc>2,7 km before Finish (Hemus)
Images:6209
First:23.02.2025 10:20:57
Last:23.02.2025 18:47:03
Duration:08:26:06
</desc></wpt>
<wpt lat = "61.00660" lon = "14.51871"><name>JLA1</name><desc>1,7 km before Finish (Mora)
Images:12269
First:23.02.2025 09:04:41
Last:23.02.2025 18:35:16
Duration:09:30:35
</desc></wpt>
<wpt lat = "61.00660" lon = "14.51871"><name>JLA1LS1</name><desc>1,7 km before Finish (Mora)
Images:645
First:23.02.2025 18:38:25
Last:23.02.2025 19:33:44
Duration:00:55:19
</desc></wpt>
<wpt lat = "61.00852" lon = "14.52607"><name>MAV1</name><desc>1,2 km before Finish (Mora)
Images:11882
First:23.02.2025 09:05:00
Last:23.02.2025 19:24:48
Duration:10:19:48
</desc></wpt>
<wpt lat = "61.00699" lon = "14.54266"><name>ALN1LS1</name><desc>Finish
Images:13024
First:23.02.2025 09:37:18
Last:23.02.2025 19:01:06
Duration:09:23:48
</desc></wpt>
<wpt lat = "61.00699" lon = "14.54266"><name>MW1LS1</name><desc>Finish
Images:17016
First:23.02.2025 07:19:53
Last:23.02.2025 17:39:33
Duration:10:19:40
</desc></wpt>
<wpt lat = "61.00699" lon = "14.54266"><name>MW1</name><desc>Finish
Images:16828
First:23.02.2025 09:21:04
Last:23.02.2025 19:53:39
Duration:10:32:35
</desc></wpt>
<wpt lat = "61.00699" lon = "14.54266"><name>ALN1</name><desc>Finish
Images:14765
First:23.02.2025 09:47:15
Last:23.02.2025 19:53:38
Duration:10:06:23
</desc></wpt>
<wpt lat = "61.00699" lon = "14.54266"><name>MAE2</name><desc>Finish
Images:6036
First:23.02.2025 15:01:37
Last:23.02.2025 19:09:09
Duration:04:07:32
</desc></wpt>
</gpx>