<?xml version='1.0' encoding='utf-8'?>
<gpx version="1.1" creator="Infofile GPX Generator">
<wpt lat = "61.08338" lon = "14.27877"><name>DADA1</name><desc>21,1 km before Finish
Images:7882
First:21.02.2025 08:47:35
Last:21.02.2025 12:40:36
Duration:03:53:01
</desc></wpt>
<wpt lat = "61.07493" lon = "14.30871"><name>MAV1</name><desc>19,0 km before Finish
Images:16474
First:21.02.2025 07:42:01
Last:21.02.2025 12:15:26
Duration:04:33:25
</desc></wpt>
<wpt lat = "61.07383" lon = "14.32650"><name>RKO1</name><desc>18,0 km before Finish
Images:5491
First:21.02.2025 08:32:31
Last:21.02.2025 12:05:30
Duration:03:32:59
</desc></wpt>
<wpt lat = "61.06506" lon = "14.35264"><name>IVAH1</name><desc>16,3 km before Finish
Images:3856
First:21.02.2025 08:38:08
Last:21.02.2025 12:36:17
Duration:03:58:09
</desc></wpt>
<wpt lat = "61.06506" lon = "14.35264"><name>IVAH1LS1</name><desc>16,3 km before Finish
Images:672
First:21.02.2025 08:36:42
Last:21.02.2025 09:38:31
Duration:01:01:49
</desc></wpt>
<wpt lat = "61.06151" lon = "14.34749"><name>JLA1</name><desc>15,8 km before Finish
Images:10041
First:21.02.2025 07:46:32
Last:21.02.2025 12:41:29
Duration:04:54:57
</desc></wpt>
<wpt lat = "61.01813" lon = "14.40941"><name>ALN1</name><desc>9,0 km before Finish
Images:7514
First:21.02.2025 09:11:23
Last:21.02.2025 13:52:41
Duration:04:41:18
</desc></wpt>
<wpt lat = "61.01813" lon = "14.40941"><name>ALN1LS1</name><desc>9,0 km before Finish
Images:3016
First:21.02.2025 08:46:46
Last:21.02.2025 13:54:25
Duration:05:07:39
</desc></wpt>
<wpt lat = "61.01813" lon = "14.40941"><name>ALN1LS2</name><desc>9,0 km before Finish
Images:2714
First:21.02.2025 08:56:53
Last:21.02.2025 13:54:24
Duration:04:57:31
</desc></wpt>
<wpt lat = "61.01734" lon = "14.41096"><name>MW1</name><desc>8,8 km before Finish
Images:4698
First:21.02.2025 09:06:44
Last:21.02.2025 13:53:54
Duration:04:47:10
</desc></wpt>
<wpt lat = "61.01734" lon = "14.41096"><name>MW1LS1</name><desc>8,8 km before Finish
Images:2630
First:21.02.2025 08:58:17
Last:21.02.2025 13:58:28
Duration:05:00:11
</desc></wpt>
<wpt lat = "61.01547" lon = "14.41929"><name>COR1</name><desc>8,1 km before Finish
Images:3659
First:21.02.2025 09:04:02
Last:21.02.2025 14:05:59
Duration:05:01:57
</desc></wpt>
<wpt lat = "61.01547" lon = "14.41929"><name>COR1LS1</name><desc>8,1 km before Finish
Images:1936
First:21.02.2025 09:02:23
Last:21.02.2025 12:42:30
Duration:03:40:07
</desc></wpt>
<wpt lat = "61.00507" lon = "14.47526"><name>RYS1</name><desc>4,5 km before Finish
Images:7576
First:21.02.2025 07:46:40
Last:21.02.2025 14:56:49
Duration:07:10:09
</desc></wpt>
<wpt lat = "61.00507" lon = "14.47526"><name>RYS1LS1</name><desc>4,5 km before Finish
Images:4844
First:21.02.2025 08:04:21
Last:21.02.2025 13:42:30
Duration:05:38:09
</desc></wpt>
<wpt lat = "61.00361" lon = "14.48552"><name>ADRE1</name><desc>3,9 km before Finish
Images:6822
First:21.02.2025 08:59:47
Last:21.02.2025 15:00:19
Duration:06:00:32
</desc></wpt>
<wpt lat = "61.00407" lon = "14.50463"><name>MFR1</name><desc>2,7 km before Finish
Images:4686
First:21.02.2025 09:13:12
Last:21.02.2025 15:12:40
Duration:05:59:28
</desc></wpt>
<wpt lat = "61.00407" lon = "14.50463"><name>MFR1LS1</name><desc>2,7 km before Finish
Images:3692
First:21.02.2025 08:27:30
Last:21.02.2025 14:51:50
Duration:06:24:20
</desc></wpt>
<wpt lat = "61.00697" lon = "14.51903"><name>SBRO1</name><desc>1,7 km before Finish
Images:5975
First:21.02.2025 08:10:38
Last:21.02.2025 15:30:24
Duration:07:19:46
</desc></wpt>
<wpt lat = "61.00908" lon = "14.52677"><name>ROB1</name><desc>1,1 km before Finish
Images:10794
First:21.02.2025 09:14:06
Last:21.02.2025 15:27:01
Duration:06:12:55
</desc></wpt>
<wpt lat = "61.00908" lon = "14.52677"><name>ROB1LS1</name><desc>1,1 km before Finish
Images:3771
First:21.02.2025 08:00:46
Last:21.02.2025 15:00:12
Duration:06:59:26
</desc></wpt>
<wpt lat = "61.00908" lon = "14.52677"><name>ROB1LS2</name><desc>1,1 km before Finish
Images:3665
First:21.02.2025 08:25:50
Last:21.02.2025 14:06:00
Duration:05:40:10
</desc></wpt>
<wpt lat = "61.00699" lon = "14.54266"><name>IVAH2</name><desc>Finish
Images:293
First:21.02.2025 13:36:50
Last:21.02.2025 14:52:58
Duration:01:16:08
</desc></wpt>
<wpt lat = "61.00699" lon = "14.54266"><name>TIM1LS1</name><desc>Finish
Images:3006
First:21.02.2025 08:49:26
Last:21.02.2025 15:16:04
Duration:06:26:38
</desc></wpt>
<wpt lat = "61.00699" lon = "14.54266"><name>MAE1LS1</name><desc>Finish
Images:2892
First:21.02.2025 09:07:50
Last:21.02.2025 14:01:38
Duration:04:53:48
</desc></wpt>
<wpt lat = "61.00699" lon = "14.54266"><name>MAE1</name><desc>Finish
Images:5264
First:21.02.2025 09:20:08
Last:21.02.2025 15:49:15
Duration:06:29:07
</desc></wpt>
<wpt lat = "61.00699" lon = "14.54266"><name>TIM1</name><desc>Finish
Images:3472
First:21.02.2025 07:52:24
Last:21.02.2025 13:34:33
Duration:05:42:09
</desc></wpt>
</gpx>