<?xml version='1.0' encoding='utf-8'?>
<gpx version="1.1" creator="Infofile GPX Generator">
<wpt lat = "44.95926" lon = "3.54225"><name>ALSE2</name><desc>START 100 M
Images:348
First:13.06.2025 19:52:59
Last:13.06.2025 20:29:22
Duration:00:36:23
</desc></wpt>
<wpt lat = "44.95926" lon = "3.54225"><name>MARY4</name><desc>START 100 M
Images:128
First:13.06.2025 19:58:10
Last:13.06.2025 20:24:10
Duration:00:26:00
</desc></wpt>
<wpt lat = "44.95926" lon = "3.54225"><name>AJL2</name><desc>START 100 M
Images:171
First:13.06.2025 19:51:48
Last:13.06.2025 20:23:08
Duration:00:31:20
</desc></wpt>
<wpt lat = "44.95926" lon = "3.54225"><name>ROM2</name><desc>START 100 M
Images:117
First:13.06.2025 19:51:57
Last:13.06.2025 20:24:21
Duration:00:32:24
</desc></wpt>
<wpt lat = "44.96842" lon = "3.64714"><name>MARY1</name><desc>START 100 K
Images:64
First:14.06.2025 08:21:39
Last:14.06.2025 08:32:10
Duration:00:10:31
</desc></wpt>
<wpt lat = "45.04680" lon = "3.88366"><name>MARY2</name><desc>Eglise St.Privat 100 M 65,2 km after start / 100 K 11,4 Km after start
Images:5204
First:14.06.2025 08:52:01
Last:14.06.2025 10:55:43
Duration:02:03:42
</desc></wpt>
<wpt lat = "44.90587" lon = "3.79059"><name>ALSE1</name><desc>Lac du Bouchet 100M 99,7 km after start / 100 K 46,9 after Start
Images:5770
First:14.06.2025 06:42:45
Last:14.06.2025 19:19:58
Duration:12:37:13
</desc></wpt>
<wpt lat = "44.90587" lon = "3.79059"><name>ALSE1LS1</name><desc>Lac du Bouchet 100M 99,7 km after start / 100 K 46,9 after Start
Images:2799
First:14.06.2025 06:25:18
Last:14.06.2025 19:12:43
Duration:12:47:25
</desc></wpt>
<wpt lat = "44.90586" lon = "3.79188"><name>AJL1</name><desc>Lac du Bouchet 100M 111 km after start / 100 K 48,2 after Start
Images:8142
First:14.06.2025 06:47:02
Last:14.06.2025 19:18:54
Duration:12:31:52
</desc></wpt>
<wpt lat = "44.90584" lon = "3.79170"><name>AJL1LS2</name><desc>Lac du Bouchet 100M 100,7 km after start / 100 K 47,9 after Start
Images:3388
First:14.06.2025 06:12:02
Last:14.06.2025 19:17:33
Duration:13:05:31
</desc></wpt>
<wpt lat = "44.90584" lon = "3.79170"><name>AJL1LS1</name><desc>Lac du Bouchet 100M 100,7 km after start / 100 K 47,9 after Start
Images:6177
First:01.01.0001 23:00:00
Last:14.06.2025 19:17:17
Duration:739414.20:17:17
</desc></wpt>
<wpt lat = "45.02088" lon = "3.85242"><name>ALL1</name><desc>100 M 128 Km /100 KM 75,7 Km /20 km 21 km after start
Images:6742
First:14.06.2025 08:03:12
Last:15.06.2025 00:28:45
Duration:16:25:33
</desc></wpt>
<wpt lat = "45.02088" lon = "3.85242"><name>ALL1LS1</name><desc>100 M 128 Km /100 KM 75,7 Km /20 km 21 km after start
Images:3110
First:14.06.2025 07:42:25
Last:14.06.2025 20:34:22
Duration:12:51:57
</desc></wpt>
<wpt lat = "45.01913" lon = "3.85130"><name>ROM1</name><desc>100 M 128,2 Km /100 KM 75,9 km /20 km 21,2 after start
Images:7890
First:14.06.2025 09:23:23
Last:15.06.2025 00:22:56
Duration:14:59:33
</desc></wpt>
<wpt lat = "45.01913" lon = "3.85130"><name>ROM1LS1</name><desc>100 M 128,2 Km /100 KM 75,9 km /20 km 21,2 after start
Images:2800
First:14.06.2025 09:03:07
Last:15.06.2025 00:22:44
Duration:15:19:37
</desc></wpt>
<wpt lat = "45.02415" lon = "3.85149"><name>BRN1</name><desc>100 M 129,2 km /100 KM 76,9 Km /20 KM 22,3 after Start
Images:11527
First:14.06.2025 08:40:50
Last:15.06.2025 00:38:51
Duration:15:58:01
</desc></wpt>
<wpt lat = "45.02415" lon = "3.85149"><name>BRN1LS2</name><desc>100 M 129,2 km /100 KM 76,9 Km /20 KM 22,3 after Start
Images:11875
First:14.06.2025 08:40:50
Last:14.06.2025 23:49:49
Duration:15:08:59
</desc></wpt>
<wpt lat = "45.02415" lon = "3.85149"><name>BRN1LS1</name><desc>100 M 129,2 km /100 KM 76,9 Km /20 KM 22,3 after Start
Images:4179
First:14.06.2025 08:00:50
Last:14.06.2025 23:49:49
Duration:15:48:59
</desc></wpt>
<wpt lat = "45.04556" lon = "3.88383"><name>MARY3</name><desc>Notre Dame du Puy 100M/100km/20km 200 m before finish
Images:14044
First:14.06.2025 12:36:44
Last:15.06.2025 01:35:46
Duration:12:59:02
</desc></wpt>
<wpt lat = "45.04744" lon = "3.88328"><name>FRN1LS1</name><desc>100M/100km/20km 50 m before finish
Images:11450
First:14.06.2025 08:50:04
Last:15.06.2025 01:15:56
Duration:16:25:52
</desc></wpt>
<wpt lat = "45.04744" lon = "3.88328"><name>RBC1</name><desc>FINISH 100M/100KM/20KM
Images:7103
First:14.06.2025 08:25:04
Last:14.06.2025 22:20:30
Duration:13:55:26
</desc></wpt>
<wpt lat = "45.04744" lon = "3.88328"><name>RBC1LS1</name><desc>FINISH 100M/100KM/20KM
Images:3301
First:14.06.2025 09:49:07
Last:14.06.2025 23:36:53
Duration:13:47:46
</desc></wpt>
<wpt lat = "45.04744" lon = "3.88328"><name>FRN1LS2</name><desc>FINISH 100M/100KM/20KM
Images:2496
First:14.06.2025 10:54:12
Last:15.06.2025 01:14:14
Duration:14:20:02
</desc></wpt>
<wpt lat = "44.97528" lon = "3.68273"><name>BRN2</name><desc>50KM Canyon du Rouchoux 13,6 Km after Start
Images:9633
First:15.06.2025 08:11:06
Last:15.06.2025 11:31:03
Duration:03:19:57
</desc></wpt>
<wpt lat = "44.97528" lon = "3.68273"><name>BRN2LS1</name><desc>50KM Canyon du Rouchoux 13,6 Km after Start
Images:1632
First:15.06.2025 07:56:06
Last:15.06.2025 10:14:45
Duration:02:18:39
</desc></wpt>
<wpt lat = "44.96010" lon = "3.71033"><name>MARY5</name><desc>50KM Saint Jean Lachalm 19,4 Km after start
Images:7791
First:15.06.2025 08:39:19
Last:15.06.2025 11:42:38
Duration:03:03:19
</desc></wpt>
<wpt lat = "44.93957" lon = "3.76398"><name>ALL2</name><desc>50KM Mont Deves 26,7 Km after Start
Images:2916
First:15.06.2025 08:40:56
Last:15.06.2025 15:22:21
Duration:06:41:25
</desc></wpt>
<wpt lat = "44.93957" lon = "3.76398"><name>ALL2LS1</name><desc>50KM Mont Deves 26,7 Km after Start
Images:5182
First:15.06.2025 08:37:38
Last:15.06.2025 18:05:34
Duration:09:27:56
</desc></wpt>
<wpt lat = "45.02096" lon = "3.85237"><name>RBC2</name><desc>50KM /12KM  47,5 Km after Start / 6,5 Km after Start
Images:6652
First:15.06.2025 08:56:00
Last:15.06.2025 17:55:37
Duration:08:59:37
</desc></wpt>
<wpt lat = "45.02096" lon = "3.85237"><name>RBC2LS1</name><desc>50KM /12KM  47,5 Km after Start / 6,5 Km after Start
Images:938
First:15.06.2025 10:04:28
Last:15.06.2025 17:00:14
Duration:06:55:46
</desc></wpt>
<wpt lat = "45.02453" lon = "3.85159"><name>ROM3</name><desc>50KM /12KM  47,7 Km after Start / 6,7 Km after Start
Images:5256
First:15.06.2025 09:04:04
Last:15.06.2025 18:16:22
Duration:09:12:18
</desc></wpt>
<wpt lat = "45.02453" lon = "3.85159"><name>ROM3LS1</name><desc>50KM /12KM  47,7 Km after Start / 6,7 Km after Start
Images:2294
First:15.06.2025 09:07:13
Last:15.06.2025 19:10:38
Duration:10:03:25
</desc></wpt>
<wpt lat = "45.02457" lon = "3.85155"><name>CECK1</name><desc>50KM /12KM  48 Km after Start / 7 Km after Start
Images:4716
First:15.06.2025 09:00:39
Last:15.06.2025 14:45:56
Duration:05:45:17
</desc></wpt>
<wpt lat = "45.02457" lon = "3.85155"><name>ALL3</name><desc>50KM /12KM  48 Km after Start / 7 Km after Start
Images:1764
First:15.06.2025 15:22:35
Last:15.06.2025 18:16:26
Duration:02:53:51
</desc></wpt>
<wpt lat = "45.04555" lon = "3.88389"><name>AJL3</name><desc>50KM / 12KM Notre Dame du Puy 200 m before the finish
Images:18019
First:15.06.2025 09:02:11
Last:15.06.2025 19:12:47
Duration:10:10:36
</desc></wpt>
<wpt lat = "45.04555" lon = "3.88389"><name>AJL3LS1</name><desc>50KM / 12KM Notre Dame du Puy 200 m before the finish
Images:8123
First:15.06.2025 08:58:51
Last:15.06.2025 19:13:45
Duration:10:14:54
</desc></wpt>
<wpt lat = "45.04555" lon = "3.88389"><name>AJL3LS2</name><desc>50KM / 12KM Notre Dame du Puy 200 m before the finish
Images:7619
First:15.06.2025 09:23:25
Last:15.06.2025 19:13:48
Duration:09:50:23
</desc></wpt>
<wpt lat = "45.04763" lon = "3.88339"><name>FRN1LS3</name><desc>50KM / 12KM 50 m before finish
Images:2022
First:15.06.2025 09:21:42
Last:15.06.2025 18:39:26
Duration:09:17:44
</desc></wpt>
<wpt lat = "45.04763" lon = "3.88339"><name>ALSE3</name><desc>50KM / 12KM FINISH
Images:7250
First:15.06.2025 09:24:06
Last:15.06.2025 19:18:00
Duration:09:53:54
</desc></wpt>
<wpt lat = "45.04763" lon = "3.88339"><name>ALSE3LS1</name><desc>50KM / 12KM FINISH
Images:1473
First:15.06.2025 09:23:26
Last:15.06.2025 19:09:43
Duration:09:46:17
</desc></wpt>
</gpx>