<?xml version='1.0' encoding='utf-8'?>
<gpx version="1.1" creator="Infofile GPX Generator">
<wpt lat = "48.86400" lon = "2.32970"><name>DJAM1</name><desc>Start
Images:5403
First:16.11.2025 07:12:21
Last:16.11.2025 09:42:16
Duration:02:29:55
</desc></wpt>
<wpt lat = "48.86400" lon = "2.32970"><name>LAFO1</name><desc>Start
Images:1098
First:16.11.2025 07:32:40
Last:16.11.2025 09:44:55
Duration:02:12:15
</desc></wpt>
<wpt lat = "48.86444" lon = "2.32775"><name>AFA1</name><desc>Start
Images:207
First:16.11.2025 07:28:20
Last:16.11.2025 08:21:59
Duration:00:53:39
</desc></wpt>
<wpt lat = "48.86853" lon = "2.32366"><name>IBLA1</name><desc>1,0 km Place de la Madeleine
Images:4977
First:16.11.2025 08:03:23
Last:16.11.2025 09:55:30
Duration:01:52:07
</desc></wpt>
<wpt lat = "48.86853" lon = "2.32366"><name>TMAM1</name><desc>1,0 km Place de la Madeleine
Images:6736
First:16.11.2025 08:03:29
Last:16.11.2025 11:38:33
Duration:03:35:04
</desc></wpt>
<wpt lat = "48.87291" lon = "2.33112"><name>JI1</name><desc>2,9 km Place Diaghilew / Bd Haussmann
Images:11823
First:16.11.2025 07:24:55
Last:16.11.2025 11:21:54
Duration:03:56:59
</desc></wpt>
<wpt lat = "48.87032" lon = "2.33140"><name>FRED1</name><desc>4,4 km Boulevard des Capucines
Images:5943
First:16.11.2025 07:27:08
Last:16.11.2025 10:28:45
Duration:03:01:37
</desc></wpt>
<wpt lat = "48.87032" lon = "2.33140"><name>TAYP1</name><desc>4,4 km Boulevard des Capucines
Images:7362
First:16.11.2025 07:28:36
Last:16.11.2025 10:57:59
Duration:03:29:23
</desc></wpt>
<wpt lat = "48.87051" lon = "2.33282"><name>MASG1</name><desc>5,2 km Opéra
Images:5725
First:16.11.2025 07:48:50
Last:16.11.2025 10:33:49
Duration:02:44:59
</desc></wpt>
<wpt lat = "48.86832" lon = "2.34207"><name>MAI1</name><desc>6,3 km Palais Brongniart
Images:20482
First:16.11.2025 08:21:15
Last:16.11.2025 10:45:22
Duration:02:24:07
</desc></wpt>
<wpt lat = "48.86832" lon = "2.34207"><name>RORI1</name><desc>6,3 km Palais Brongniart
Images:4999
First:16.11.2025 07:45:10
Last:16.11.2025 10:46:31
Duration:03:01:21
</desc></wpt>
<wpt lat = "48.86593" lon = "2.34001"><name>BGL1</name><desc>8,6 km Place des Victoires
Images:4537
First:16.11.2025 08:30:46
Last:16.11.2025 11:05:23
Duration:02:34:37
</desc></wpt>
<wpt lat = "48.86593" lon = "2.34001"><name>JDU1</name><desc>8,6 km Place des Victoires
Images:12134
First:16.11.2025 07:41:27
Last:16.11.2025 11:05:21
Duration:03:23:54
</desc></wpt>
<wpt lat = "48.86991" lon = "2.33287"><name>GUF1</name><desc>9,5 km Avenue de l`Opera
Images:5738
First:16.11.2025 07:25:55
Last:16.11.2025 11:16:10
Duration:03:50:15
</desc></wpt>
<wpt lat = "48.86991" lon = "2.33287"><name>MAAU1</name><desc>9,5 km Avenue de l`Opera
Images:9973
First:16.11.2025 07:33:04
Last:16.11.2025 11:16:09
Duration:03:43:05
</desc></wpt>
<wpt lat = "48.86662" lon = "2.33399"><name>API1</name><desc>Finish
Images:3370
First:15.11.2025 23:11:22
Last:16.11.2025 11:14:30
Duration:12:03:08
</desc></wpt>
<wpt lat = "48.86662" lon = "2.33399"><name>COGU1</name><desc>Finish
Images:5730
First:16.11.2025 07:30:53
Last:16.11.2025 11:21:26
Duration:03:50:33
</desc></wpt>
<wpt lat = "48.86880" lon = "2.33301"><name>AFA3</name><desc>Finish
Images:1400
First:16.11.2025 08:38:31
Last:16.11.2025 10:26:24
Duration:01:47:53
</desc></wpt>
<wpt lat = "48.86662" lon = "2.33399"><name>DJAM2</name><desc>Finish
Images:5155
First:16.11.2025 09:54:23
Last:16.11.2025 11:07:44
Duration:01:13:21
</desc></wpt>
<wpt lat = "48.86662" lon = "2.33399"><name>LAFO2</name><desc>Finish
Images:1387
First:16.11.2025 09:54:29
Last:16.11.2025 11:22:07
Duration:01:27:38
</desc></wpt>
<wpt lat = "48.86662" lon = "2.33399"><name>IBLA2</name><desc>Finish
Images:182
First:16.11.2025 10:27:06
Last:16.11.2025 11:15:38
Duration:00:48:32
</desc></wpt>
<wpt lat = "48.86662" lon = "2.33399"><name>TMAM2</name><desc>Finish
Images:533
First:16.11.2025 10:26:15
Last:16.11.2025 11:22:42
Duration:00:56:27
</desc></wpt>
<wpt lat = "48.86662" lon = "2.33399"><name>FRED2</name><desc>Finish
Images:179
First:16.11.2025 10:39:25
Last:16.11.2025 11:10:31
Duration:00:31:06
</desc></wpt>
</gpx>