<?xml version='1.0' encoding='utf-8'?>
<gpx version="1.1" creator="Infofile GPX Generator">
<wpt lat = "40.95225" lon = "41.11235"><name>MDS1</name><desc>Start 50K
Images:747
First:26.09.2025 20:53:45
Last:27.09.2025 07:02:15
Duration:10:08:30
</desc></wpt>
<wpt lat = "40.95248" lon = "41.10167"><name>LULE1</name><desc>Only 50k The flag
Images:2128
First:27.09.2025 07:11:17
Last:27.09.2025 07:48:43
Duration:00:37:26
</desc></wpt>
<wpt lat = "40.95248" lon = "41.10167"><name>LULE1LS1</name><desc>Only 50k The flag
Images:658
First:27.09.2026 06:24:11
Last:27.09.2026 07:50:29
Duration:01:26:18
</desc></wpt>
<wpt lat = "40.95248" lon = "41.10167"><name>LULE1LS2</name><desc>Only 50k The flag
Images:586
First:26.09.2025 22:02:25
Last:27.09.2025 07:50:20
Duration:09:47:55
</desc></wpt>
<wpt lat = "40.96186" lon = "41.16345"><name>MATR1</name><desc>Huser 50k & 20k
Images:8192
First:26.09.2025 21:43:07
Last:27.09.2025 15:45:34
Duration:18:02:27
</desc></wpt>
<wpt lat = "40.96186" lon = "41.16345"><name>MATR1LS1</name><desc>Huser 50k & 20k
Images:1463
First:26.09.2025 22:01:32
Last:27.09.2025 16:00:18
Duration:17:58:46
</desc></wpt>
<wpt lat = "40.96211" lon = "41.16413"><name>BRN1</name><desc>Huser 50k & 20k
Images:5244
First:27.09.2025 08:55:36
Last:27.09.2025 15:44:38
Duration:06:49:02
</desc></wpt>
<wpt lat = "40.96186" lon = "41.16345"><name>MATR1LS2</name><desc>Huser 50 k&20k
Images:4000
First:26.09.2025 22:01:50
Last:27.09.2025 19:08:31
Duration:21:06:41
</desc></wpt>
<wpt lat = "40.96186" lon = "41.16345"><name>BRN1LS1</name><desc>Huser 50 k&20k
Images:1821
First:27.09.2025 07:54:34
Last:27.09.2025 15:44:33
Duration:07:49:59
</desc></wpt>
<wpt lat = "40.96186" lon = "41.16345"><name>BRN1LS2</name><desc>Huser 50 k&20k
Images:11138
First:27.09.2025 07:47:53
Last:27.09.2025 19:01:11
Duration:11:13:18
</desc></wpt>
<wpt lat = "40.95658" lon = "41.11944"><name>MDS2</name><desc>2 km after start Only  20K
Images:380
First:27.09.2025 10:15:31
Last:27.09.2025 10:28:48
Duration:00:13:17
</desc></wpt>
<wpt lat = "40.95658" lon = "41.11944"><name>MDS2LS2</name><desc>2 km after start Only  20K
Images:514
First:26.09.2025 21:50:03
Last:27.09.2025 11:07:20
Duration:13:17:17
</desc></wpt>
<wpt lat = "40.95658" lon = "41.11944"><name>MDS2LS1</name><desc>2 km after start Only  20K
Images:400
First:26.09.2025 21:47:06
Last:27.09.2025 10:34:06
Duration:12:47:00
</desc></wpt>
<wpt lat = "40.90997" lon = "41.16575"><name>LULE2</name><desc>30 km Only 50k
Images:5652
First:27.09.2025 11:14:23
Last:27.09.2025 15:07:13
Duration:03:52:50
</desc></wpt>
<wpt lat = "40.90997" lon = "41.16575"><name>LULE2LS1</name><desc>30 km Only 50k
Images:852
First:27.09.2026 10:27:31
Last:27.09.2026 16:10:28
Duration:05:42:57
</desc></wpt>
<wpt lat = "40.90997" lon = "41.16575"><name>LULE2LS2</name><desc>30 km Only 50k
Images:999
First:27.09.2025 10:27:22
Last:27.09.2025 15:05:21
Duration:04:37:59
</desc></wpt>
<wpt lat = "40.90930" lon = "41.16752"><name>MAGA2</name><desc>36 km Only 50k
Images:1199
First:27.09.2025 10:54:01
Last:27.09.2025 15:10:17
Duration:04:16:16
</desc></wpt>
<wpt lat = "40.90930" lon = "41.16752"><name>MAGA2LS1</name><desc>36 km Only 50k
Images:615
First:27.09.2025 10:45:11
Last:27.09.2025 15:15:53
Duration:04:30:42
</desc></wpt>
<wpt lat = "40.90930" lon = "41.16752"><name>MAGA2LS2</name><desc>36 km Only 50k
Images:173
First:27.09.2025 13:56:27
Last:27.09.2025 15:10:17
Duration:01:13:50
</desc></wpt>
<wpt lat = "40.92616" lon = "41.15010"><name>MAGA3LS1</name><desc>43,5 km Only 50k
Images:209
First:27.09.2025 16:29:17
Last:27.09.2025 18:28:42
Duration:01:59:25
</desc></wpt>
<wpt lat = "40.92616" lon = "41.15010"><name>MAGA3LS2</name><desc>43,5 km Only 50k
Images:84
First:27.09.2025 16:59:19
Last:27.09.2025 18:21:25
Duration:01:22:06
</desc></wpt>
<wpt lat = "40.92616" lon = "41.15010"><name>MAGA3</name><desc>43,5 km Only 50k
Images:84
First:27.09.2025 16:59:19
Last:27.09.2025 18:21:25
Duration:01:22:06
</desc></wpt>
<wpt lat = "40.92653" lon = "41.14888"><name>LULE3LS1</name><desc>44 km Only 50k
Images:560
First:27.09.2026 16:11:12
Last:27.09.2026 18:10:08
Duration:01:58:56
</desc></wpt>
<wpt lat = "40.92653" lon = "41.14888"><name>LULE3LS2</name><desc>44 km Only 50k
Images:741
First:27.09.2025 16:20:37
Last:27.09.2025 18:14:03
Duration:01:53:26
</desc></wpt>
<wpt lat = "40.95225" lon = "41.11235"><name>MDS3</name><desc>Finish
Images:6124
First:27.09.2025 11:28:59
Last:27.09.2025 20:44:25
Duration:09:15:26
</desc></wpt>
<wpt lat = "40.95225" lon = "41.11235"><name>MDS3LS1</name><desc>Finish
Images:1504
First:27.09.2025 11:49:36
Last:27.09.2025 20:41:11
Duration:08:51:35
</desc></wpt>
<wpt lat = "40.95225" lon = "41.11235"><name>MDS3LS2</name><desc>Finish
Images:1535
First:27.09.2025 11:27:07
Last:27.09.2025 22:06:44
Duration:10:39:37
</desc></wpt>
</gpx>