<?xml version='1.0' encoding='utf-8'?>
<gpx version="1.1" creator="Infofile GPX Generator">
<wpt lat = "25.03831" lon = "55.22470"><name>GSH1</name><desc>Double team
Images:5627
First:21.11.2025 14:22:30
Last:22.11.2025 16:55:39
Duration:1.02:33:09
</desc></wpt>
<wpt lat = "25.03806" lon = "55.22524"><name>MAMS1</name><desc>Cardio Club
Images:9286
First:22.11.2025 07:16:48
Last:22.11.2025 16:50:05
Duration:09:33:17
</desc></wpt>
<wpt lat = "25.03828" lon = "55.22502"><name>MAMS2</name><desc>Ceremony
Images:162
First:22.11.2025 17:05:01
Last:22.11.2025 17:30:14
Duration:00:25:13
</desc></wpt>
<wpt lat = "25.03852" lon = "55.22531"><name>MGOT1</name><desc>Divide & Conquer
Images:5411
First:22.11.2025 07:06:22
Last:22.11.2025 16:49:55
Duration:09:43:33
</desc></wpt>
<wpt lat = "25.03875" lon = "55.22261"><name>NIZ1</name><desc>Lift Heavy
Images:6252
First:21.11.2025 14:37:01
Last:22.11.2025 16:45:50
Duration:1.02:08:49
</desc></wpt>
<wpt lat = "25.03828" lon = "55.22502"><name>NIZ2</name><desc>Impressions / Pano
Images:35
First:22.11.2025 16:53:39
Last:22.11.2025 16:59:59
Duration:00:06:20
</desc></wpt>
<wpt lat = "25.03830" lon = "55.22494"><name>TELO1</name><desc>Hard Labour
Images:1937
First:22.11.2025 07:04:14
Last:22.11.2025 16:40:31
Duration:09:36:17
</desc></wpt>
</gpx>