<?xml version='1.0' encoding='utf-8'?>
<gpx version="1.1" creator="Infofile GPX Generator">
<wpt lat = "51.55269" lon = "-3.71454"><name>JUW1</name><desc>Start
Images:5882
First:22.06.2025 05:47:21
Last:22.06.2025 09:15:11
Duration:03:27:50
</desc></wpt>
<wpt lat = "51.64661" lon = "-3.76379"><name>DAWH1</name><desc>18.0 km
Images:16643
First:22.06.2025 06:54:56
Last:22.06.2025 10:28:12
Duration:03:33:16
</desc></wpt>
<wpt lat = "51.71884" lon = "-3.69100"><name>AHO1</name><desc>30.0 km
Images:9741
First:21.06.2025 23:31:27
Last:22.06.2025 10:57:30
Duration:11:26:03
</desc></wpt>
<wpt lat = "51.73334" lon = "-3.66545"><name>MALV1</name><desc>33.0 km
Images:11105
First:22.06.2025 07:25:57
Last:22.06.2025 11:24:04
Duration:03:58:07
</desc></wpt>
<wpt lat = "51.73334" lon = "-3.66545"><name>MALV1LS1</name><desc>33.0 km
Images:2510
First:22.06.2025 06:33:13
Last:22.06.2025 11:11:46
Duration:04:38:33
</desc></wpt>
<wpt lat = "51.76033" lon = "-3.60481"><name>COSU1</name><desc>40.0 km
Images:16859
First:22.06.2025 07:39:34
Last:22.06.2025 11:33:05
Duration:03:53:31
</desc></wpt>
<wpt lat = "51.76902" lon = "-3.61714"><name>RWA1</name><desc>41.0 km
Images:5301
First:22.06.2025 07:39:53
Last:22.06.2025 11:38:21
Duration:03:58:28
</desc></wpt>
<wpt lat = "51.84960" lon = "-3.84769"><name>KSTH1</name><desc>79.0 km
Images:4000
First:22.06.2025 10:38:07
Last:22.06.2025 15:12:15
Duration:04:34:08
</desc></wpt>
<wpt lat = "51.86203" lon = "-3.83667"><name>YCAN1</name><desc>81.0 km
Images:21082
First:22.06.2025 07:08:26
Last:22.06.2025 12:45:36
Duration:05:37:10
</desc></wpt>
<wpt lat = "51.86047" lon = "-3.64896"><name>RWA2</name><desc>198km, 107km, 56km
Images:4792
First:22.06.2025 12:32:26
Last:22.06.2025 17:01:12
Duration:04:28:46
</desc></wpt>
<wpt lat = "51.87307" lon = "-3.62961"><name>COSU2</name><desc>199km, 109km, 57km
Images:4636
First:22.06.2025 12:31:25
Last:22.06.2025 16:50:43
Duration:04:19:18
</desc></wpt>
<wpt lat = "51.71809" lon = "-3.56144"><name>KSTH2</name><desc>240km, 165km, 108km, 48km
Images:7138
First:22.06.2025 08:32:51
Last:22.06.2025 20:04:29
Duration:11:31:38
</desc></wpt>
<wpt lat = "51.71551" lon = "-3.56221"><name>YCAN2</name><desc>241km, 166km, 109km, 49km
Images:18419
First:22.06.2025 14:15:40
Last:22.06.2025 20:19:02
Duration:06:03:22
</desc></wpt>
<wpt lat = "51.64021" lon = "-3.53666"><name>AHO2</name><desc>260km, 180km, 119km, 63km
Images:11822
First:22.06.2025 13:00:02
Last:22.06.2025 20:44:04
Duration:07:44:02
</desc></wpt>
<wpt lat = "51.64069" lon = "-3.53867"><name>DAWH2</name><desc>261km, 181km, 120km, 64km
Images:11814
First:22.06.2025 11:40:17
Last:22.06.2025 20:45:05
Duration:09:04:48
</desc></wpt>
<wpt lat = "51.55269" lon = "-3.71454"><name>JUW2</name><desc>Finish
Images:9617
First:22.06.2025 10:42:46
Last:22.06.2025 21:14:57
Duration:10:32:11
</desc></wpt>
<wpt lat = "51.55269" lon = "-3.71454"><name>JUW2LS1</name><desc>Finish
Images:3078
First:22.06.2025 10:57:00
Last:22.06.2025 20:20:10
Duration:09:23:10
</desc></wpt>
<wpt lat = "51.55269" lon = "-3.71454"><name>JUW2LS2</name><desc>Finish
Images:3040
First:22.06.2025 10:57:43
Last:22.06.2025 20:21:06
Duration:09:23:23
</desc></wpt>
<wpt lat = "51.55269" lon = "-3.71454"><name>MALV2</name><desc>Finish
Images:8837
First:22.06.2025 12:40:36
Last:22.06.2025 21:35:02
Duration:08:54:26
</desc></wpt>
<wpt lat = "51.55269" lon = "-3.71454"><name>MALV2LS1</name><desc>Finish
Images:1273
First:22.06.2025 12:24:56
Last:22.06.2025 20:14:50
Duration:07:49:54
</desc></wpt>
</gpx>