<?xml version='1.0' encoding='utf-8'?>
<gpx version="1.1" creator="Infofile GPX Generator">
<wpt lat = "487.94224" lon = "825.94227"><name>FO1</name><desc>Ceremony
Images:157
First:01.11.2025 10:12:59
Last:01.11.2025 15:32:24
Duration:05:19:25
</desc></wpt>
<wpt lat = "-34.44839" lon = "-57.85218"><name>ABRE1</name><desc>Start
Images:428
First:02.11.2025 06:29:59
Last:02.11.2025 06:54:56
Duration:00:24:57
</desc></wpt>
<wpt lat = "-34.44839" lon = "-57.85218"><name>MATS1</name><desc>Start
Images:113
First:02.11.2025 06:31:59
Last:02.11.2025 06:54:43
Duration:00:22:44
</desc></wpt>
<wpt lat = "-34.44839" lon = "-57.85218"><name>FO2</name><desc>Start
Images:93
First:02.11.2025 06:20:01
Last:02.11.2025 06:46:26
Duration:00:26:25
</desc></wpt>
<wpt lat = "-34.44839" lon = "-57.85218"><name>ABRE3DRONE1</name><desc>Start
Images:83
First:02.11.2025 10:36:28
Last:02.11.2025 10:49:29
Duration:00:13:01
</desc></wpt>
<wpt lat = "-34.44839" lon = "-57.85218"><name>MATS1DRONE1</name><desc>Start
Images:98
First:02.11.2025 07:33:42
Last:02.11.2025 09:04:18
Duration:01:30:36
</desc></wpt>
<wpt lat = "-34.44839" lon = "-57.85218"><name>FO2DRONE1</name><desc>Start
Images:84
First:01.11.2025 10:47:31
Last:02.11.2025 07:55:47
Duration:21:08:16
</desc></wpt>
<wpt lat = "-34.30769" lon = "-57.86912"><name>MATS2</name><desc>25.0 km
Images:488
First:02.11.2025 07:32:16
Last:02.11.2025 08:11:27
Duration:00:39:11
</desc></wpt>
<wpt lat = "-34.21098" lon = "-57.88282"><name>ABRE2</name><desc>35.0 km
Images:724
First:02.11.2025 07:42:16
Last:02.11.2025 08:17:22
Duration:00:35:06
</desc></wpt>
<wpt lat = "-34.21098" lon = "-57.88282"><name>ABRE2LS1</name><desc>35.0 km
Images:535
First:02.11.2025 07:33:11
Last:02.11.2025 08:09:51
Duration:00:36:40
</desc></wpt>
<wpt lat = "-34.18766" lon = "-57.89780"><name>FO3</name><desc>90.0 km
Images:908
First:02.11.2025 07:53:25
Last:02.11.2025 08:21:41
Duration:00:28:16
</desc></wpt>
<wpt lat = "-34.43012" lon = "-57.86681"><name>FO4</name><desc>90.0 km
Images:905
First:02.11.2025 09:27:50
Last:02.11.2025 11:41:28
Duration:02:13:38
</desc></wpt>
<wpt lat = "-34.43739" lon = "-57.86586"><name>MATS3</name><desc>110.0 km
Images:1197
First:02.11.2025 08:45:07
Last:02.11.2025 11:43:40
Duration:02:58:33
</desc></wpt>
<wpt lat = "-34.44839" lon = "-57.85218"><name>ABRE3</name><desc>Finish
Images:1179
First:02.11.2025 09:24:12
Last:02.11.2025 12:06:40
Duration:02:42:28
</desc></wpt>
<wpt lat = "-34.44839" lon = "-57.85218"><name>ABRE3LS2</name><desc>Finish
Images:154
First:02.11.2025 09:19:07
Last:02.11.2025 11:57:07
Duration:02:38:00
</desc></wpt>
<wpt lat = "-34.44839" lon = "-57.85218"><name>ABRE3LS1</name><desc>Finish
Images:317
First:02.11.2025 09:08:17
Last:02.11.2025 11:57:38
Duration:02:49:21
</desc></wpt>
</gpx>