<?xml version='1.0' encoding='utf-8'?>
<gpx version="1.1" creator="Infofile GPX Generator">
<wpt lat = "51.77172" lon = "10.74429"><name>MFR1</name><desc>Start
Images:383
First:13.04.2025 09:27:07
Last:13.04.2025 11:02:17
Duration:01:35:10
</desc></wpt>
<wpt lat = "51.78858" lon = "10.78899"><name>CFMP1</name><desc>9.6 km Forstmeister-Schmidt-Weg
Images:3255
First:13.04.2025 09:29:23
Last:13.04.2025 11:33:49
Duration:02:04:26
</desc></wpt>
<wpt lat = "51.79172" lon = "10.77460"><name>CFMP2</name><desc>12.6 km Zillierbachtalsperre
Images:3779
First:13.04.2025 11:43:46
Last:13.04.2025 15:08:32
Duration:03:24:46
</desc></wpt>
<wpt lat = "51.80180" lon = "10.76451"><name>RYS1</name><desc>15.4 km Downhill Kurve
Images:1323
First:13.04.2025 09:44:12
Last:13.04.2025 12:16:12
Duration:02:32:00
</desc></wpt>
<wpt lat = "51.80180" lon = "10.76451"><name>RYS1LS1</name><desc>15.4 km Downhill Kurve
Images:1300
First:13.04.2025 09:08:45
Last:13.04.2025 12:30:11
Duration:03:21:26
</desc></wpt>
<wpt lat = "51.80180" lon = "10.76451"><name>RYS1LS2</name><desc>15.4 km Downhill Kurve
Images:1296
First:13.04.2025 09:21:43
Last:13.04.2025 12:51:33
Duration:03:29:50
</desc></wpt>
<wpt lat = "51.80766" lon = "10.76868"><name>RYS2</name><desc>16.2 km Kaltes Tal
Images:237
First:13.04.2025 13:11:37
Last:13.04.2025 15:17:11
Duration:02:05:34
</desc></wpt>
<wpt lat = "51.80766" lon = "10.76868"><name>RYS2LS1</name><desc>16.2 km Kaltes Tal
Images:796
First:13.04.2025 12:39:20
Last:13.04.2025 15:25:23
Duration:02:46:03
</desc></wpt>
<wpt lat = "51.80766" lon = "10.76868"><name>RYS2LS2</name><desc>16.2 km Kaltes Tal
Images:709
First:13.04.2025 12:53:11
Last:13.04.2025 15:22:44
Duration:02:29:33
</desc></wpt>
<wpt lat = "51.78763" lon = "10.75052"><name>LEM2</name><desc>21.5 km Downhill S-Kurve
Images:1195
First:13.04.2025 12:47:24
Last:13.04.2025 16:09:12
Duration:03:21:48
</desc></wpt>
<wpt lat = "51.78763" lon = "10.75052"><name>LEM2LS1</name><desc>21.5 km Downhill S-Kurve
Images:627
First:13.04.2025 12:34:00
Last:13.04.2025 15:41:04
Duration:03:07:04
</desc></wpt>
<wpt lat = "51.78763" lon = "10.75052"><name>LEM2LS2</name><desc>21.5 km Downhill S-Kurve
Images:593
First:13.04.2025 12:34:36
Last:13.04.2025 15:41:03
Duration:03:06:27
</desc></wpt>
<wpt lat = "51.78498" lon = "10.74896"><name>LEM1</name><desc>21.9 km Hüttesteig
Images:1475
First:13.04.2025 10:17:03
Last:13.04.2025 12:17:09
Duration:02:00:06
</desc></wpt>
<wpt lat = "51.78498" lon = "10.74896"><name>LEM1LS1</name><desc>21.9 km Hüttesteig
Images:602
First:13.04.2025 09:33:50
Last:13.04.2025 12:19:40
Duration:02:45:50
</desc></wpt>
<wpt lat = "51.78498" lon = "10.74896"><name>LEM1LS2</name><desc>21.9 km Hüttesteig
Images:605
First:13.04.2025 10:38:32
Last:13.04.2025 12:19:03
Duration:01:40:31
</desc></wpt>
<wpt lat = "51.77098" lon = "10.73950"><name>MFR3</name><desc>24.4 km Drei Annen Hohne
Images:942
First:13.04.2025 11:12:35
Last:13.04.2025 12:28:18
Duration:01:15:43
</desc></wpt>
<wpt lat = "51.77098" lon = "10.73950"><name>MFR3LS1</name><desc>24.4 km Drei Annen Hohne
Images:362
First:13.04.2025 10:39:55
Last:13.04.2025 12:28:58
Duration:01:49:03
</desc></wpt>
<wpt lat = "51.77172" lon = "10.74429"><name>MFR2</name><desc>Finish
Images:1262
First:13.04.2025 12:54:39
Last:13.04.2025 15:51:31
Duration:02:56:52
</desc></wpt>
<wpt lat = "51.77172" lon = "10.74429"><name>MFR2LS1</name><desc>Finish
Images:1487
First:13.04.2025 12:43:46
Last:13.04.2025 15:51:35
Duration:03:07:49
</desc></wpt>
<wpt lat = "51.78763" lon = "10.75052"><name>LEM1DRONE1</name><desc>Impressions / Pano
Images:19
First:13.04.2025 09:50:10
Last:13.04.2025 14:41:35
Duration:04:51:25
</desc></wpt>
</gpx>