<?xml version='1.0' encoding='utf-8'?>
<gpx version="1.1" creator="Infofile GPX Generator">
<wpt lat = "28.61574" lon = "-17.83409"><name>AFGA1</name><desc>Generales Maratón
Images:38
First:10.05.2025 05:42:15
Last:10.05.2025 06:39:39
Duration:00:57:24
</desc></wpt>
<wpt lat = "28.46311" lon = "-17.84477"><name>ABAB1</name><desc>Km - 2 Ultra
Images:536
First:09.05.2025 21:45:14
Last:10.05.2025 06:22:39
Duration:08:37:25
</desc></wpt>
<wpt lat = "28.48649" lon = "-17.85154"><name>JMGJ1</name><desc>Km - 6 Ultra / Km - 6 Media Maratón
Images:1776
First:10.05.2025 06:34:20
Last:10.05.2025 08:53:39
Duration:02:19:19
</desc></wpt>
<wpt lat = "28.51803" lon = "-17.83577"><name>JLTG1</name><desc>Km - 10 Ultra / Km - 10 Media Maratón
Images:2169
First:10.05.2025 06:47:20
Last:10.05.2025 10:31:47
Duration:03:44:27
</desc></wpt>
<wpt lat = "28.51911" lon = "-17.83476"><name>JIA1</name><desc>Km - 10,5 Ultra / Km - 10,5 Media Maratón
Images:2306
First:10.05.2025 06:54:25
Last:10.05.2025 10:18:17
Duration:03:23:52
</desc></wpt>
<wpt lat = "28.61263" lon = "-17.83605"><name>AFGA2</name><desc>Km - 23 Ultra
Images:1166
First:10.05.2025 08:41:41
Last:10.05.2025 09:34:18
Duration:00:52:37
</desc></wpt>
<wpt lat = "28.61385" lon = "-17.83631"><name>AFGA3</name><desc>Meta Media Maratón
Images:1918
First:10.05.2025 10:16:00
Last:10.05.2025 13:41:10
Duration:03:25:10
</desc></wpt>
<wpt lat = "28.61385" lon = "-17.83631"><name>AFGA3LS1</name><desc>Meta Media Maratón
Images:1478
First:10.05.2025 08:18:58
Last:10.05.2025 13:51:27
Duration:05:32:29
</desc></wpt>
<wpt lat = "28.7543" lon = "-17.85353"><name>MANR1</name><desc>Km - 48 Ultra / Km - 22 Maraton
Images:5183
First:10.05.2025 07:46:36
Last:10.05.2025 16:36:30
Duration:08:49:54
</desc></wpt>
<wpt lat = "28.65401" lon = "-17.94905"><name>JLTG2</name><desc>Km - 67,5 Ultra / Km - 42 Maraton
Images:1273
First:10.05.2025 13:00:27
Last:10.05.2025 21:59:44
Duration:08:59:17
</desc></wpt>
<wpt lat = "28.65401" lon = "-17.94905"><name>JLTG2LS2</name><desc>Km - 67,5 Ultra / Km - 42 Maraton
Images:1085
First:10.05.2025 14:21:22
Last:10.05.2025 20:15:08
Duration:05:53:46
</desc></wpt>
<wpt lat = "28.65401" lon = "-17.94905"><name>JLTG2LS1</name><desc>Km - 67,5 Ultra / Km - 42 Maraton
Images:1225
First:10.05.2025 13:15:44
Last:10.05.2025 20:40:19
Duration:07:24:35
</desc></wpt>
<wpt lat = "28.65365" lon = "-17.9492"><name>JIA2</name><desc>Km - 67,8 Ultra / Km - 42,3 Maraton
Images:1248
First:10.05.2025 13:21:47
Last:10.05.2025 21:00:02
Duration:07:38:15
</desc></wpt>
<wpt lat = "28.65872" lon = "-17.91309"><name>ABAB2</name><desc>Meta Maratón
Images:5121
First:10.05.2025 08:18:58
Last:10.05.2025 17:07:49
Duration:08:48:51
</desc></wpt>
<wpt lat = "28.65872" lon = "-17.91309"><name>ABAB3</name><desc>Meta Ultra
Images:541
First:10.05.2025 18:09:55
Last:10.05.2025 21:23:48
Duration:03:13:53
</desc></wpt>
<wpt lat = "28.65872" lon = "-17.91309"><name>AFGA4</name><desc>Meta Ultra
Images:1369
First:10.05.2025 17:13:44
Last:10.05.2025 21:45:51
Duration:04:32:07
</desc></wpt>
<wpt lat = "28.65872" lon = "-17.91309"><name>JMGJ2</name><desc>Meta Ultra
Images:2161
First:10.05.2025 11:35:32
Last:10.05.2025 21:56:07
Duration:10:20:35
</desc></wpt>
<wpt lat = "28.65872" lon = "-17.91309"><name>JMGJ2LS1</name><desc>Meta Ultra
Images:1291
First:10.05.2025 03:01:36
Last:10.05.2025 09:55:52
Duration:06:54:16
</desc></wpt>
<wpt lat = "28.65146" lon = "-17.9466"><name>MANR1DRONE1</name><desc>Impressions / Pano
Images:13
First:08.05.2025 09:49:30
Last:09.05.2025 16:56:15
Duration:1.07:06:45
</desc></wpt>
</gpx>