<?xml version='1.0' encoding='utf-8'?>
<gpx version="1.1" creator="Infofile GPX Generator">
<wpt lat = "50.84597" lon = "4.36577"><name>ACCA1</name><desc>Start
Images:2356
First:13.04.2025 08:15:37
Last:13.04.2025 10:47:24
Duration:02:31:47
</desc></wpt>
<wpt lat = "50.84597" lon = "4.36577"><name>LMC1</name><desc>Start
Images:5018
First:13.04.2025 09:00:50
Last:13.04.2025 10:45:31
Duration:01:44:41
</desc></wpt>
<wpt lat = "50.83897" lon = "4.40049"><name>PBO1</name><desc>3,44 km
Images:5371
First:12.04.2025 19:03:25
Last:13.04.2025 11:05:12
Duration:16:01:47
</desc></wpt>
<wpt lat = "50.83897" lon = "4.40049"><name>TID1</name><desc>3,44 km
Images:3743
First:13.04.2025 09:47:06
Last:13.04.2025 11:05:12
Duration:01:18:06
</desc></wpt>
<wpt lat = "50.83897" lon = "4.40049"><name>TID1LS1</name><desc>3,44 km
Images:2491
First:13.04.2025 09:41:02
Last:13.04.2025 11:05:07
Duration:01:24:05
</desc></wpt>
<wpt lat = "50.82748" lon = "4.52242"><name>YHA1</name><desc>13,28 km
Images:2553
First:13.04.2025 07:52:53
Last:13.04.2025 12:26:53
Duration:04:34:00
</desc></wpt>
<wpt lat = "50.83244" lon = "4.53602"><name>TOG1</name><desc>14,80 km
Images:11470
First:12.04.2025 09:27:00
Last:13.04.2025 12:36:01
Duration:1.03:09:01
</desc></wpt>
<wpt lat = "50.83244" lon = "4.53602"><name>TOG1LS1</name><desc>14,80 km
Images:4495
First:13.04.2025 10:14:28
Last:13.04.2025 12:36:03
Duration:02:21:35
</desc></wpt>
<wpt lat = "50.83244" lon = "4.53602"><name>TOG1LS2</name><desc>14,80 km
Images:3401
First:13.04.2025 10:19:08
Last:13.04.2025 12:36:03
Duration:02:16:55
</desc></wpt>
<wpt lat = "50.83220" lon = "4.53782"><name>NWO1</name><desc>14,83 km
Images:4955
First:12.04.2025 11:16:23
Last:13.04.2025 12:35:34
Duration:1.01:19:11
</desc></wpt>
<wpt lat = "50.83220" lon = "4.53782"><name>NWO1LS1</name><desc>14,83 km
Images:4858
First:13.04.2025 10:22:07
Last:13.04.2025 12:37:27
Duration:02:15:20
</desc></wpt>
<wpt lat = "50.83220" lon = "4.53782"><name>NWO1LS2</name><desc>14,83 km
Images:4878
First:13.04.2025 10:13:31
Last:13.04.2025 12:36:21
Duration:02:22:50
</desc></wpt>
<wpt lat = "50.86787" lon = "4.68010"><name>DPH1</name><desc>28,69 km
Images:12886
First:13.04.2025 11:41:24
Last:13.04.2025 15:17:15
Duration:03:35:51
</desc></wpt>
<wpt lat = "50.86787" lon = "4.68010"><name>MARSC1</name><desc>28,69 km
Images:13671
First:13.04.2025 11:00:45
Last:13.04.2025 14:34:59
Duration:03:34:14
</desc></wpt>
<wpt lat = "50.87624" lon = "4.70046"><name>FVE1</name><desc>32,45 km
Images:5786
First:13.04.2025 10:09:45
Last:13.04.2025 15:09:39
Duration:04:59:54
</desc></wpt>
<wpt lat = "50.87624" lon = "4.70046"><name>KO1</name><desc>32,45 km
Images:2322
First:13.04.2025 11:54:45
Last:13.04.2025 15:10:49
Duration:03:16:04
</desc></wpt>
<wpt lat = "50.87919" lon = "4.70201"><name>MOKU1</name><desc>33,10 km
Images:12763
First:12.04.2025 10:17:54
Last:13.04.2025 15:13:03
Duration:1.04:55:09
</desc></wpt>
<wpt lat = "50.87919" lon = "4.70201"><name>MOKU1LS1</name><desc>33,10 km
Images:5458
First:12.04.2025 10:19:41
Last:13.04.2025 15:13:23
Duration:1.04:53:42
</desc></wpt>
<wpt lat = "50.87919" lon = "4.70201"><name>MOKU1LS2</name><desc>33,10 km
Images:7645
First:13.04.2025 08:22:14
Last:13.04.2025 15:19:17
Duration:06:57:03
</desc></wpt>
<wpt lat = "50.87919" lon = "4.70201"><name>IWI1</name><desc>33,10 km
Images:18945
First:12.04.2025 09:41:59
Last:13.04.2025 15:12:45
Duration:1.05:30:46
</desc></wpt>
<wpt lat = "50.88005" lon = "4.70012"><name>BENP1</name><desc>33,27 km
Images:13870
First:12.04.2025 10:04:30
Last:13.04.2025 15:14:11
Duration:1.05:09:41
</desc></wpt>
<wpt lat = "50.88005" lon = "4.70012"><name>WIP1</name><desc>33,27 km
Images:6918
First:13.04.2025 11:56:11
Last:13.04.2025 15:15:11
Duration:03:19:00
</desc></wpt>
<wpt lat = "50.88038" lon = "4.70984"><name>JTA1</name><desc>39,5 km
Images:4969
First:13.04.2025 11:59:59
Last:13.04.2025 16:16:37
Duration:04:16:38
</desc></wpt>
<wpt lat = "50.88038" lon = "4.70984"><name>KMC1</name><desc>39,5 km
Images:6548
First:12.04.2025 09:59:13
Last:13.04.2025 16:17:13
Duration:1.06:18:00
</desc></wpt>
<wpt lat = "50.88111" lon = "4.71447"><name>DECO1</name><desc>40 km
Images:9668
First:12.04.2025 10:03:23
Last:13.04.2025 16:19:54
Duration:1.06:16:31
</desc></wpt>
<wpt lat = "50.88111" lon = "4.71447"><name>GAC1</name><desc>40 km
Images:22259
First:12.04.2025 10:14:33
Last:13.04.2025 16:19:51
Duration:1.06:05:18
</desc></wpt>
<wpt lat = "50.87791" lon = "4.70675"><name>GST1</name><desc>40,85 km
Images:8730
First:12.04.2025 09:53:16
Last:13.04.2025 16:28:49
Duration:1.06:35:33
</desc></wpt>
<wpt lat = "50.87791" lon = "4.70675"><name>KFK1</name><desc>40,85 km
Images:9502
First:13.04.2025 12:20:18
Last:13.04.2025 16:27:31
Duration:04:07:13
</desc></wpt>
<wpt lat = "50.86943" lon = "4.70896"><name>SDT1</name><desc>Finish
Images:4063
First:13.04.2025 12:24:33
Last:13.04.2025 16:18:19
Duration:03:53:46
</desc></wpt>
<wpt lat = "50.86943" lon = "4.70896"><name>SDT1LS1</name><desc>Finish
Images:6389
First:13.04.2025 12:01:05
Last:13.04.2025 16:21:02
Duration:04:19:57
</desc></wpt>
<wpt lat = "50.86943" lon = "4.70896"><name>SDT1LS2</name><desc>Finish
Images:5455
First:13.04.2025 12:01:06
Last:13.04.2025 16:20:02
Duration:04:18:56
</desc></wpt>
<wpt lat = "50.86943" lon = "4.70896"><name>SIL1</name><desc>Finish
Images:18809
First:12.04.2025 09:41:30
Last:13.04.2025 16:40:35
Duration:1.06:59:05
</desc></wpt>
</gpx>