<?xml version='1.0' encoding='utf-8'?>
<gpx version="1.1" creator="Infofile GPX Generator">
<wpt lat = "29.95125" lon = "-90.06649"><name>GPCON1</name><desc>1.0 mi N Peters & Canal St.
Images:3790
First:19.04.2025 07:26:48
Last:19.04.2025 09:10:21
Duration:01:43:33
</desc></wpt>
<wpt lat = "29.95125" lon = "-90.06649"><name>GRAON1</name><desc>1.0 mi N Peters & Canal St.
Images:293
First:19.04.2025 08:04:36
Last:19.04.2025 08:51:06
Duration:00:46:30
</desc></wpt>
<wpt lat = "29.95125" lon = "-90.06649"><name>GRAON2</name><desc>1.0 mi N Peters & Canal St.
Images:2618
First:19.04.2025 08:05:24
Last:19.04.2025 09:10:35
Duration:01:05:11
</desc></wpt>
<wpt lat = "29.95125" lon = "-90.06649"><name>GAVON1</name><desc>1.0 mi N Peters & Canal St.
Images:3309
First:19.04.2025 08:04:29
Last:19.04.2025 09:09:55
Duration:01:05:26
</desc></wpt>
<wpt lat = "29.95125" lon = "-90.06649"><name>GLSON1</name><desc>1.0 mi N Peters & Canal St.
Images:2321
First:19.04.2025 07:04:31
Last:19.04.2025 09:10:21
Duration:02:05:50
</desc></wpt>
<wpt lat = "29.95757" lon = "-90.06354"><name>GDTTW1</name><desc>1.5 mi Jackson Square
Images:8188
First:19.04.2025 08:07:01
Last:19.04.2025 09:27:30
Duration:01:20:29
</desc></wpt>
<wpt lat = "29.95757" lon = "-90.06354"><name>GTPTW1</name><desc>1.5 mi Jackson Square
Images:4719
First:18.04.2025 19:35:09
Last:18.04.2025 21:11:34
Duration:01:36:25
</desc></wpt>
<wpt lat = "29.95757" lon = "-90.06354"><name>GLBTW1</name><desc>1.5 mi Jackson Square
Images:5851
First:18.04.2025 08:49:12
Last:18.04.2025 10:23:41
Duration:01:34:29
</desc></wpt>
<wpt lat = "29.95757" lon = "-90.06354"><name>GLSTW1</name><desc>1.5 mi Jackson Square
Images:4643
First:19.04.2025 19:33:09
Last:19.04.2025 21:23:33
Duration:01:50:24
</desc></wpt>
<wpt lat = "29.98401" lon = "-90.09062"><name>GJHTH1</name><desc>4.3 mi Esplanade Ave & N Carrollton Ave
Images:5518
First:19.04.2025 08:21:41
Last:19.04.2025 10:49:48
Duration:02:28:07
</desc></wpt>
<wpt lat = "29.98401" lon = "-90.09062"><name>GEVTH1</name><desc>4.3 mi Esplanade Ave & N Carrollton Ave
Images:4806
First:19.04.2025 08:21:16
Last:19.04.2025 09:32:29
Duration:01:11:13
</desc></wpt>
<wpt lat = "29.98401" lon = "-90.09062"><name>GEVTH2</name><desc>4.3 mi Esplanade Ave & N Carrollton Ave
Images:2521
First:19.04.2025 09:34:10
Last:19.04.2025 10:44:34
Duration:01:10:24
</desc></wpt>
<wpt lat = "29.98401" lon = "-90.09062"><name>GJLTH1</name><desc>4.3 mi Esplanade Ave & N Carrollton Ave
Images:8256
First:19.04.2025 08:21:25
Last:19.04.2025 10:49:33
Duration:02:28:08
</desc></wpt>
<wpt lat = "29.98511" lon = "-90.09195"><name>GISMA1</name><desc>6.0 mi overhead camera
Images:12229
First:19.04.2025 08:06:21
Last:19.04.2025 09:50:40
Duration:01:44:19
</desc></wpt>
<wpt lat = "29.98511" lon = "-90.09195"><name>GISMA2</name><desc>6.0 mi overhead camera
Images:10411
First:19.04.2025 09:51:43
Last:19.04.2025 11:30:09
Duration:01:38:26
</desc></wpt>
<wpt lat = "29.98511" lon = "-90.09195"><name>GFRMA1</name><desc>6.0 mi overhead camera
Images:23685
First:19.04.2025 08:30:46
Last:19.04.2025 11:35:37
Duration:03:04:51
</desc></wpt>
<wpt lat = "29.98511" lon = "-90.09195"><name>GLSMA1</name><desc>6.0 mi overhead camera
Images:10737
First:19.04.2025 08:37:43
Last:19.04.2025 12:29:50
Duration:03:52:07
</desc></wpt>
<wpt lat = "29.98569" lon = "-90.09278"><name>GJMPF1</name><desc>6.1 mi Lelong Dr
Images:9540
First:19.04.2025 08:07:17
Last:19.04.2025 11:40:55
Duration:03:33:38
</desc></wpt>
<wpt lat = "29.98569" lon = "-90.09278"><name>GJCPF1</name><desc>6.1 mi Lelong Dr
Images:10668
First:19.04.2025 07:11:55
Last:19.04.2025 10:30:42
Duration:03:18:47
</desc></wpt>
<wpt lat = "29.98569" lon = "-90.09278"><name>GRBPF1</name><desc>6.1 mi Lelong Dr
Images:8138
First:19.04.2025 07:56:49
Last:19.04.2025 11:29:38
Duration:03:32:49
</desc></wpt>
<wpt lat = "29.98569" lon = "-90.09278"><name>GRAPF1</name><desc>6.1 mi Lelong Dr
Images:826
First:19.04.2025 10:12:28
Last:19.04.2025 10:59:18
Duration:00:46:50
</desc></wpt>
<wpt lat = "29.98569" lon = "-90.09278"><name>GLSPR1</name><desc>6.2 mi Lelong Dr
Images:11809
First:19.04.2025 07:51:00
Last:19.04.2025 12:40:13
Duration:04:49:13
</desc></wpt>
<wpt lat = "29.98569" lon = "-90.09278"><name>GLSPL1</name><desc>6.2 mi Lelong Dr
Images:12210
First:01.01.0001 23:00:00
Last:19.04.2025 08:05:23
Duration:739358.09:05:23
</desc></wpt>
<wpt lat = "29.98588" lon = "-90.09304"><name>GGGFN1</name><desc>Finish
Images:14594
First:19.04.2025 07:56:31
Last:19.04.2025 10:44:34
Duration:02:48:03
</desc></wpt>
<wpt lat = "29.98588" lon = "-90.09304"><name>GGGFN2</name><desc>Finish
Images:2144
First:19.04.2025 10:46:16
Last:19.04.2025 11:33:00
Duration:00:46:44
</desc></wpt>
<wpt lat = "29.98588" lon = "-90.09304"><name>GAWFN1</name><desc>Finish
Images:7787
First:19.04.2025 06:57:09
Last:19.04.2025 10:31:27
Duration:03:34:18
</desc></wpt>
<wpt lat = "29.98588" lon = "-90.09304"><name>GRAFN1</name><desc>Finish
Images:330
First:19.04.2025 11:00:40
Last:19.04.2025 11:29:08
Duration:00:28:28
</desc></wpt>
<wpt lat = "29.98588" lon = "-90.09304"><name>GLSFR1</name><desc>Finish
Images:11368
First:19.04.2025 07:20:25
Last:19.04.2025 11:34:30
Duration:04:14:05
</desc></wpt>
<wpt lat = "29.98588" lon = "-90.09304"><name>GLSFL1</name><desc>Finish
Images:10896
First:19.04.2025 08:29:17
Last:19.04.2025 11:33:48
Duration:03:04:31
</desc></wpt>
<wpt lat = "29.98588" lon = "-90.09304"><name>GCBME1</name><desc>Finish
Images:6168
First:19.04.2025 07:12:52
Last:19.04.2025 10:17:54
Duration:03:05:02
</desc></wpt>
<wpt lat = "29.98588" lon = "-90.09304"><name>GCOME1</name><desc>Finish
Images:1517
First:19.04.2025 07:58:53
Last:19.04.2025 11:44:05
Duration:03:45:12
</desc></wpt>
<wpt lat = "29.98588" lon = "-90.09304"><name>GPNME1</name><desc>Finish
Images:1632
First:19.04.2025 07:27:12
Last:19.04.2025 11:34:50
Duration:04:07:38
</desc></wpt>
<wpt lat = "29.98588" lon = "-90.09304"><name>GARME1</name><desc>Finish
Images:371
First:19.04.2025 06:51:50
Last:19.04.2025 08:58:46
Duration:02:06:56
</desc></wpt>
<wpt lat = "29.98588" lon = "-90.09304"><name>GCWME1</name><desc>Finish
Images:2195
First:19.04.2025 08:38:33
Last:19.04.2025 11:36:40
Duration:02:58:07
</desc></wpt>
<wpt lat = "29.98588" lon = "-90.09304"><name>GMLME1</name><desc>Finish
Images:1805
First:18.03.2025 21:48:35
Last:19.03.2025 01:18:39
Duration:03:30:04
</desc></wpt>
<wpt lat = "29.98588" lon = "-90.09304"><name>GCMME1</name><desc>Finish
Images:1681
First:19.04.2025 09:19:19
Last:19.04.2025 12:29:27
Duration:03:10:08
</desc></wpt>
<wpt lat = "29.98588" lon = "-90.09304"><name>GRWME1</name><desc>Finish
Images:1134
First:18.04.2025 19:02:41
Last:18.04.2025 22:38:47
Duration:03:36:06
</desc></wpt>
<wpt lat = "29.98588" lon = "-90.09304"><name>GTHME1</name><desc>Finish
Images:904
First:19.04.2025 08:44:38
Last:19.04.2025 11:20:19
Duration:02:35:41
</desc></wpt>
<wpt lat = "29.98588" lon = "-90.09304"><name>GBPME1</name><desc>Finish
Images:722
First:18.04.2025 20:56:24
Last:18.04.2025 23:52:49
Duration:02:56:25
</desc></wpt>
<wpt lat = "29.98880" lon = "-90.09041"><name>GRAOT1</name><desc>Finish
Images:518
First:19.04.2025 10:39:01
Last:19.04.2025 12:07:23
Duration:01:28:22
</desc></wpt>
</gpx>