<?xml version='1.0' encoding='utf-8'?>
<gpx version="1.1" creator="Infofile GPX Generator">
<wpt lat = "59.34289" lon = "18.08112"><name>GFELI2</name><desc>12,5 km Royal College of Music
Images:4680
First:31.05.2025 13:18:28
Last:31.05.2025 14:11:39
Duration:00:53:11
</desc></wpt>
<wpt lat = "59.34289" lon = "18.08112"><name>GIWI2</name><desc>12,5 km Royal College of Music
Images:1877
First:31.05.2025 13:20:03
Last:31.05.2025 14:15:34
Duration:00:55:31
</desc></wpt>
<wpt lat = "59.34289" lon = "18.08112"><name>JSBLO2</name><desc>12,5 km Royal College of Music
Images:3012
First:31.05.2025 13:22:46
Last:31.05.2025 14:12:46
Duration:00:50:00
</desc></wpt>
<wpt lat = "59.34289" lon = "18.08112"><name>MBIAN2</name><desc>12,5 km Royal College of Music
Images:4051
First:31.05.2025 13:16:37
Last:31.05.2025 14:02:58
Duration:00:46:21
</desc></wpt>
<wpt lat = "59.34259" lon = "18.05688"><name>DTIDE1</name><desc>2,0 km Observatory
Images:4440
First:31.05.2025 12:06:07
Last:31.05.2025 13:17:18
Duration:01:11:11
</desc></wpt>
<wpt lat = "59.34259" lon = "18.05688"><name>DTIDE1LS1</name><desc>2,0 km Observatory
Images:1672
First:31.05.2025 12:06:23
Last:31.05.2025 12:34:12
Duration:00:27:49
</desc></wpt>
<wpt lat = "59.34259" lon = "18.05688"><name>GFELI1</name><desc>2,0 km Observatory
Images:3092
First:31.05.2025 12:04:04
Last:31.05.2025 12:36:03
Duration:00:31:59
</desc></wpt>
<wpt lat = "59.34259" lon = "18.05688"><name>GIWI1</name><desc>2,0 km Observatory
Images:1346
First:31.05.2025 11:44:46
Last:31.05.2025 12:36:14
Duration:00:51:28
</desc></wpt>
<wpt lat = "59.34259" lon = "18.05688"><name>JSBLO1</name><desc>2,0 km Observatory
Images:2624
First:31.05.2025 12:05:55
Last:31.05.2025 12:38:45
Duration:00:32:50
</desc></wpt>
<wpt lat = "59.34496" lon = "18.07890"><name>MBIAN1</name><desc>2,0 km Observatory
Images:3115
First:31.05.2025 11:17:19
Last:31.05.2025 12:34:50
Duration:01:17:31
</desc></wpt>
<wpt lat = "59.33175" lon = "18.09349"><name>GSHER1</name><desc>21,0 km City Park Bridge
Images:17393
First:31.05.2025 12:20:50
Last:31.05.2025 17:43:20
Duration:05:22:30
</desc></wpt>
<wpt lat = "59.33175" lon = "18.09349"><name>GSHER2</name><desc>21,0 km City Park Bridge
Images:19398
First:31.05.2025 13:15:07
Last:31.05.2025 15:08:46
Duration:01:53:39
</desc></wpt>
<wpt lat = "59.33175" lon = "18.09349"><name>AASAN1</name><desc>21.0 km City Park Bridge
Images:7035
First:31.05.2025 14:03:46
Last:31.05.2025 17:47:15
Duration:03:43:29
</desc></wpt>
<wpt lat = "59.33175" lon = "18.09349"><name>AASAN2</name><desc>21.0 km City Park Bridge
Images:3620
First:31.05.2025 12:13:21
Last:31.05.2025 14:02:27
Duration:01:49:06
</desc></wpt>
<wpt lat = "59.32713" lon = "18.03789"><name>GOLGA2</name><desc>31,0 km Kungsholmen
Images:5186
First:31.05.2025 14:20:54
Last:31.05.2025 17:01:02
Duration:02:40:08
</desc></wpt>
<wpt lat = "59.32713" lon = "18.03789"><name>ASARA2</name><desc>31.0 km Kungsholmen
Images:18887
First:31.05.2025 13:36:03
Last:31.05.2025 17:01:24
Duration:03:25:21
</desc></wpt>
<wpt lat = "59.32713" lon = "18.03789"><name>ASARA2LS1</name><desc>31.0 km Kungsholmen
Images:7989
First:31.05.2025 13:42:21
Last:31.05.2025 16:46:57
Duration:03:04:36
</desc></wpt>
<wpt lat = "59.33913" lon = "18.03967"><name>GBEN2</name><desc>33,5 km St. Eriksplan
Images:11472
First:31.05.2025 13:04:22
Last:31.05.2025 17:20:54
Duration:04:16:32
</desc></wpt>
<wpt lat = "59.33913" lon = "18.03967"><name>GFRAN2</name><desc>33,5 km St. Eriksplan
Images:5506
First:31.05.2025 13:43:22
Last:31.05.2025 15:28:58
Duration:01:45:36
</desc></wpt>
<wpt lat = "59.33913" lon = "18.03967"><name>GFRAN3</name><desc>33,5 km St. Eriksplan
Images:4638
First:31.05.2025 15:28:59
Last:31.05.2025 17:15:43
Duration:01:46:44
</desc></wpt>
<wpt lat = "59.33913" lon = "18.03967"><name>GHUGO1</name><desc>33,5 km St. Eriksplan
Images:22684
First:31.05.2025 11:54:13
Last:31.05.2025 17:17:39
Duration:05:23:26
</desc></wpt>
<wpt lat = "59.32861" lon = "18.06957"><name>AFAB2</name><desc>37.5 km Norrbro Bridge
Images:28760
First:31.05.2025 13:56:37
Last:31.05.2025 17:08:50
Duration:03:12:13
</desc></wpt>
<wpt lat = "59.32861" lon = "18.06957"><name>AFAB3</name><desc>37.5 km Norrbro Bridge
Images:2387
First:31.05.2025 17:12:36
Last:31.05.2025 17:58:23
Duration:00:45:47
</desc></wpt>
<wpt lat = "59.32861" lon = "18.06957"><name>AVAN1</name><desc>37.5 km Norrbro Bridge
Images:33419
First:31.05.2025 14:01:16
Last:31.05.2025 17:57:41
Duration:03:56:25
</desc></wpt>
<wpt lat = "59.32861" lon = "18.06957"><name>AVAN1LS1</name><desc>37.5 km Norrbro Bridge
Images:24906
First:31.05.2025 13:55:16
Last:31.05.2025 17:47:02
Duration:03:51:46
</desc></wpt>
<wpt lat = "59.32972" lon = "18.07143"><name>AMARC1LS1</name><desc>37.7 km Opera
Images:5382
First:31.05.2025 13:42:20
Last:31.05.2025 15:12:19
Duration:01:29:59
</desc></wpt>
<wpt lat = "59.32972" lon = "18.07143"><name>AMARC2</name><desc>37.7 km Opera
Images:10470
First:31.05.2025 13:43:56
Last:31.05.2025 15:08:51
Duration:01:24:55
</desc></wpt>
<wpt lat = "59.32972" lon = "18.07143"><name>AMARC2LS1</name><desc>37.7 km Opera
Images:11629
First:31.05.2025 12:30:21
Last:31.05.2025 18:05:11
Duration:05:34:50
</desc></wpt>
<wpt lat = "59.32972" lon = "18.07143"><name>ASAHA2</name><desc>37.7 km Opera
Images:11148
First:31.05.2025 13:39:18
Last:31.05.2025 18:02:48
Duration:04:23:30
</desc></wpt>
<wpt lat = "59.32972" lon = "18.07143"><name>AVICT2</name><desc>37.7 km Opera
Images:18854
First:31.05.2025 12:25:00
Last:31.05.2025 18:01:42
Duration:05:36:42
</desc></wpt>
<wpt lat = "59.33238" lon = "18.07717"><name>GJJON2</name><desc>38,5 km Royal Dramatic Theatre
Images:17950
First:31.05.2025 13:52:18
Last:31.05.2025 18:09:42
Duration:04:17:24
</desc></wpt>
<wpt lat = "59.33238" lon = "18.07717"><name>ADAVI2</name><desc>38.5 km Royal Dramatic Theatre
Images:13285
First:31.05.2025 14:04:28
Last:31.05.2025 18:08:47
Duration:04:04:19
</desc></wpt>
<wpt lat = "59.33238" lon = "18.07717"><name>AGBRA1</name><desc>38.5 km Royal Dramatic Theatre
Images:6921
First:31.05.2025 14:14:09
Last:31.05.2025 18:08:45
Duration:03:54:36
</desc></wpt>
<wpt lat = "59.33238" lon = "18.07717"><name>AGBRA2</name><desc>38.5 km Royal Dramatic Theatre
Images:18515
First:31.05.2025 14:18:01
Last:31.05.2025 16:49:59
Duration:02:31:58
</desc></wpt>
<wpt lat = "59.33238" lon = "18.07717"><name>AGBRA2LS2</name><desc>38.5 km Royal Dramatic Theatre
Images:7292
First:31.05.2025 04:28:34
Last:31.05.2025 18:10:19
Duration:13:41:45
</desc></wpt>
<wpt lat = "59.33238" lon = "18.07717"><name>AGBRA4</name><desc>38.5 km Royal Dramatic Theatre
Images:4946
First:31.05.2025 16:51:55
Last:31.05.2025 18:08:25
Duration:01:16:30
</desc></wpt>
<wpt lat = "59.33913" lon = "18.03967"><name>GBEN1</name><desc>4,5 km St. Eriksplan
Images:5190
First:31.05.2025 11:56:03
Last:31.05.2025 13:02:39
Duration:01:06:36
</desc></wpt>
<wpt lat = "59.33913" lon = "18.03967"><name>GFRAN1</name><desc>4,5 km St. Eriksplan
Images:3453
First:31.05.2025 12:05:30
Last:31.05.2025 13:03:07
Duration:00:57:37
</desc></wpt>
<wpt lat = "59.34566" lon = "18.07634"><name>DTIDE2</name><desc>42,0 km Stadium Entrance
Images:28470
First:31.05.2025 14:34:16
Last:31.05.2025 16:51:57
Duration:02:17:41
</desc></wpt>
<wpt lat = "59.34566" lon = "18.07634"><name>DTIDE2LS1</name><desc>42,0 km Stadium Entrance
Images:7661
First:31.05.2025 13:59:03
Last:31.05.2025 16:52:09
Duration:02:53:06
</desc></wpt>
<wpt lat = "59.34566" lon = "18.07634"><name>DTIDE2LS2</name><desc>42,0 km Stadium Entrance
Images:5730
First:31.05.2025 16:53:30
Last:31.05.2025 18:32:19
Duration:01:38:49
</desc></wpt>
<wpt lat = "59.34566" lon = "18.07634"><name>DTIDE3</name><desc>42,0 km Stadium Entrance
Images:250
First:31.05.2025 14:11:43
Last:31.05.2025 14:30:52
Duration:00:19:09
</desc></wpt>
<wpt lat = "59.34566" lon = "18.07634"><name>DTIDE4</name><desc>42,0 km Stadium Entrance
Images:14785
First:31.05.2025 16:55:57
Last:31.05.2025 18:49:56
Duration:01:53:59
</desc></wpt>
<wpt lat = "59.32680" lon = "18.04345"><name>GOLGA1</name><desc>6,6 km Kungsholmen
Images:3286
First:31.05.2025 12:19:38
Last:31.05.2025 14:20:53
Duration:02:01:15
</desc></wpt>
<wpt lat = "59.32680" lon = "18.04345"><name>ASARA1</name><desc>6.6 km Kungsholmen
Images:9459
First:31.05.2025 12:12:46
Last:31.05.2025 13:18:44
Duration:01:05:58
</desc></wpt>
<wpt lat = "59.32680" lon = "18.04345"><name>ASARA1LS1</name><desc>6.6 km Kungsholmen
Images:3067
First:31.05.2025 12:19:27
Last:31.05.2025 19:20:40
Duration:07:01:13
</desc></wpt>
<wpt lat = "59.32823" lon = "18.05748"><name>GJJON1</name><desc>7,5 km City Hall
Images:5933
First:31.05.2025 11:43:17
Last:31.05.2025 13:33:26
Duration:01:50:09
</desc></wpt>
<wpt lat = "59.32823" lon = "18.05748"><name>ADAVI1</name><desc>7.5 km City Hall
Images:5656
First:31.05.2025 12:23:18
Last:31.05.2025 13:26:03
Duration:01:02:45
</desc></wpt>
<wpt lat = "59.32823" lon = "18.05748"><name>AGBRA2LS1</name><desc>7.5 km City Hall
Images:3520
First:31.05.2025 12:18:01
Last:31.05.2025 13:21:19
Duration:01:03:18
</desc></wpt>
<wpt lat = "59.32823" lon = "18.05748"><name>AGBRA3</name><desc>7.5 km City Hall
Images:12057
First:31.05.2025 12:23:22
Last:31.05.2025 13:21:06
Duration:00:57:44
</desc></wpt>
<wpt lat = "59.32823" lon = "18.05748"><name>AGBRA3LS1</name><desc>7.5 km City Hall
Images:3581
First:31.05.2025 12:21:15
Last:31.05.2025 13:22:05
Duration:01:00:50
</desc></wpt>
<wpt lat = "59.32697" lon = "18.06929"><name>GVAN1</name><desc>8,5 km Gamla Stan
Images:17728
First:31.05.2025 12:00:49
Last:31.05.2025 13:33:20
Duration:01:32:31
</desc></wpt>
<wpt lat = "59.32697" lon = "18.06929"><name>GVAN1LS1</name><desc>8,5 km Gamla Stan
Images:7147
First:31.05.2025 12:24:23
Last:31.05.2025 13:38:11
Duration:01:13:48
</desc></wpt>
<wpt lat = "59.32697" lon = "18.06929"><name>AFAB1</name><desc>8.5 km Gamla Stan
Images:14280
First:31.05.2025 11:53:05
Last:31.05.2025 13:40:59
Duration:01:47:54
</desc></wpt>
<wpt lat = "59.32972" lon = "18.07143"><name>AMARC1</name><desc>9.0 km Opera
Images:20635
First:31.05.2025 12:26:24
Last:31.05.2025 18:01:07
Duration:05:34:43
</desc></wpt>
<wpt lat = "59.32972" lon = "18.07143"><name>ASAHA1</name><desc>9.0 km Opera
Images:4352
First:31.05.2025 12:26:27
Last:31.05.2025 13:32:25
Duration:01:05:58
</desc></wpt>
<wpt lat = "59.34496" lon = "18.07890"><name>ABKOD1</name><desc>Finish
Images:19498
First:31.05.2025 14:11:33
Last:31.05.2025 18:51:36
Duration:04:40:03
</desc></wpt>
<wpt lat = "59.34496" lon = "18.07890"><name>ABKOD1LS1</name><desc>Finish
Images:6923
First:31.05.2025 11:17:57
Last:31.05.2025 18:49:29
Duration:07:31:32
</desc></wpt>
<wpt lat = "59.34496" lon = "18.07890"><name>ACHIU1</name><desc>Finish
Images:1253
First:31.05.2025 14:13:36
Last:31.05.2025 18:15:29
Duration:04:01:53
</desc></wpt>
<wpt lat = "59.34496" lon = "18.07890"><name>ADARI1</name><desc>Finish
Images:1917
First:31.05.2025 14:13:20
Last:31.05.2025 18:29:27
Duration:04:16:07
</desc></wpt>
<wpt lat = "59.34496" lon = "18.07890"><name>AFELI1</name><desc>Finish
Images:2029
First:31.05.2025 17:10:09
Last:31.05.2025 18:48:05
Duration:01:37:56
</desc></wpt>
<wpt lat = "59.34496" lon = "18.07890"><name>AJERO1</name><desc>Finish
Images:4799
First:31.05.2025 17:12:44
Last:31.05.2025 18:51:42
Duration:01:38:58
</desc></wpt>
<wpt lat = "59.34496" lon = "18.07890"><name>AJSCO1</name><desc>Finish
Images:4799
First:31.05.2025 17:12:44
Last:31.05.2025 18:51:42
Duration:01:38:58
</desc></wpt>
<wpt lat = "59.34496" lon = "18.07890"><name>AJSCO1LS1</name><desc>Finish
Images:14544
First:31.05.2025 11:28:45
Last:31.05.2025 18:35:28
Duration:07:06:43
</desc></wpt>
<wpt lat = "59.34496" lon = "18.07890"><name>AMEHR1</name><desc>Finish
Images:2574
First:31.05.2025 13:22:59
Last:31.05.2025 18:11:49
Duration:04:48:50
</desc></wpt>
<wpt lat = "59.34496" lon = "18.07890"><name>AMICH1</name><desc>Finish
Images:4302
First:31.05.2025 17:01:35
Last:31.05.2025 18:43:59
Duration:01:42:24
</desc></wpt>
<wpt lat = "59.34496" lon = "18.07890"><name>AMICH2</name><desc>Finish
Images:9903
First:31.05.2025 11:16:41
Last:31.05.2025 17:00:41
Duration:05:44:00
</desc></wpt>
<wpt lat = "59.34496" lon = "18.07890"><name>ANAZI1</name><desc>Finish
Images:3186
First:04.05.2025 07:05:14
Last:31.05.2025 18:10:36
Duration:27.11:05:22
</desc></wpt>
<wpt lat = "59.34496" lon = "18.07890"><name>ASGEN1</name><desc>Finish
Images:14746
First:31.05.2025 14:36:13
Last:31.05.2025 18:43:14
Duration:04:07:01
</desc></wpt>
<wpt lat = "59.34496" lon = "18.07890"><name>ASGEN2</name><desc>Finish
Images:7070
First:31.05.2025 14:33:04
Last:31.05.2025 18:51:54
Duration:04:18:50
</desc></wpt>
<wpt lat = "59.34496" lon = "18.07890"><name>ASIMO1</name><desc>Finish
Images:3513
First:31.05.2025 12:17:51
Last:31.05.2025 17:59:03
Duration:05:41:12
</desc></wpt>
<wpt lat = "59.34496" lon = "18.07890"><name>ATHOM1</name><desc>Finish
Images:2715
First:31.05.2025 13:15:44
Last:31.05.2025 18:18:11
Duration:05:02:27
</desc></wpt>
<wpt lat = "59.34496" lon = "18.07890"><name>AVIRA1</name><desc>Finish
Images:5786
First:31.05.2025 13:17:56
Last:31.05.2025 17:56:25
Duration:04:38:29
</desc></wpt>
<wpt lat = "59.34496" lon = "18.07890"><name>GFELI3</name><desc>Finish
Images:5430
First:31.05.2025 14:29:15
Last:31.05.2025 17:08:45
Duration:02:39:30
</desc></wpt>
<wpt lat = "59.34496" lon = "18.07890"><name>GIWI3</name><desc>Finish
Images:7278
First:31.05.2025 14:34:13
Last:31.05.2025 18:51:38
Duration:04:17:25
</desc></wpt>
<wpt lat = "59.34496" lon = "18.07890"><name>JSBLO3</name><desc>Finish
Images:14423
First:31.05.2025 14:36:13
Last:31.05.2025 17:09:57
Duration:02:33:44
</desc></wpt>
</gpx>