<?xml version='1.0' encoding='utf-8'?>
<gpx version="1.1" creator="Infofile GPX Generator">
<wpt lat = "50.17462" lon = "4.40218"><name>BAR1</name><desc>11.0 km
Images:615
First:20.04.2025 08:04:53
Last:20.04.2025 09:52:42
Duration:01:47:49
</desc></wpt>
<wpt lat = "50.15099" lon = "4.39419"><name>BAR2</name><desc>6.0 km before finish
Images:5443
First:20.04.2025 11:00:33
Last:20.04.2025 15:32:04
Duration:04:31:31
</desc></wpt>
<wpt lat = "50.17149" lon = "4.38222"><name>BC1</name><desc>9.5 km
Images:1074
First:20.04.2025 07:41:15
Last:20.04.2025 11:30:14
Duration:03:48:59
</desc></wpt>
<wpt lat = "50.17428" lon = "4.40796"><name>BC2</name><desc>3.0 km before finish
Images:2677
First:20.04.2025 11:48:03
Last:20.04.2025 15:21:16
Duration:03:33:13
</desc></wpt>
<wpt lat = "50.19269" lon = "4.35742"><name>MIJA1</name><desc>2.0 km
Images:2549
First:20.04.2025 07:57:53
Last:20.04.2025 11:09:47
Duration:03:11:54
</desc></wpt>
<wpt lat = "50.18279" lon = "4.39045"><name>MIJA2</name><desc>0.5 km before finish
Images:2708
First:20.04.2025 11:43:00
Last:20.04.2025 15:22:36
Duration:03:39:36
</desc></wpt>
<wpt lat = "50.19150" lon = "4.38348"><name>OP1</name><desc>Start
Images:756
First:20.04.2025 07:43:32
Last:20.04.2025 11:04:08
Duration:03:20:36
</desc></wpt>
<wpt lat = "50.19150" lon = "4.38348"><name>OP1LS1</name><desc>Start
Images:516
First:20.04.2025 08:40:26
Last:20.04.2025 11:07:51
Duration:02:27:25
</desc></wpt>
<wpt lat = "50.19150" lon = "4.38348"><name>OP2</name><desc>Finish
Images:2420
First:20.04.2025 11:07:01
Last:20.04.2025 15:04:03
Duration:03:57:02
</desc></wpt>
<wpt lat = "50.19150" lon = "4.38348"><name>OP2LS1</name><desc>Finish
Images:1129
First:20.04.2025 11:09:05
Last:20.04.2025 15:04:11
Duration:03:55:06
</desc></wpt>
<wpt lat = "50.14101" lon = "4.32133"><name>PBO1</name><desc>36.5 km
Images:1078
First:20.04.2025 08:20:37
Last:20.04.2025 11:03:59
Duration:02:43:22
</desc></wpt>
<wpt lat = "50.06322" lon = "4.37963"><name>PBO2</name><desc>185.0 km before finish
Images:2132
First:20.04.2025 11:53:38
Last:20.04.2025 14:39:10
Duration:02:45:32
</desc></wpt>
<wpt lat = "50.11338" lon = "4.32839"><name>SDT1</name><desc>33.0 km
Images:188
First:20.04.2025 08:45:55
Last:20.04.2025 10:49:16
Duration:02:03:21
</desc></wpt>
<wpt lat = "50.11338" lon = "4.32839"><name>SDT1DRONE1</name><desc>33.0 km
Images:25
First:20.04.2025 10:04:59
Last:20.04.2025 13:53:59
Duration:03:49:00
</desc></wpt>
<wpt lat = "50.11338" lon = "4.32839"><name>SDT1LS1</name><desc>33.0 km
Images:338
First:20.04.2025 08:30:19
Last:20.04.2025 10:49:18
Duration:02:18:59
</desc></wpt>
<wpt lat = "50.11338" lon = "4.32839"><name>SDT1LS2</name><desc>33.0 km
Images:314
First:20.04.2025 08:33:12
Last:20.04.2025 11:54:58
Duration:03:21:46
</desc></wpt>
<wpt lat = "50.06439" lon = "4.37875"><name>SDT2</name><desc>18.0 km before finish
Images:685
First:20.04.2025 12:07:26
Last:20.04.2025 14:35:10
Duration:02:27:44
</desc></wpt>
<wpt lat = "50.06439" lon = "4.37875"><name>SDT2DRONE1</name><desc>18.0 km before finish
Images:16
First:20.04.2025 13:41:29
Last:20.04.2025 13:53:59
Duration:00:12:30
</desc></wpt>
<wpt lat = "50.06396" lon = "4.37861"><name>SDT2LS1</name><desc>18.0 km before finish
Images:1911
First:20.04.2025 11:58:35
Last:20.04.2025 14:38:01
Duration:02:39:26
</desc></wpt>
<wpt lat = "50.06396" lon = "4.37861"><name>SDT2LS2</name><desc>18.0 km before finish
Images:2023
First:20.04.2025 11:56:19
Last:20.04.2025 14:38:03
Duration:02:41:44
</desc></wpt>
</gpx>