<?xml version='1.0' encoding='utf-8'?>
<gpx version="1.1" creator="Infofile GPX Generator">
<wpt lat = "38.40039" lon = "-78.75959"><name>BESC1</name><desc>Obstacle 15 Barbed Wire Crawl #2
Images:7264
First:25.10.2025 07:42:29
Last:26.10.2025 12:49:31
Duration:1.05:07:02
</desc></wpt>
<wpt lat = "38.39994" lon = "-78.75906"><name>WMY1</name><desc>Obstacle 17 Bucket Carry
Images:3374
First:25.10.2025 07:43:27
Last:26.10.2025 12:37:50
Duration:1.04:54:23
</desc></wpt>
<wpt lat = "38.40338" lon = "-78.75521"><name>CCZ1</name><desc>Obstacle 19 Plate Drag
Images:4255
First:25.10.2025 08:26:37
Last:26.10.2025 13:01:39
Duration:1.04:35:02
</desc></wpt>
<wpt lat = "38.40338" lon = "-78.75521"><name>IZZY1</name><desc>Obstacle 19 Plate Drag
Images:3762
First:25.10.2025 07:58:23
Last:26.10.2025 12:59:36
Duration:1.05:01:13
</desc></wpt>
<wpt lat = "38.40084" lon = "-78.75503"><name>YEP1</name><desc>Obstacle 21 Helix
Images:2757
First:25.10.2025 08:09:06
Last:26.10.2025 12:23:01
Duration:1.04:13:55
</desc></wpt>
<wpt lat = "38.40084" lon = "-78.75503"><name>EUGP1</name><desc>Obstacle 21 Helix
Images:1653
First:25.10.2025 08:08:58
Last:26.10.2025 13:14:07
Duration:1.05:05:09
</desc></wpt>
<wpt lat = "38.40066" lon = "-78.75560"><name>GAUB1</name><desc>Obstacle 22 Sandbag Carry
Images:3005
First:26.10.2025 06:45:01
Last:26.10.2025 13:24:29
Duration:06:39:28
</desc></wpt>
<wpt lat = "38.40182" lon = "-78.75664"><name>TYHA1</name><desc>Obstacle 24 Monkey Bars
Images:9437
First:25.10.2025 07:09:39
Last:26.10.2025 13:41:05
Duration:1.06:31:26
</desc></wpt>
<wpt lat = "38.40182" lon = "-78.75664"><name>SWDY1</name><desc>Obstacle 24 Monkey Bars
Images:5672
First:26.10.2025 06:46:05
Last:26.10.2025 13:41:07
Duration:06:55:02
</desc></wpt>
<wpt lat = "38.40361" lon = "-78.75423"><name>MRKE1</name><desc>Obstacle 26 A-Frame Cargo
Images:3904
First:25.10.2025 07:20:47
Last:26.10.2025 13:53:13
Duration:1.06:32:26
</desc></wpt>
<wpt lat = "38.40335" lon = "-78.75386"><name>AAD1</name><desc>Obstacle 26 Fire Jump
Images:2805
First:25.10.2025 07:36:10
Last:26.10.2025 13:54:43
Duration:1.06:18:33
</desc></wpt>
<wpt lat = "38.40335" lon = "-78.75386"><name>VICY1LS2</name><desc>Obstacle 26 Fire Jump
Images:1049
First:26.10.2025 07:06:04
Last:26.10.2025 13:22:43
Duration:06:16:39
</desc></wpt>
<wpt lat = "38.40332" lon = "-78.75495"><name>ANMF1</name><desc>Herotent
Images:1112
First:26.10.2025 06:47:22
Last:26.10.2025 13:57:15
Duration:07:09:53
</desc></wpt>
<wpt lat = "38.40332" lon = "-78.75495"><name>VICY1</name><desc>Venue
Images:551
First:25.10.2025 08:56:06
Last:26.10.2025 10:21:20
Duration:1.01:25:14
</desc></wpt>
<wpt lat = "38.40262" lon = "-78.75539"><name>VICY1LS1</name><desc>Foliage
Images:1151
First:26.10.2025 07:31:07
Last:26.10.2025 13:14:05
Duration:05:42:58
</desc></wpt>
</gpx>