<?xml version='1.0' encoding='utf-8'?>
<gpx version="1.1" creator="Infofile GPX Generator">
<wpt lat = "45.87699" lon = "10.86536"><name>LLM1</name><desc>1 KM After start Short Track
Images:236
First:02.05.2025 07:59:54
Last:02.05.2025 09:55:21
Duration:01:55:27
</desc></wpt>
<wpt lat = "45.93485" lon = "10.82089"><name>LULE1</name><desc>Lago di Tenno Long Track
Images:458
First:02.05.2025 09:30:13
Last:02.05.2025 10:19:58
Duration:00:49:45
</desc></wpt>
<wpt lat = "45.93485" lon = "10.82089"><name>LULE1LS1</name><desc>Lago di Tenno Long Track
Images:120
First:02.05.2025 09:26:41
Last:02.05.2025 10:12:18
Duration:00:45:37
</desc></wpt>
<wpt lat = "45.93485" lon = "10.82089"><name>LULE1LS2</name><desc>Lago di Tenno Long Track
Images:79
First:02.05.2025 09:26:37
Last:02.05.2025 10:18:11
Duration:00:51:34
</desc></wpt>
<wpt lat = "45.93987" lon = "10.81886"><name>PINO1</name><desc>Lago di Tenno Long Track
Images:156
First:02.05.2025 09:16:17
Last:02.05.2025 10:03:15
Duration:00:46:58
</desc></wpt>
<wpt lat = "46.00234" lon = "10.94808"><name>LAPO1</name><desc>Lago di Cavedine All track_1
Images:584
First:02.05.2025 09:04:31
Last:02.05.2025 15:20:23
Duration:06:15:52
</desc></wpt>
<wpt lat = "45.99623" lon = "10.94444"><name>DCC1</name><desc>Lago di Cavedine All Track
Images:448
First:02.05.2025 09:29:26
Last:02.05.2025 15:24:56
Duration:05:55:30
</desc></wpt>
<wpt lat = "45.89880" lon = "10.89654"><name>LULE2</name><desc>10 km Before Finish All track
Images:631
First:02.05.2025 11:42:26
Last:02.05.2025 16:07:43
Duration:04:25:17
</desc></wpt>
<wpt lat = "45.89880" lon = "10.89654"><name>LULE2LS1</name><desc>10 km Before Finish All track
Images:388
First:02.05.2025 11:16:02
Last:02.05.2025 16:42:12
Duration:05:26:10
</desc></wpt>
<wpt lat = "45.89880" lon = "10.89654"><name>LULE2LS2</name><desc>10 km Before Finish All track
Images:168
First:02.05.2025 11:40:04
Last:02.05.2025 16:30:23
Duration:04:50:19
</desc></wpt>
<wpt lat = "45.87699" lon = "10.86536"><name>LLM2</name><desc>1 KM Before finish All Track
Images:443
First:02.05.2025 11:17:48
Last:02.05.2025 17:00:11
Duration:05:42:23
</desc></wpt>
<wpt lat = "45.89812" lon = "10.89561"><name>PINO2</name><desc>9 km Before Finish All Track
Images:368
First:02.05.2025 11:13:00
Last:02.05.2025 16:28:00
Duration:05:15:00
</desc></wpt>
<wpt lat = "45.88163" lon = "10.84899"><name>DARU1</name><desc>Finish
Images:547
First:02.05.2025 02:20:35
Last:02.05.2025 17:07:43
Duration:14:47:08
</desc></wpt>
<wpt lat = "45.88163" lon = "10.84899"><name>DARU1LS1</name><desc>Finish
Images:597
First:02.05.2025 02:14:13
Last:02.05.2025 17:07:17
Duration:14:53:04
</desc></wpt>
<wpt lat = "45.88163" lon = "10.84899"><name>DARU1DRONE1</name><desc>Impressions / Pano
Images:21
First:02.05.2025 11:34:09
Last:02.05.2025 11:49:52
Duration:00:15:43
</desc></wpt>
</gpx>