<?xml version='1.0' encoding='utf-8'?>
<gpx version="1.1" creator="Infofile GPX Generator">
<wpt lat = "44.48095" lon = "-73.22187"><name>BANG1</name><desc>Start
Images:300
First:25.05.2025 06:45:18
Last:25.05.2025 07:22:39
Duration:00:37:21
</desc></wpt>
<wpt lat = "44.47581" lon = "-73.21543"><name>BHCA1</name><desc>0.8 mi Main Street
Images:2356
First:25.05.2025 07:16:40
Last:25.05.2025 08:15:38
Duration:00:58:58
</desc></wpt>
<wpt lat = "44.47581" lon = "-73.21543"><name>BHCA1LS1</name><desc>0.8 mi Main Street
Images:2408
First:25.05.2025 07:16:45
Last:25.05.2025 08:14:36
Duration:00:57:51
</desc></wpt>
<wpt lat = "44.47302" lon = "-73.22054"><name>BHCA2</name><desc>5.5 mi Along the Burlington Bike Path
Images:4686
First:25.05.2025 08:39:08
Last:25.05.2025 11:39:05
Duration:02:59:57
</desc></wpt>
<wpt lat = "44.47302" lon = "-73.22054"><name>BHCA2LS1</name><desc>5.5 mi Along the Burlington Bike Path
Images:4730
First:25.05.2025 08:35:32
Last:25.05.2025 11:40:57
Duration:03:05:25
</desc></wpt>
<wpt lat = "44.47682" lon = "-73.22034"><name>BANG2</name><desc>5.8 mi Bike Path onto College Street
Images:9554
First:25.05.2025 07:39:52
Last:25.05.2025 09:07:32
Duration:01:27:40
</desc></wpt>
<wpt lat = "44.47930" lon = "-73.21394"><name>BJHU1</name><desc>6.9 mi Cherry St after turn from Church St.
Images:3280
First:25.05.2025 07:41:41
Last:25.05.2025 08:48:07
Duration:01:06:26
</desc></wpt>
<wpt lat = "44.47930" lon = "-73.21394"><name>BLCI1</name><desc>6.9 mi Church Street before turn onto Cherry St.
Images:5069
First:25.05.2025 07:09:04
Last:25.05.2025 08:54:22
Duration:01:45:18
</desc></wpt>
<wpt lat = "44.48585" lon = "-73.22754"><name>BICAL1</name><desc>12.5 mi Island Line Trail, 1/2 mile to Finish
Images:8239
First:25.05.2025 08:01:59
Last:25.05.2025 13:25:28
Duration:05:23:29
</desc></wpt>
<wpt lat = "44.48352" lon = "-73.22411"><name>BJHU2</name><desc>13.0 mi Island Line Trail, 800 meters to Finish
Images:5124
First:25.05.2025 09:39:46
Last:25.05.2025 13:11:17
Duration:03:31:31
</desc></wpt>
<wpt lat = "44.48352" lon = "-73.22411"><name>BJHU2LS1</name><desc>13.0 mi Island Line Trail, 800 meters to Finish
Images:9983
First:25.05.2025 09:35:56
Last:25.05.2025 12:23:32
Duration:02:47:36
</desc></wpt>
<wpt lat = "44.48352" lon = "-73.22411"><name>BLCI2</name><desc>13.0 mi Island Line Trail, 800 meters to Finish
Images:12474
First:25.05.2025 09:38:09
Last:25.05.2025 13:37:39
Duration:03:59:30
</desc></wpt>
<wpt lat = "44.48064" lon = "-73.22237"><name>BHCA3</name><desc>26.1 mi In the finish chute
Images:937
First:25.05.2025 12:18:12
Last:25.05.2025 13:57:48
Duration:01:39:36
</desc></wpt>
<wpt lat = "44.48064" lon = "-73.22237"><name>BHCA3LS1</name><desc>26.1 mi In the finish chute
Images:1638
First:25.05.2025 12:16:52
Last:25.05.2025 13:11:41
Duration:00:54:49
</desc></wpt>
<wpt lat = "44.48011" lon = "-73.22219"><name>BANG3</name><desc>Finish
Images:18347
First:25.05.2025 09:20:37
Last:25.05.2025 14:06:22
Duration:04:45:45
</desc></wpt>
<wpt lat = "44.48011" lon = "-73.22219"><name>BANG3LS1</name><desc>Finish
Images:13590
First:25.05.2025 06:31:30
Last:25.05.2025 13:23:29
Duration:06:51:59
</desc></wpt>
</gpx>