<?xml version='1.0' encoding='utf-8'?>
<gpx version="1.1" creator="Infofile GPX Generator">
<wpt lat = "54.88110" lon = "-4.18474"><name>DP1</name><desc>Start
Images:658
First:18.05.2025 08:30:06
Last:18.05.2025 11:42:12
Duration:03:12:06
</desc></wpt>
<wpt lat = "54.88110" lon = "-4.18474"><name>DP2</name><desc>Finish
Images:1378
First:18.05.2025 11:55:24
Last:18.05.2025 16:46:12
Duration:04:50:48
</desc></wpt>
<wpt lat = "54.88110" lon = "-4.18474"><name>DP2LS1</name><desc>Finish
Images:267
First:18.05.2025 11:06:09
Last:18.05.2025 16:14:02
Duration:05:07:53
</desc></wpt>
<wpt lat = "54.88110" lon = "-4.18474"><name>TSO3</name><desc>Finish
Images:2433
First:18.05.2025 13:18:20
Last:18.05.2025 15:41:01
Duration:02:22:41
</desc></wpt>
<wpt lat = "54.95387" lon = "-4.25590"><name>FRZ1</name><desc>97.6 km
Images:2840
First:18.05.2025 09:54:17
Last:18.05.2025 16:12:07
Duration:06:17:50
</desc></wpt>
<wpt lat = "54.95176" lon = "-4.25629"><name>HCF1</name><desc>97.8 km
Images:1845
First:18.05.2025 09:25:58
Last:18.05.2025 16:28:37
Duration:07:02:39
</desc></wpt>
<wpt lat = "54.94133" lon = "-4.26393"><name>PHA1</name><desc>99.3 km
Images:3713
First:18.05.2025 10:47:56
Last:18.05.2025 16:18:04
Duration:05:30:08
</desc></wpt>
<wpt lat = "54.93693" lon = "-4.18537"><name>TSO1</name><desc>30.4 km
Images:4776
First:18.05.2025 08:33:52
Last:18.05.2025 12:23:53
Duration:03:50:01
</desc></wpt>
<wpt lat = "54.93693" lon = "-4.18537"><name>TSO1DRONE1</name><desc>30.4 km
Images:4
First:18.05.2025 08:26:58
Last:18.05.2025 08:27:40
Duration:00:00:42
</desc></wpt>
</gpx>