<?xml version='1.0' encoding='utf-8'?>
<gpx version="1.1" creator="Infofile GPX Generator">
<wpt lat = "51.49093" lon = "7.48978"><name>AOT1</name><desc>0,6km (55km)
Images:1391
First:11.10.2025 06:37:03
Last:11.10.2025 08:55:24
Duration:02:18:21
</desc></wpt>
<wpt lat = "51.49093" lon = "7.48978"><name>AOT1LS1</name><desc>0,6km (55km)
Images:2534
First:11.10.2025 06:11:01
Last:11.10.2025 08:43:43
Duration:02:32:42
</desc></wpt>
<wpt lat = "51.49093" lon = "7.48978"><name>AOT1LS2</name><desc>0,6km (55km)
Images:1352
First:11.10.2025 06:17:43
Last:11.10.2025 08:44:31
Duration:02:26:48
</desc></wpt>
<wpt lat = "51.44539" lon = "7.50449"><name>AADHA1</name><desc>13,3km (55km)
Images:6272
First:11.10.2025 07:59:10
Last:11.10.2025 11:49:03
Duration:03:49:53
</desc></wpt>
<wpt lat = "51.41999" lon = "7.48328"><name>ANWO1</name><desc>17,3km (55km)
Images:4482
First:11.10.2025 08:39:13
Last:11.10.2025 12:18:13
Duration:03:39:00
</desc></wpt>
<wpt lat = "51.41999" lon = "7.48328"><name>ANWO1LS1</name><desc>17,3km (55km)
Images:990
First:11.10.2025 08:33:09
Last:11.10.2025 12:18:11
Duration:03:45:02
</desc></wpt>
<wpt lat = "51.41999" lon = "7.48328"><name>ANWO1LS2</name><desc>17,3km (55km)
Images:2228
First:11.10.2025 08:33:59
Last:11.10.2025 12:21:09
Duration:03:47:10
</desc></wpt>
<wpt lat = "51.41995" lon = "7.48721"><name>ATOG1</name><desc>17,6km (55km)
Images:5166
First:11.10.2025 08:29:39
Last:11.10.2025 12:29:47
Duration:04:00:08
</desc></wpt>
<wpt lat = "51.41995" lon = "7.48721"><name>ATOG1LS1</name><desc>17,6km (55km)
Images:4195
First:11.10.2025 08:22:13
Last:11.10.2025 12:40:47
Duration:04:18:34
</desc></wpt>
<wpt lat = "51.41995" lon = "7.48721"><name>ATOG1LS2</name><desc>17,6km (55km)
Images:3903
First:11.10.2025 08:21:54
Last:11.10.2025 12:40:45
Duration:04:18:51
</desc></wpt>
<wpt lat = "51.39986" lon = "7.44981"><name>AALN1</name><desc>18,3km (42km); 24,1km (55km)
Images:14151
First:11.10.2025 09:37:50
Last:11.10.2025 14:49:48
Duration:05:11:58
</desc></wpt>
<wpt lat = "51.39986" lon = "7.44981"><name>AALN1LS1</name><desc>18,3km (42km); 24,1km (55km)
Images:3366
First:11.10.2025 09:06:39
Last:11.10.2025 14:52:25
Duration:05:45:46
</desc></wpt>
<wpt lat = "51.39986" lon = "7.44981"><name>AALN1LS2</name><desc>18,3km (42km); 24,1km (55km)
Images:3951
First:11.10.2025 09:24:49
Last:11.10.2025 14:55:07
Duration:05:30:18
</desc></wpt>
<wpt lat = "51.39986" lon = "7.44981"><name>AALN1LS3</name><desc>18,3km (42km); 24,1km (55km)
Images:3589
First:11.10.2025 09:11:38
Last:11.10.2025 14:52:52
Duration:05:41:14
</desc></wpt>
<wpt lat = "51.40190" lon = "7.45324"><name>AJKE1</name><desc>18,6km (42km); 23,5km (55km)
Images:5228
First:11.10.2025 09:05:07
Last:11.10.2025 14:46:08
Duration:05:41:01
</desc></wpt>
<wpt lat = "51.40190" lon = "7.45324"><name>AJKE1LS1</name><desc>18,6km (42km); 23,5km (55km)
Images:3896
First:11.10.2025 08:31:00
Last:11.10.2025 13:55:38
Duration:05:24:38
</desc></wpt>
<wpt lat = "51.40190" lon = "7.45324"><name>AJKE1LS2</name><desc>18,6km (42km); 23,5km (55km)
Images:4711
First:11.10.2025 08:59:26
Last:11.10.2025 14:24:45
Duration:05:25:19
</desc></wpt>
<wpt lat = "51.48070" lon = "7.46856"><name>AAMAR1</name><desc>2,4km (42km)
Images:2312
First:11.10.2025 06:27:32
Last:11.10.2025 09:55:50
Duration:03:28:18
</desc></wpt>
<wpt lat = "51.51490" lon = "7.45485"><name>AOT2</name><desc>22km (30km)
Images:12802
First:11.10.2025 10:21:57
Last:11.10.2025 18:26:57
Duration:08:05:00
</desc></wpt>
<wpt lat = "51.51490" lon = "7.45485"><name>AOT2LS1</name><desc>22km (30km)
Images:7902
First:11.10.2025 10:15:03
Last:11.10.2025 17:13:43
Duration:06:58:40
</desc></wpt>
<wpt lat = "51.51490" lon = "7.45485"><name>AOT2LS2</name><desc>22km (30km)
Images:3895
First:11.10.2025 10:08:22
Last:11.10.2025 17:12:41
Duration:07:04:19
</desc></wpt>
<wpt lat = "51.50418" lon = "7.43766"><name>AMBEN2</name><desc>24,4km (30km)
Images:9260
First:11.10.2025 10:23:28
Last:11.10.2025 19:21:21
Duration:08:57:53
</desc></wpt>
<wpt lat = "51.50418" lon = "7.43766"><name>AMBEN2LS1</name><desc>24,4km (30km)
Images:3839
First:11.10.2025 10:28:14
Last:11.10.2025 17:56:11
Duration:07:27:57
</desc></wpt>
<wpt lat = "51.41989" lon = "7.48673"><name>ATOG2</name><desc>24,6km (42km)
Images:4475
First:11.10.2025 12:52:18
Last:11.10.2025 16:58:15
Duration:04:05:57
</desc></wpt>
<wpt lat = "51.41989" lon = "7.48673"><name>ATOG2LS1</name><desc>24,6km (42km)
Images:1528
First:11.10.2025 12:44:17
Last:11.10.2025 16:30:25
Duration:03:46:08
</desc></wpt>
<wpt lat = "51.41989" lon = "7.48673"><name>ATOG2LS2</name><desc>24,6km (42km)
Images:1336
First:11.10.2025 12:48:40
Last:11.10.2025 16:18:43
Duration:03:30:03
</desc></wpt>
<wpt lat = "51.41995" lon = "7.48360"><name>ANWO2</name><desc>24,9km (42km)
Images:1833
First:11.10.2025 13:12:41
Last:11.10.2025 15:59:47
Duration:02:47:06
</desc></wpt>
<wpt lat = "51.41995" lon = "7.48360"><name>ANWO2LS1</name><desc>24,9km (42km)
Images:560
First:11.10.2025 13:08:29
Last:11.10.2025 15:51:17
Duration:02:42:48
</desc></wpt>
<wpt lat = "51.41995" lon = "7.48360"><name>ANWO2LS2</name><desc>24,9km (42km)
Images:1214
First:11.10.2025 13:01:34
Last:11.10.2025 17:05:55
Duration:04:04:21
</desc></wpt>
<wpt lat = "51.44539" lon = "7.50449"><name>AADHA2</name><desc>28,7km (42km)
Images:6306
First:11.10.2025 11:49:54
Last:11.10.2025 17:25:07
Duration:05:35:13
</desc></wpt>
<wpt lat = "51.48616" lon = "7.46936"><name>AAMAR2</name><desc>29,1km ( 30km)
Images:12928
First:11.10.2025 10:46:24
Last:11.10.2025 16:33:12
Duration:05:46:48
</desc></wpt>
<wpt lat = "51.48818" lon = "7.51221"><name>ADPH2</name><desc>38,8km (42km)
Images:3025
First:11.10.2025 11:44:25
Last:11.10.2025 19:37:52
Duration:07:53:27
</desc></wpt>
<wpt lat = "51.48818" lon = "7.51221"><name>ADPH2LS1</name><desc>38,8km (42km)
Images:2274
First:11.10.2025 12:19:34
Last:11.10.2025 18:35:01
Duration:06:15:27
</desc></wpt>
<wpt lat = "51.48814" lon = "7.51512"><name>AMBEN1</name><desc>3km (55km)
Images:1037
First:11.10.2025 07:35:35
Last:11.10.2025 08:53:54
Duration:01:18:19
</desc></wpt>
<wpt lat = "51.48814" lon = "7.51512"><name>AMBEN1LS1</name><desc>3km (55km)
Images:426
First:11.10.2025 07:10:57
Last:11.10.2025 10:20:42
Duration:03:09:45
</desc></wpt>
<wpt lat = "51.43585" lon = "7.46909"><name>AWBEC2</name><desc>46,4km (55km)
Images:5081
First:11.10.2025 11:56:43
Last:11.10.2025 19:04:38
Duration:07:07:55
</desc></wpt>
<wpt lat = "51.48253" lon = "7.46910"><name>BSTBA2</name><desc>52,9km (55km)
Images:2376
First:11.10.2025 14:16:53
Last:11.10.2025 19:44:46
Duration:05:27:53
</desc></wpt>
<wpt lat = "51.51085" lon = "7.42117"><name>BSTBA1</name><desc>8,13km (30km)
Images:4723
First:11.10.2025 07:22:03
Last:11.10.2025 12:34:55
Duration:05:12:52
</desc></wpt>
<wpt lat = "51.51085" lon = "7.42117"><name>BSTBA1LS1</name><desc>8,13km (30km)
Images:2362
First:11.10.2025 07:57:02
Last:11.10.2025 11:55:34
Duration:03:58:32
</desc></wpt>
<wpt lat = "51.43564" lon = "7.46815"><name>AWBEC1</name><desc>8,73km (42km)
Images:2636
First:10.10.2025 16:29:37
Last:11.10.2025 11:22:09
Duration:18:52:32
</desc></wpt>
<wpt lat = "51.48781" lon = "7.48410"><name>BRA1</name><desc>Finish
Images:29560
First:11.10.2025 10:24:30
Last:12.10.2025 01:23:52
Duration:14:59:22
</desc></wpt>
<wpt lat = "51.48781" lon = "7.48410"><name>BRA1LS1</name><desc>Finish
Images:10655
First:11.10.2025 10:32:02
Last:11.10.2025 21:19:26
Duration:10:47:24
</desc></wpt>
<wpt lat = "51.48781" lon = "7.48410"><name>BRA1LS2</name><desc>Finish
Images:9551
First:11.10.2025 10:45:56
Last:11.10.2025 21:03:35
Duration:10:17:39
</desc></wpt>
<wpt lat = "51.41995" lon = "7.48721"><name>ATOG1DRONE1</name><desc>Impressions / Pano
Images:6
First:11.10.2025 12:14:43
Last:11.10.2025 12:18:02
Duration:00:03:19
</desc></wpt>
<wpt lat = "51.48835" lon = "7.48718"><name>ADPH1</name><desc>Start
Images:3259
First:11.10.2025 06:27:00
Last:11.10.2025 10:00:56
Duration:03:33:56
</desc></wpt>
</gpx>