<?xml version='1.0' encoding='utf-8'?>
<gpx version="1.1" creator="Infofile GPX Generator">
<wpt lat = "50.81101" lon = "3.579"><name>JOS1</name><desc>14.0 km/75 - 83/144 - 115/177 - 180/242 Koppenberg climb
Images:7569
First:01.04.2023 08:19:56
Last:01.04.2023 16:32:37
Duration:08:12:41
</desc></wpt>
<wpt lat = "50.81101" lon = "3.579"><name>LV1</name><desc>14.0 km/75 - 83/144 - 115/177 - 180/242 Koppenberg climb
Images:15738
First:01.04.2023 09:24:30
Last:01.04.2023 17:58:16
Duration:08:33:46
</desc></wpt>
<wpt lat = "50.81101" lon = "3.579"><name>LV1LS1</name><desc>14.0 km/75 - 83/144 - 115/177 - 180/242 Koppenberg climb
Images:6770
First:01.04.2023 13:21:32
Last:01.04.2023 17:32:39
Duration:04:11:07
</desc></wpt>
<wpt lat = "50.81101" lon = "3.579"><name>LV1LS2</name><desc>14.0 km/75 - 83/144 - 115/177 - 180/242 Koppenberg climb
Images:2382
First:01.04.2023 14:27:07
Last:01.04.2023 17:30:03
Duration:03:02:56
</desc></wpt>
<wpt lat = "50.81907" lon = "3.59815"><name>MK1</name><desc>15.5 km/75 - 84,5/144 - 116,5/177 - 181,5/242 Downhill after Koppenberg
Images:23507
First:01.04.2023 07:52:00
Last:01.04.2023 15:39:35
Duration:07:47:35
</desc></wpt>
<wpt lat = "50.81907" lon = "3.59815"><name>MK1LS1</name><desc>15.5 km/75 - 84,5/144 - 116,5/177 - 181,5/242 Downhill after Koppenberg
Images:7500
First:01.04.2023 10:05:43
Last:01.04.2023 15:39:57
Duration:05:34:14
</desc></wpt>
<wpt lat = "50.81907" lon = "3.59815"><name>MK1LS2</name><desc>15.5 km/75 - 84,5/144 - 116,5/177 - 181,5/242 Downhill after Koppenberg
Images:13139
First:01.04.2023 10:02:46
Last:01.04.2023 14:51:07
Duration:04:48:21
</desc></wpt>
<wpt lat = "50.81907" lon = "3.59815"><name>PARO1</name><desc>155.0 km/75 - 84,5/144 - 116,5/177 - 181,5/242 Downhill after Koppenberg
Images:30742
First:01.04.2023 08:22:40
Last:01.04.2023 17:05:46
Duration:08:43:06
</desc></wpt>
<wpt lat = "50.81907" lon = "3.59815"><name>PARO1LS1</name><desc>155.0 km/75 - 84,5/144 - 116,5/177 - 181,5/242 Downhill after Koppenberg
Images:8736
First:01.04.2023 08:40:57
Last:01.04.2023 16:46:43
Duration:08:05:46
</desc></wpt>
<wpt lat = "50.80142" lon = "3.61755"><name>ST1</name><desc>20.0 km/75 - 88,5/144 - 121/177 - 186/242 Downhill Stationsberg
Images:18082
First:01.04.2023 08:02:58
Last:01.04.2023 17:03:45
Duration:09:00:47
</desc></wpt>
<wpt lat = "50.80142" lon = "3.61755"><name>STL1LS1</name><desc>20.0 km/75 - 88,5/144 - 121/177 - 186/242 Downhill Stationsberg
Images:7801
First:01.04.2023 07:57:03
Last:01.04.2023 15:54:34
Duration:07:57:31
</desc></wpt>
<wpt lat = "50.80142" lon = "3.61755"><name>OT1</name><desc>20.0 km/75 - 88,5/144 - 121/177 - 186/242 Stationsberg downhill
Images:10157
First:01.04.2023 07:39:12
Last:01.04.2023 17:19:20
Duration:09:40:08
</desc></wpt>
<wpt lat = "50.79582" lon = "3.63362"><name>MW1</name><desc>21.5 km/75 - 90,5/144 - 123/177 - 188/242 Taaienberg climb
Images:13640
First:01.04.2023 08:00:31
Last:01.04.2023 17:21:18
Duration:09:20:47
</desc></wpt>
<wpt lat = "50.79582" lon = "3.63362"><name>TB1</name><desc>215.0 km/75 - 90,5/144 - 123/177 - 188/242 Taaienberg climb
Images:10066
First:01.04.2023 07:33:39
Last:01.04.2023 17:47:36
Duration:10:13:57
</desc></wpt>
<wpt lat = "50.78325" lon = "3.65689"><name>ANR1</name><desc>24.0 km/75 - 93/144 - 125,5/177 - 190,5/242 Tenhoutestraat climb
Images:16158
First:01.04.2023 08:12:39
Last:01.04.2023 17:29:52
Duration:09:17:13
</desc></wpt>
<wpt lat = "50.78325" lon = "3.65689"><name>JAD1</name><desc>24.0 km/75 - 93/144 - 125,5/177 - 190,5/242 Tenhoutestraat climb
Images:11695
First:01.04.2023 08:13:49
Last:01.04.2023 17:30:22
Duration:09:16:33
</desc></wpt>
<wpt lat = "50.79578" lon = "3.67902"><name>EKR1</name><desc>27.7 km/75 - 96,7/144 - 129,2/177 - 194,2/242 Cobblestone downhill Kaperij
Images:9617
First:01.04.2023 08:07:24
Last:01.04.2023 17:32:48
Duration:09:25:24
</desc></wpt>
<wpt lat = "50.79578" lon = "3.67902"><name>DAV1</name><desc>277.0 km/75 - 96,7/144 - 129,2/177 - 194,2/242 Cobblestone downhill Kaperij
Images:9353
First:01.04.2023 08:10:34
Last:01.04.2023 17:31:57
Duration:09:21:23
</desc></wpt>
<wpt lat = "50.79578" lon = "3.67902"><name>DAV1LS1</name><desc>277.0 km/75 - 96,7/144 - 129,2/177 - 194,2/242 Cobblestone downhill Kaperij
Images:17988
First:01.04.2023 08:09:57
Last:01.04.2023 17:31:38
Duration:09:21:41
</desc></wpt>
<wpt lat = "50.76068" lon = "3.65284"><name>ALD1</name><desc>36.0 km/75 - 105/144 - 137,5/177 - 202,5/242 Kanarieberg climb
Images:7071
First:01.04.2023 07:43:41
Last:01.04.2023 17:00:29
Duration:09:16:48
</desc></wpt>
<wpt lat = "50.76068" lon = "3.65284"><name>TID1</name><desc>36.0 km/75 - 105/144 - 137,5/177 - 202,5/242 Kanarieberg climb
Images:10167
First:01.04.2023 08:05:17
Last:01.04.2023 16:07:20
Duration:08:02:03
</desc></wpt>
<wpt lat = "50.75718" lon = "3.53881"><name>LMC1</name><desc>37.0 km/75 - 106/144 - 138,5/177 - 203,5/242 Downhill after Kanarieberg
Images:15118
First:01.04.2023 07:46:58
Last:01.04.2023 18:05:39
Duration:10:18:41
</desc></wpt>
<wpt lat = "50.76687" lon = "3.64426"><name>TLA1</name><desc>37.0 km/75 -106/144 - 138,5/177 - 203,5/242 Downhill after Kanarieberg
Images:16564
First:01.04.2023 08:55:02
Last:01.04.2023 18:05:41
Duration:09:10:39
</desc></wpt>
<wpt lat = "50.75718" lon = "3.53881"><name>BC1</name><desc>51.0 km/75 - 120/144 - 152,5/177 - 217,5/242 Karnemelkbeekstraat climb
Images:20064
First:01.04.2023 07:58:17
Last:01.04.2023 18:54:55
Duration:10:56:38
</desc></wpt>
<wpt lat = "50.77897" lon = "3.52554"><name>LUHO1</name><desc>57.0 km/75 - 126/144 - 158,5/177 - 223,5/242 Oude Kwaremont
Images:11501
First:01.04.2023 09:34:31
Last:01.04.2023 15:47:47
Duration:06:13:16
</desc></wpt>
<wpt lat = "50.77897" lon = "3.52554"><name>LUHO1LS1</name><desc>57.0 km/75 - 126/144 - 158,5/177 - 223,5/242 Oude Kwaremont
Images:17163
First:01.04.2023 09:08:14
Last:01.04.2023 17:50:34
Duration:08:42:20
</desc></wpt>
<wpt lat = "50.77897" lon = "3.52554"><name>PMC1</name><desc>57.0 km/75 - 126/144 - 158,5/177 - 223,5/242 Oude Kwaremont
Images:913
First:01.04.2023 09:32:03
Last:01.04.2023 15:41:00
Duration:06:08:57
</desc></wpt>
<wpt lat = "50.77729" lon = "3.54621"><name>JR1</name><desc>605.0 km/75 - 129,5/144 - 162/177 - 227/242 downhill to Paterberg
Images:28153
First:01.04.2023 08:54:16
Last:01.04.2023 19:38:00
Duration:10:43:44
</desc></wpt>
<wpt lat = "50.77729" lon = "3.54621"><name>MARS1</name><desc>605.0 km/75 - 129,5/144 - 162/177 - 227/242 downhill to Paterberg
Images:19726
First:01.04.2023 08:42:23
Last:01.04.2023 19:38:29
Duration:10:56:06
</desc></wpt>
<wpt lat = "50.78213" lon = "3.54765"><name>CHF1</name><desc>61.0 km/75 - 130,5/144 - 163/177 - 228/242 Paterberg klim
Images:13845
First:01.04.2023 08:56:08
Last:01.04.2023 17:30:16
Duration:08:34:08
</desc></wpt>
<wpt lat = "50.78213" lon = "3.54765"><name>DRI1</name><desc>61.0 km/75 - 130,5/144 - 163/177 - 228/242 Paterberg klim
Images:24803
First:01.04.2023 09:35:46
Last:01.04.2023 19:40:31
Duration:10:04:45
</desc></wpt>
<wpt lat = "50.78213" lon = "3.54765"><name>DRI1LS1</name><desc>61.0 km/75 - 130,5/144 - 163/177 - 228/242 Paterberg klim
Images:15967
First:01.04.2023 09:06:57
Last:01.04.2023 18:13:22
Duration:09:06:25
</desc></wpt>
<wpt lat = "50.78213" lon = "3.54765"><name>DRI1LS2</name><desc>61.0 km/75 - 130,5/144 - 163/177 - 228/242 Paterberg klim
Images:12660
First:01.04.2023 08:56:33
Last:01.04.2023 18:57:09
Duration:10:00:36
</desc></wpt>
<wpt lat = "50.84029" lon = "3.59126"><name>STL1</name><desc>Finish
Images:6268
First:01.04.2023 08:26:34
Last:01.04.2023 20:10:45
Duration:11:44:11
</desc></wpt>
<wpt lat = "50.84029" lon = "3.59126"><name>VL1</name><desc>Finish
Images:6242
First:01.04.2023 08:36:28
Last:01.04.2023 18:21:48
Duration:09:45:20
</desc></wpt>
</gpx>