<?xml version='1.0' encoding='utf-8'?>
<gpx version="1.1" creator="Infofile GPX Generator">
<wpt lat = "-33.87516" lon = "151.21835"><name>DRAV1</name><desc>0.8 km Tunnel entry
Images:4281
First:13.08.2023 07:05:45
Last:13.08.2023 10:14:04
Duration:03:08:19
</desc></wpt>
<wpt lat = "-33.87516" lon = "151.21835"><name>TOSC1</name><desc>0.8 km Tunnel entry
Images:8498
First:13.08.2023 07:39:28
Last:13.08.2023 10:14:27
Duration:02:34:59
</desc></wpt>
<wpt lat = "-33.87516" lon = "151.21835"><name>TOSC1LS1</name><desc>0.8 km Tunnel entry
Images:8368
First:13.08.2023 07:29:08
Last:13.08.2023 10:12:52
Duration:02:43:44
</desc></wpt>
<wpt lat = "-33.87635" lon = "151.22359"><name>ACV1</name><desc>1.3 km William street pedestrian bridge
Images:9302
First:13.08.2023 07:43:02
Last:13.08.2023 10:22:42
Duration:02:39:40
</desc></wpt>
<wpt lat = "-33.87635" lon = "151.22359"><name>DARR1</name><desc>1.3 km William street pedestrian bridge
Images:9810
First:13.08.2023 07:43:41
Last:13.08.2023 10:18:56
Duration:02:35:15
</desc></wpt>
<wpt lat = "-33.87635" lon = "151.22359"><name>IAK1</name><desc>1.3 km William street pedestrian bridge
Images:5762
First:13.08.2023 07:42:47
Last:13.08.2023 10:20:33
Duration:02:37:46
</desc></wpt>
<wpt lat = "-33.87635" lon = "151.22359"><name>KH1</name><desc>1.3 km William street pedestrian bridge
Images:8990
First:13.08.2023 07:25:05
Last:13.08.2023 10:17:16
Duration:02:52:11
</desc></wpt>
<wpt lat = "-33.87635" lon = "151.22359"><name>LUV1</name><desc>1.3 km William street pedestrian bridge
Images:2533
First:13.08.2023 07:43:49
Last:13.08.2023 10:20:00
Duration:02:36:11
</desc></wpt>
<wpt lat = "-33.87635" lon = "151.22359"><name>RUP1</name><desc>1.3 km William street pedestrian bridge
Images:29785
First:13.08.2023 07:44:40
Last:13.08.2023 10:36:36
Duration:02:51:56
</desc></wpt>
<wpt lat = "-33.88902" lon = "151.27706"><name>HC1</name><desc>13.5 km
Images:26832
First:12.08.2023 22:22:00
Last:13.08.2023 13:28:11
Duration:15:06:11
</desc></wpt>
<wpt lat = "-33.88977" lon = "151.27566"><name>TPA1</name><desc>13.5 km
Images:9693
First:13.08.2023 11:36:08
Last:13.08.2023 13:29:43
Duration:01:53:35
</desc></wpt>
<wpt lat = "-33.88977" lon = "151.27566"><name>TPA1LS1</name><desc>13.5 km
Images:7952
First:13.08.2023 08:18:15
Last:13.08.2023 13:35:26
Duration:05:17:11
</desc></wpt>
<wpt lat = "-33.88977" lon = "151.27566"><name>TPA2</name><desc>13.5 km
Images:9611
First:13.08.2023 08:21:36
Last:13.08.2023 09:32:11
Duration:01:10:35
</desc></wpt>
<wpt lat = "-33.87231" lon = "151.25808"><name>CHRO1</name><desc>5.0 km
Images:15757
First:13.08.2023 07:33:15
Last:13.08.2023 11:12:17
Duration:03:39:02
</desc></wpt>
<wpt lat = "-33.87231" lon = "151.25808"><name>CHRO1LS1</name><desc>5.0 km
Images:2979
First:13.08.2023 07:22:38
Last:13.08.2023 10:29:18
Duration:03:06:40
</desc></wpt>
<wpt lat = "-33.87231" lon = "151.25808"><name>JDY1</name><desc>5.0 km
Images:7599
First:13.08.2023 07:03:07
Last:13.08.2023 11:12:15
Duration:04:09:08
</desc></wpt>
<wpt lat = "-33.87231" lon = "151.25808"><name>RKM1</name><desc>5.0 km
Images:6500
First:13.08.2023 07:18:40
Last:13.08.2023 11:12:26
Duration:03:53:46
</desc></wpt>
<wpt lat = "-33.87222" lon = "151.25813"><name>KHT1</name><desc>5.1 km
Images:7752
First:13.08.2023 07:18:03
Last:13.08.2023 11:12:33
Duration:03:54:30
</desc></wpt>
<wpt lat = "-33.87260" lon = "151.26010"><name>IGM1</name><desc>5.2 km
Images:6057
First:13.08.2023 07:17:58
Last:13.08.2023 11:15:06
Duration:03:57:08
</desc></wpt>
<wpt lat = "-33.87260" lon = "151.26010"><name>IGM1LS1</name><desc>5.2 km
Images:3998
First:13.08.2023 07:54:33
Last:13.08.2023 11:15:40
Duration:03:21:07
</desc></wpt>
<wpt lat = "-33.87260" lon = "151.26010"><name>IGM1LS2</name><desc>5.2 km
Images:1851
First:13.08.2023 07:33:05
Last:13.08.2023 10:21:10
Duration:02:48:05
</desc></wpt>
<wpt lat = "-33.87260" lon = "151.26010"><name>WP1</name><desc>5.2 km
Images:9342
First:13.08.2023 07:54:30
Last:13.08.2023 10:31:12
Duration:02:36:42
</desc></wpt>
<wpt lat = "-33.87260" lon = "151.26010"><name>WP1LS1</name><desc>5.2 km
Images:5283
First:13.08.2023 07:06:07
Last:13.08.2023 11:19:59
Duration:04:13:52
</desc></wpt>
<wpt lat = "-33.87258" lon = "151.26112"><name>MFS1</name><desc>5.4 km
Images:5601
First:13.08.2023 07:54:47
Last:13.08.2023 11:16:30
Duration:03:21:43
</desc></wpt>
<wpt lat = "-33.87258" lon = "151.26112"><name>VFV1</name><desc>5.4 km
Images:7539
First:13.08.2023 07:54:38
Last:13.08.2023 10:35:16
Duration:02:40:38
</desc></wpt>
<wpt lat = "-33.86590" lon = "151.27214"><name>JD1</name><desc>6.4 km
Images:12986
First:13.08.2023 07:54:20
Last:13.08.2023 11:37:19
Duration:03:42:59
</desc></wpt>
<wpt lat = "-33.86590" lon = "151.27214"><name>JEK1</name><desc>6.4 km
Images:21079
First:12.08.2023 19:48:20
Last:13.08.2023 11:35:54
Duration:15:47:34
</desc></wpt>
<wpt lat = "-33.86590" lon = "151.27214"><name>JEK1LS1</name><desc>6.4 km
Images:3317
First:12.08.2023 19:56:37
Last:13.08.2023 11:37:03
Duration:15:40:26
</desc></wpt>
<wpt lat = "-33.86590" lon = "151.27214"><name>JEK1LS2</name><desc>6.4 km
Images:18068
First:12.08.2023 20:03:00
Last:13.08.2023 11:35:52
Duration:15:32:52
</desc></wpt>
<wpt lat = "-33.86590" lon = "151.27214"><name>KHE1</name><desc>6.4 km
Images:21612
First:13.08.2023 07:51:46
Last:13.08.2023 11:34:16
Duration:03:42:30
</desc></wpt>
<wpt lat = "-33.86547" lon = "151.27316"><name>MFQ1</name><desc>6.7 km
Images:1006
First:13.08.2023 08:56:41
Last:13.08.2023 12:36:59
Duration:03:40:18
</desc></wpt>
<wpt lat = "-33.86547" lon = "151.27316"><name>SLAU1</name><desc>6.7 km
Images:40672
First:13.08.2023 07:11:04
Last:13.08.2023 11:36:39
Duration:04:25:35
</desc></wpt>
<wpt lat = "-33.85954" lon = "151.27679"><name>CVO1</name><desc>7.8 km
Images:24106
First:12.08.2023 11:20:28
Last:13.08.2023 12:06:06
Duration:1.00:45:38
</desc></wpt>
<wpt lat = "-33.85954" lon = "151.27679"><name>RIT1</name><desc>7.8 km
Images:7736
First:12.08.2023 20:23:08
Last:13.08.2023 11:38:24
Duration:15:15:16
</desc></wpt>
<wpt lat = "-33.85954" lon = "151.27679"><name>TS1</name><desc>7.8 km
Images:10024
First:13.08.2023 06:48:11
Last:13.08.2023 12:06:13
Duration:05:18:02
</desc></wpt>
<wpt lat = "-33.85954" lon = "151.27679"><name>TS1LS1</name><desc>7.8 km
Images:8
First:13.08.2023 06:45:27
Last:13.08.2023 07:17:06
Duration:00:31:39
</desc></wpt>
<wpt lat = "-33.85713" lon = "151.28247"><name>BRE1</name><desc>8.5 km
Images:28553
First:13.08.2023 06:19:57
Last:13.08.2023 12:08:51
Duration:05:48:54
</desc></wpt>
<wpt lat = "-33.85713" lon = "151.28247"><name>DTT1</name><desc>8.5 km
Images:11504
First:13.08.2023 06:18:00
Last:13.08.2023 12:07:20
Duration:05:49:20
</desc></wpt>
<wpt lat = "-33.85713" lon = "151.28247"><name>DTT1LS1</name><desc>8.5 km
Images:6026
First:13.08.2023 08:16:46
Last:13.08.2023 12:08:34
Duration:03:51:48
</desc></wpt>
<wpt lat = "-33.89032" lon = "151.27761"><name>RGL1</name><desc>Ceremony
Images:2038
First:12.08.2023 19:57:04
Last:13.08.2023 13:30:58
Duration:17:33:54
</desc></wpt>
<wpt lat = "-33.89032" lon = "151.27761"><name>SAA1</name><desc>Ceremony
Images:1420
First:12.08.2023 12:17:33
Last:13.08.2023 13:35:24
Duration:1.01:17:51
</desc></wpt>
<wpt lat = "-33.88930" lon = "151.27655"><name>ABR1</name><desc>Finish
Images:11856
First:12.08.2023 12:43:51
Last:13.08.2023 13:27:02
Duration:1.00:43:11
</desc></wpt>
<wpt lat = "-33.88930" lon = "151.27655"><name>ABR1LS1</name><desc>Finish
Images:6330
First:13.08.2023 08:04:50
Last:13.08.2023 13:29:16
Duration:05:24:26
</desc></wpt>
<wpt lat = "-33.89025" lon = "151.27864"><name>ABS1</name><desc>Finish
Images:10752
First:12.08.2023 15:03:11
Last:13.08.2023 13:48:42
Duration:22:45:31
</desc></wpt>
<wpt lat = "-33.89025" lon = "151.27864"><name>CYH1</name><desc>Finish
Images:16137
First:13.08.2023 06:41:54
Last:13.08.2023 13:49:26
Duration:07:07:32
</desc></wpt>
<wpt lat = "-33.89025" lon = "151.27864"><name>ESF1</name><desc>Finish
Images:11980
First:13.08.2023 07:46:46
Last:13.08.2023 11:21:41
Duration:03:34:55
</desc></wpt>
<wpt lat = "-33.89025" lon = "151.27864"><name>ESF2</name><desc>Finish
Images:2316
First:13.08.2023 11:22:48
Last:13.08.2023 13:28:23
Duration:02:05:35
</desc></wpt>
<wpt lat = "-33.89025" lon = "151.27864"><name>JBR1</name><desc>Finish
Images:13458
First:13.08.2023 07:19:08
Last:13.08.2023 13:20:20
Duration:06:01:12
</desc></wpt>
<wpt lat = "-33.89025" lon = "151.27864"><name>PAC1</name><desc>Finish
Images:14945
First:13.08.2023 07:18:27
Last:13.08.2023 13:34:36
Duration:06:16:09
</desc></wpt>
<wpt lat = "-33.89025" lon = "151.27864"><name>PRK1</name><desc>Finish
Images:11324
First:12.08.2023 12:25:59
Last:13.08.2023 13:48:17
Duration:1.01:22:18
</desc></wpt>
<wpt lat = "-33.89025" lon = "151.27864"><name>RCT1</name><desc>Finish
Images:7744
First:13.08.2023 07:08:20
Last:13.08.2023 13:48:22
Duration:06:40:02
</desc></wpt>
<wpt lat = "-33.89025" lon = "151.27864"><name>TOB1</name><desc>Finish
Images:29394
First:13.08.2023 08:21:28
Last:13.08.2023 11:25:18
Duration:03:03:50
</desc></wpt>
<wpt lat = "-33.89025" lon = "151.27864"><name>TOB1LS1</name><desc>Finish
Images:3057
First:12.08.2023 20:58:59
Last:13.08.2023 10:46:05
Duration:13:47:06
</desc></wpt>
<wpt lat = "-33.89025" lon = "151.27864"><name>TOB2</name><desc>Finish
Images:14635
First:13.08.2023 11:25:41
Last:13.08.2023 13:18:04
Duration:01:52:23
</desc></wpt>
<wpt lat = "-33.89025" lon = "151.27864"><name>TOB3</name><desc>Finish
Images:1133
First:13.08.2023 13:08:00
Last:13.08.2023 13:36:59
Duration:00:28:59
</desc></wpt>
<wpt lat = "-33.89032" lon = "151.27761"><name>NIF1</name><desc>Medals
Images:4766
First:13.08.2023 06:38:00
Last:13.08.2023 13:36:18
Duration:06:58:18
</desc></wpt>
<wpt lat = "-33.89032" lon = "151.27761"><name>VN1</name><desc>Medals
Images:9534
First:12.08.2023 20:25:58
Last:13.08.2023 13:04:32
Duration:16:38:34
</desc></wpt>
<wpt lat = "-33.89032" lon = "151.27761"><name>VN1LS1</name><desc>Medals
Images:8428
First:12.08.2023 20:26:36
Last:13.08.2023 13:42:35
Duration:17:15:59
</desc></wpt>
<wpt lat = "-33.89032" lon = "151.27761"><name>VN1LS2</name><desc>Medals
Images:3965
First:13.08.2023 07:07:23
Last:13.08.2023 11:14:09
Duration:04:06:46
</desc></wpt>
</gpx>