<?xml version='1.0' encoding='utf-8'?>
<gpx version="1.1" creator="Infofile GPX Generator">
<wpt lat = "59.91313" lon = "10.72728"><name>AV1</name><desc>0.5 km
Images:8119
First:16.10.2023 08:45:08
Last:16.10.2023 16:36:54
Duration:07:51:46
</desc></wpt>
<wpt lat = "59.9119" lon = "10.71727"><name>DADA1</name><desc>1.4 km
Images:10600
First:16.09.2023 08:51:37
Last:16.09.2023 16:37:01
Duration:07:45:24
</desc></wpt>
<wpt lat = "59.91180" lon = "10.70277"><name>VG1</name><desc>11.0 km
Images:16647
First:16.09.2023 08:51:00
Last:16.09.2023 17:35:00
Duration:08:44:00
</desc></wpt>
<wpt lat = "59.91180" lon = "10.70277"><name>VG1DRONE1</name><desc>11.0 km
Images:43
First:16.09.2023 08:46:33
Last:16.09.2023 16:37:06
Duration:07:50:33
</desc></wpt>
<wpt lat = "59.90927" lon = "10.7231"><name>IVAH1</name><desc>12.4 km
Images:12896
First:16.09.2023 08:42:54
Last:16.09.2023 17:50:50
Duration:09:07:56
</desc></wpt>
<wpt lat = "59.90838" lon = "10.7243"><name>LIZ1</name><desc>12.6 km
Images:9658
First:16.09.2023 09:26:34
Last:16.09.2023 17:46:45
Duration:08:20:11
</desc></wpt>
<wpt lat = "59.90838" lon = "10.7243"><name>LIZ1LS1</name><desc>12.6 km
Images:12236
First:16.09.2023 09:18:21
Last:16.09.2023 17:47:11
Duration:08:28:50
</desc></wpt>
<wpt lat = "59.90896" lon = "10.7256"><name>PAZ2</name><desc>12.7 km
Images:24250
First:16.09.2023 09:00:43
Last:16.09.2023 17:48:36
Duration:08:47:53
</desc></wpt>
<wpt lat = "59.91096" lon = "10.73272"><name>PAZ1</name><desc>13.2 km
Images:7358
First:16.09.2023 08:56:06
Last:16.09.2023 14:24:52
Duration:05:28:46
</desc></wpt>
<wpt lat = "59.91350" lon = "10.73848"><name>JJ2</name><desc>20.6 km
Images:98
First:16.09.2023 10:45:19
Last:16.09.2023 11:11:58
Duration:00:26:39
</desc></wpt>
<wpt lat = "59.91193" lon = "10.74101"><name>ACP1</name><desc>20.8 km
Images:9332
First:16.09.2023 14:36:42
Last:16.09.2023 18:02:21
Duration:03:25:39
</desc></wpt>
<wpt lat = "59.91141" lon = "10.73954"><name>ACP2</name><desc>20.9 km
Images:586
First:16.09.2023 17:35:07
Last:16.09.2023 18:02:21
Duration:00:27:14
</desc></wpt>
<wpt lat = "59.91141" lon = "10.73954"><name>DDT1</name><desc>20.9 km
Images:44278
First:16.09.2023 08:50:22
Last:16.09.2023 18:11:10
Duration:09:20:48
</desc></wpt>
<wpt lat = "59.91155" lon = "10.73337"><name>EVA2</name><desc>Finish
Images:20894
First:16.09.2023 11:56:45
Last:16.09.2023 18:14:14
Duration:06:17:29
</desc></wpt>
<wpt lat = "59.91155" lon = "10.73337"><name>JJ3</name><desc>Finish
Images:9661
First:16.09.2023 11:13:34
Last:16.09.2023 18:07:09
Duration:06:53:35
</desc></wpt>
<wpt lat = "59.91155" lon = "10.73337"><name>PKE2</name><desc>Finish
Images:10630
First:16.09.2023 11:50:17
Last:16.09.2023 18:14:45
Duration:06:24:28
</desc></wpt>
<wpt lat = "59.91155" lon = "10.73337"><name>EVA1</name><desc>Start
Images:997
First:16.09.2023 08:59:32
Last:16.09.2023 11:56:45
Duration:02:57:13
</desc></wpt>
<wpt lat = "59.91155" lon = "10.73337"><name>JJ1</name><desc>Start
Images:83
First:16.09.2023 08:19:13
Last:16.09.2023 10:34:09
Duration:02:14:56
</desc></wpt>
<wpt lat = "59.91155" lon = "10.73337"><name>PKE1</name><desc>Start
Images:3365
First:16.09.2023 08:39:44
Last:16.09.2023 11:49:11
Duration:03:09:27
</desc></wpt>
</gpx>