<?xml version='1.0' encoding='utf-8'?>
<gpx version="1.1" creator="Infofile GPX Generator">
<wpt lat = "52.51428" lon = "13.34565"><name>ONBS1</name><desc>0.8 km Siegessäule
Images:4690
First:24.09.2023 08:32:58
Last:24.09.2023 10:51:14
Duration:02:18:16
</desc></wpt>
<wpt lat = "52.51428" lon = "13.34565"><name>ONBS1LS1</name><desc>0.8 km Siegessäule
Images:1770
First:24.09.2023 08:17:59
Last:24.09.2023 10:53:27
Duration:02:35:28
</desc></wpt>
<wpt lat = "52.51428" lon = "13.34565"><name>ONIL1</name><desc>0.8 km Siegessäule
Images:17419
First:24.09.2023 08:19:23
Last:24.09.2023 10:53:06
Duration:02:33:43
</desc></wpt>
<wpt lat = "52.51428" lon = "13.34565"><name>ONOV1</name><desc>0.8 km Siegessäule
Images:7779
First:24.09.2023 08:55:20
Last:24.09.2023 12:11:30
Duration:03:16:10
</desc></wpt>
<wpt lat = "52.51428" lon = "13.34565"><name>ONPKE1</name><desc>0.8 km Siegessäule
Images:9571
First:24.09.2023 07:20:25
Last:24.09.2023 10:55:37
Duration:03:35:12
</desc></wpt>
<wpt lat = "52.51428" lon = "13.34565"><name>ONRET1</name><desc>0.8 km Siegessäule
Images:9484
First:24.09.2023 08:05:26
Last:24.09.2023 10:51:22
Duration:02:45:56
</desc></wpt>
<wpt lat = "52.48498" lon = "13.34506"><name>DSOZ1</name><desc>23,6 km Rathaus Schoeneberg
Images:15555
First:24.09.2023 08:58:01
Last:24.09.2023 14:28:25
Duration:05:30:24
</desc></wpt>
<wpt lat = "52.50390" lon = "13.33181"><name>DVG1</name><desc>34,8 km Kudamm
Images:2145
First:24.09.2023 14:54:01
Last:24.09.2023 16:04:32
Duration:01:10:31
</desc></wpt>
<wpt lat = "52.50382" lon = "13.33137"><name>ESTG1</name><desc>34.8 km Kudamm
Images:16147
First:24.09.2023 09:07:47
Last:24.09.2023 16:04:18
Duration:06:56:31
</desc></wpt>
<wpt lat = "52.50524" lon = "13.33519"><name>FDABT1</name><desc>35,3 km Gedächtniskirche
Images:13602
First:24.09.2023 09:45:03
Last:24.09.2023 16:48:20
Duration:07:03:17
</desc></wpt>
<wpt lat = "52.50489" lon = "13.33510"><name>DGJ1</name><desc>35,3 km Gedaechtniskirche
Images:6634
First:24.09.2023 10:41:16
Last:24.09.2023 16:12:55
Duration:05:31:39
</desc></wpt>
<wpt lat = "52.50489" lon = "13.33510"><name>DGJ2</name><desc>35,3 km Gedaechtniskirche
Images:6724
First:24.09.2023 10:44:47
Last:24.09.2023 16:21:16
Duration:05:36:29
</desc></wpt>
<wpt lat = "52.50418" lon = "13.33631"><name>CAPE1</name><desc>35.3 km Gedaechtniskirche
Images:6190
First:24.09.2023 09:00:21
Last:24.09.2023 16:05:58
Duration:07:05:37
</desc></wpt>
<wpt lat = "52.49939" lon = "13.35310"><name>FCF1</name><desc>37,0 km Nollendorf Platz
Images:25685
First:24.09.2023 08:55:25
Last:24.09.2023 16:14:40
Duration:07:19:15
</desc></wpt>
<wpt lat = "52.49990" lon = "13.35381"><name>CATU1</name><desc>37.0 km Nollendorf Platz
Images:10430
First:24.09.2023 09:49:20
Last:24.09.2023 16:06:57
Duration:06:17:37
</desc></wpt>
<wpt lat = "52.50953" lon = "13.37555"><name>FDAN1</name><desc>39,2 km Potsdamer Platz
Images:14093
First:24.09.2023 08:23:26
Last:24.09.2023 16:42:34
Duration:08:19:08
</desc></wpt>
<wpt lat = "52.50953" lon = "13.37555"><name>FDAN1LS1</name><desc>39,2 km Potsdamer Platz
Images:5875
First:01.01.0001 23:00:00
Last:24.09.2023 16:35:18
Duration:738785.17:35:18
</desc></wpt>
<wpt lat = "52.50971" lon = "13.37916"><name>CSTM1</name><desc>39.2 km Potsdamer Platz
Images:23460
First:24.09.2023 09:44:47
Last:24.09.2023 16:45:59
Duration:07:01:12
</desc></wpt>
<wpt lat = "52.50971" lon = "13.37916"><name>CSTM1LS1</name><desc>39.2 km Potsdamer Platz
Images:5917
First:24.09.2023 11:09:19
Last:24.09.2023 16:45:08
Duration:05:35:49
</desc></wpt>
<wpt lat = "52.50972" lon = "13.37933"><name>EDES1</name><desc>39.2 km Potsdamer Platz
Images:12654
First:24.09.2023 09:47:22
Last:24.09.2023 16:09:51
Duration:06:22:29
</desc></wpt>
<wpt lat = "52.50954" lon = "13.37572"><name>GRJ1</name><desc>39.2 km Potsdamer Platz
Images:23902
First:24.09.2023 09:45:03
Last:24.09.2023 16:46:06
Duration:07:01:03
</desc></wpt>
<wpt lat = "52.50954" lon = "13.37572"><name>GRJ1LS1</name><desc>39.2 km Potsdamer Platz
Images:5973
First:24.09.2023 11:07:56
Last:24.09.2023 16:45:34
Duration:05:37:38
</desc></wpt>
<wpt lat = "52.50954" lon = "13.37572"><name>GTKO1</name><desc>39.2 km Potsdamer Platz
Images:11789
First:24.09.2023 07:56:10
Last:24.09.2023 16:43:09
Duration:08:46:59
</desc></wpt>
<wpt lat = "52.50981" lon = "13.38120"><name>FMIRW1</name><desc>40,0 km Bundesrat
Images:23948
First:24.09.2023 09:22:23
Last:24.09.2023 16:49:55
Duration:07:27:32
</desc></wpt>
<wpt lat = "52.50992" lon = "13.38150"><name>CNJ1</name><desc>40.0 km Bundesrat
Images:8367
First:24.09.2023 09:49:00
Last:24.09.2023 11:52:01
Duration:02:03:01
</desc></wpt>
<wpt lat = "52.50992" lon = "13.38150"><name>CNJ1LS1</name><desc>40.0 km Bundesrat
Images:850
First:24.09.2023 09:42:52
Last:24.09.2023 11:52:08
Duration:02:09:16
</desc></wpt>
<wpt lat = "52.50994" lon = "13.38444"><name>CNJ2</name><desc>40.2 km Bundesministerium fuer Finanzen
Images:46757
First:24.09.2023 12:11:38
Last:24.09.2023 16:50:12
Duration:04:38:34
</desc></wpt>
<wpt lat = "52.50994" lon = "13.38444"><name>CNJ2LS1</name><desc>40.2 km Bundesministerium fuer Finanzen
Images:5515
First:24.09.2023 12:07:56
Last:24.09.2023 16:50:24
Duration:04:42:28
</desc></wpt>
<wpt lat = "52.51395" lon = "13.39319"><name>FDACU1</name><desc>41,0 km Gendarmenmarkt
Images:41266
First:24.09.2023 10:38:15
Last:24.09.2023 17:04:29
Duration:06:26:14
</desc></wpt>
<wpt lat = "52.51395" lon = "13.39319"><name>FPK1</name><desc>41,0 km Gendarmenmarkt
Images:26717
First:24.09.2023 09:59:58
Last:24.09.2023 17:04:28
Duration:07:04:30
</desc></wpt>
<wpt lat = "52.51395" lon = "13.39319"><name>FPK1LS1</name><desc>41,0 km Gendarmenmarkt
Images:12210
First:24.09.2023 11:25:52
Last:24.09.2023 17:05:30
Duration:05:39:38
</desc></wpt>
<wpt lat = "52.51629" lon = "13.37976"><name>FFJBY2</name><desc>41,4 km Hotel Adlon
Images:11993
First:24.09.2023 13:46:02
Last:24.09.2023 17:16:59
Duration:03:30:57
</desc></wpt>
<wpt lat = "52.51622" lon = "13.37725"><name>FPJE2</name><desc>41,6 km Brandenburger Tor
Images:12377
First:24.09.2023 12:34:07
Last:24.09.2023 17:22:09
Duration:04:48:02
</desc></wpt>
<wpt lat = "52.51638" lon = "13.37677"><name>DCRIC1</name><desc>41,7 km Brandenburger Tor
Images:25308
First:24.09.2023 08:30:27
Last:24.09.2023 17:29:02
Duration:08:58:35
</desc></wpt>
<wpt lat = "52.51638" lon = "13.37677"><name>DCRIC1LS1</name><desc>41,7 km Brandenburger Tor
Images:7856
First:24.09.2023 09:16:31
Last:24.09.2023 17:28:22
Duration:08:11:51
</desc></wpt>
<wpt lat = "52.51638" lon = "13.37677"><name>DMFR1</name><desc>41,7 km Brandenburger Tor
Images:21579
First:24.09.2023 07:56:54
Last:24.09.2023 17:29:25
Duration:09:32:31
</desc></wpt>
<wpt lat = "52.51638" lon = "13.37677"><name>DRAC1</name><desc>41,7 km Brandenburger Tor
Images:37631
First:24.09.2023 09:23:59
Last:24.09.2023 17:26:12
Duration:08:02:13
</desc></wpt>
<wpt lat = "52.51638" lon = "13.37677"><name>MARCS1</name><desc>41,7 km Brandenburger Tor
Images:19815
First:23.09.2023 20:53:22
Last:24.09.2023 17:21:46
Duration:20:28:24
</desc></wpt>
<wpt lat = "52.51430" lon = "13.39310"><name>COV2</name><desc>41.0 km Gendarmenmarkt
Images:19071
First:24.09.2023 08:56:02
Last:24.09.2023 17:02:31
Duration:08:06:29
</desc></wpt>
<wpt lat = "52.51387" lon = "13.39320"><name>GJKIM1</name><desc>41.0 km Gendarmenmarkt
Images:32331
First:23.09.2023 21:01:37
Last:24.09.2023 17:06:46
Duration:20:05:09
</desc></wpt>
<wpt lat = "52.51402" lon = "13.39318"><name>HFDC1</name><desc>41.0 km Gendarmenmarkt
Images:11444
First:24.09.2023 09:17:28
Last:24.09.2023 17:09:08
Duration:07:51:40
</desc></wpt>
<wpt lat = "52.51496" lon = "13.39292"><name>EAP1</name><desc>41.3 km Französischer Dom
Images:18983
First:24.09.2023 09:09:24
Last:24.09.2023 17:05:35
Duration:07:56:11
</desc></wpt>
<wpt lat = "52.51482" lon = "13.39307"><name>GMGO2</name><desc>41.3 km Französischer Dom
Images:7611
First:24.09.2023 12:40:45
Last:24.09.2023 17:00:02
Duration:04:19:17
</desc></wpt>
<wpt lat = "52.51632" lon = "13.37876"><name>HCM1</name><desc>41.4 km Hotel Adlon/Pariser Platz
Images:22992
First:24.09.2023 08:59:04
Last:24.09.2023 17:24:54
Duration:08:25:50
</desc></wpt>
<wpt lat = "52.51625" lon = "13.37717"><name>GDAT1</name><desc>41.6 km Brandenburger Tor
Images:11785
First:24.09.2023 09:38:40
Last:24.09.2023 17:25:04
Duration:07:46:24
</desc></wpt>
<wpt lat = "52.51631" lon = "13.37765"><name>HRYS1</name><desc>41.6 km Brandenburger Tor
Images:11989
First:24.09.2023 09:21:27
Last:24.09.2023 17:25:05
Duration:08:03:38
</desc></wpt>
<wpt lat = "52.51631" lon = "13.37765"><name>HRYS1LS1</name><desc>41.6 km Brandenburger Tor
Images:4479
First:23.09.2023 22:55:05
Last:24.09.2023 17:27:17
Duration:18:32:12
</desc></wpt>
<wpt lat = "52.51627" lon = "13.37702"><name>ERKJ2</name><desc>41.7 km Brandenburger Tor
Images:5656
First:24.09.2023 12:36:06
Last:24.09.2023 16:21:25
Duration:03:45:19
</desc></wpt>
<wpt lat = "52.51628" lon = "13.37652"><name>HGBR1</name><desc>41.7 km Brandenburger Tor
Images:42065
First:24.09.2023 09:49:35
Last:24.09.2023 17:26:04
Duration:07:36:29
</desc></wpt>
<wpt lat = "52.51606" lon = "13.37464"><name>CMDO1</name><desc>42.0 km Brandenburger Tor
Images:35068
First:24.09.2023 08:29:30
Last:24.09.2023 17:31:03
Duration:09:01:33
</desc></wpt>
<wpt lat = "52.51606" lon = "13.37464"><name>CMDO1LS1</name><desc>42.0 km Brandenburger Tor
Images:10338
First:24.09.2023 09:00:31
Last:24.09.2023 17:32:16
Duration:08:31:45
</desc></wpt>
<wpt lat = "52.51636" lon = "13.37703"><name>IALN1</name><desc>42.0 km Brandenburger Tor
Images:38157
First:24.09.2023 09:58:26
Last:24.09.2023 16:58:46
Duration:07:00:20
</desc></wpt>
<wpt lat = "52.51636" lon = "13.37703"><name>IALN1LS1</name><desc>42.0 km Brandenburger Tor
Images:23010
First:24.09.2023 09:20:29
Last:24.09.2023 17:21:41
Duration:08:01:12
</desc></wpt>
<wpt lat = "52.51636" lon = "13.37703"><name>IALN1LS2</name><desc>42.0 km Brandenburger Tor
Images:18473
First:24.09.2023 08:57:58
Last:24.09.2023 17:29:26
Duration:08:31:28
</desc></wpt>
<wpt lat = "52.51636" lon = "13.37703"><name>IALN2LS1</name><desc>42.0 km Brandenburger Tor
Images:9845
First:24.09.2023 11:59:34
Last:24.09.2023 15:17:18
Duration:03:17:44
</desc></wpt>
<wpt lat = "52.51636" lon = "13.37703"><name>IALN2LS2</name><desc>42.0 km Brandenburger Tor
Images:7047
First:24.09.2023 12:03:14
Last:24.09.2023 14:41:21
Duration:02:38:07
</desc></wpt>
<wpt lat = "52.52195" lon = "13.36866"><name>BFJBY1</name><desc>6.7 km Moltkebrücke
Images:8070
First:24.09.2023 08:59:20
Last:24.09.2023 11:48:08
Duration:02:48:48
</desc></wpt>
<wpt lat = "52.52195" lon = "13.36862"><name>ONMGO1</name><desc>6.7 km Moltkebrücke
Images:13483
First:24.09.2023 08:52:00
Last:24.09.2023 11:39:41
Duration:02:47:41
</desc></wpt>
<wpt lat = "52.52188" lon = "13.37579"><name>BPJE1</name><desc>7.3 km Kronprinzenbrücke
Images:14460
First:24.09.2023 07:22:38
Last:24.09.2023 11:45:24
Duration:04:22:46
</desc></wpt>
<wpt lat = "52.52188" lon = "13.37579"><name>BRKJ1</name><desc>7.3 km Kronprinzenbrücke
Images:5712
First:24.09.2023 08:59:16
Last:24.09.2023 11:51:04
Duration:02:51:48
</desc></wpt>
<wpt lat = "52.51603" lon = "13.37290"><name>CJUT1</name><desc>Finish Straight
Images:10716
First:24.09.2023 08:42:16
Last:24.09.2023 10:46:25
Duration:02:04:09
</desc></wpt>
<wpt lat = "52.51600" lon = "13.37264"><name>DCMO2</name><desc>Finish Straight
Images:21722
First:24.09.2023 11:56:36
Last:24.09.2023 17:29:35
Duration:05:32:59
</desc></wpt>
<wpt lat = "52.51600" lon = "13.37264"><name>DCMO2LS1</name><desc>Finish Straight
Images:334
First:24.09.2023 11:52:59
Last:24.09.2023 12:18:32
Duration:00:25:33
</desc></wpt>
<wpt lat = "52.51603" lon = "13.37263"><name>EJUT2</name><desc>Finish Straight
Images:19344
First:24.09.2023 11:53:45
Last:24.09.2023 17:27:02
Duration:05:33:17
</desc></wpt>
<wpt lat = "52.51603" lon = "13.37263"><name>EKHR1</name><desc>Finish Straight
Images:27738
First:24.09.2023 08:20:19
Last:24.09.2023 17:31:14
Duration:09:10:55
</desc></wpt>
<wpt lat = "52.51603" lon = "13.37263"><name>EKHR1LS1</name><desc>Finish Straight
Images:9313
First:24.09.2023 11:55:06
Last:24.09.2023 17:19:24
Duration:05:24:18
</desc></wpt>
<wpt lat = "52.51603" lon = "13.37263"><name>EKHR1LS2</name><desc>Finish Straight
Images:9628
First:24.09.2023 11:47:17
Last:24.09.2023 17:20:23
Duration:05:33:06
</desc></wpt>
<wpt lat = "52.51603" lon = "13.37268"><name>HLEM2</name><desc>Finish Straight
Images:17881
First:24.09.2023 12:01:37
Last:24.09.2023 17:30:54
Duration:05:29:17
</desc></wpt>
<wpt lat = "52.51603" lon = "13.37268"><name>HTIM1LS1</name><desc>Finish Straight
Images:19562
First:24.09.2023 08:23:47
Last:24.09.2023 17:26:58
Duration:09:03:11
</desc></wpt>
<wpt lat = "52.51603" lon = "13.37268"><name>HTIM2</name><desc>Finish Straight
Images:22
First:24.09.2023 08:23:47
Last:24.09.2023 09:21:08
Duration:00:57:21
</desc></wpt>
<wpt lat = "52.51600" lon = "13.37238"><name>IGUD2</name><desc>Finish Straight
Images:31344
First:24.09.2023 10:47:59
Last:24.09.2023 17:26:57
Duration:06:38:58
</desc></wpt>
<wpt lat = "52.51600" lon = "13.37238"><name>IGUD2LS1</name><desc>Finish Straight
Images:6581
First:24.09.2023 11:54:53
Last:24.09.2023 17:28:27
Duration:05:33:34
</desc></wpt>
<wpt lat = "52.51600" lon = "13.37238"><name>IGUD2LS2</name><desc>Finish Straight
Images:6522
First:24.09.2023 11:52:47
Last:24.09.2023 17:28:28
Duration:05:35:41
</desc></wpt>
<wpt lat = "52.51453" lon = "13.35010"><name>HTIM1</name><desc>Impressions Siegessaeule
Images:18412
First:24.09.2023 08:18:15
Last:24.09.2023 14:41:18
Duration:06:23:03
</desc></wpt>
<wpt lat = "52.51583" lon = "13.37007"><name>DDIT1</name><desc>Medals
Images:3610
First:23.09.2023 23:38:13
Last:24.09.2023 17:22:57
Duration:17:44:44
</desc></wpt>
<wpt lat = "52.51583" lon = "13.37007"><name>DIL2</name><desc>Medals
Images:5036
First:24.09.2023 11:48:28
Last:24.09.2023 17:20:19
Duration:05:31:51
</desc></wpt>
<wpt lat = "52.51583" lon = "13.37007"><name>DRET2</name><desc>Medals
Images:2918
First:24.09.2023 11:44:44
Last:24.09.2023 17:22:46
Duration:05:38:02
</desc></wpt>
<wpt lat = "52.51585" lon = "13.37002"><name>EBIL1</name><desc>Medals
Images:7419
First:24.09.2023 09:12:03
Last:24.09.2023 17:17:52
Duration:08:05:49
</desc></wpt>
<wpt lat = "52.51585" lon = "13.37050"><name>EDRE1</name><desc>Medals
Images:7550
First:24.09.2023 10:02:40
Last:24.09.2023 17:35:03
Duration:07:32:23
</desc></wpt>
<wpt lat = "52.51585" lon = "13.37002"><name>ELED1</name><desc>Medals
Images:2559
First:26.12.2022 00:23:08
Last:24.09.2023 17:18:21
Duration:272.16:55:13
</desc></wpt>
<wpt lat = "52.51599" lon = "13.37228"><name>FDDT1</name><desc>Medals
Images:10703
First:24.09.2023 08:49:11
Last:24.09.2023 17:31:25
Duration:08:42:14
</desc></wpt>
<wpt lat = "52.51599" lon = "13.37228"><name>FVID1</name><desc>Medals
Images:3531
First:24.09.2023 08:58:49
Last:24.09.2023 17:20:50
Duration:08:22:01
</desc></wpt>
<wpt lat = "52.51583" lon = "13.36998"><name>HCHW1</name><desc>Medals
Images:9643
First:24.09.2023 08:57:40
Last:24.09.2023 17:33:52
Duration:08:36:12
</desc></wpt>
<wpt lat = "52.51583" lon = "13.36998"><name>HPKE2</name><desc>Medals
Images:5233
First:24.09.2023 12:02:27
Last:24.09.2023 17:12:47
Duration:05:10:20
</desc></wpt>
<wpt lat = "52.51587" lon = "13.37156"><name>DBS2</name><desc>Photo Bridge
Images:13669
First:24.09.2023 11:09:34
Last:24.09.2023 17:32:06
Duration:06:22:32
</desc></wpt>
<wpt lat = "52.51587" lon = "13.37156"><name>DBS2LS1</name><desc>Photo Bridge
Images:10451
First:24.09.2023 11:41:32
Last:24.09.2023 17:30:06
Duration:05:48:34
</desc></wpt>
<wpt lat = "52.51519" lon = "13.35981"><name>FTOG1</name><desc>Photo Bridge Finish
Images:28853
First:24.09.2023 09:00:06
Last:24.09.2023 17:24:53
Duration:08:24:47
</desc></wpt>
<wpt lat = "52.51519" lon = "13.35981"><name>FTOG1LS1</name><desc>Photo Bridge Finish
Images:14130
First:24.09.2023 11:00:29
Last:24.09.2023 17:24:28
Duration:06:23:59
</desc></wpt>
<wpt lat = "52.51602" lon = "13.37231"><name>GNWO1</name><desc>Photo Bridge Finish
Images:17897
First:24.09.2023 10:19:06
Last:24.09.2023 17:20:11
Duration:07:01:05
</desc></wpt>
<wpt lat = "52.51602" lon = "13.37231"><name>GNWO1LS1</name><desc>Photo Bridge Finish
Images:12660
First:24.09.2023 11:14:48
Last:24.09.2023 17:23:35
Duration:06:08:47
</desc></wpt>
<wpt lat = "52.51494" lon = "13.35614"><name>DCMO1</name><desc>Start
Images:5263
First:24.09.2023 08:56:13
Last:24.09.2023 10:48:54
Duration:01:52:41
</desc></wpt>
<wpt lat = "52.51494" lon = "13.35614"><name>DCMO1LS1</name><desc>Start
Images:1998
First:24.09.2023 08:49:58
Last:24.09.2023 10:46:58
Duration:01:57:00
</desc></wpt>
<wpt lat = "52.51493" lon = "13.35720"><name>EDASC1</name><desc>Start
Images:8462
First:24.09.2023 08:00:10
Last:24.09.2023 10:45:22
Duration:02:45:12
</desc></wpt>
<wpt lat = "52.51493" lon = "13.35720"><name>EDASC2</name><desc>Start
Images:12406
First:24.09.2023 11:50:48
Last:24.09.2023 17:32:06
Duration:05:41:18
</desc></wpt>
<wpt lat = "52.51506" lon = "13.35792"><name>HLEM1</name><desc>Start
Images:4879
First:24.09.2023 08:41:16
Last:24.09.2023 10:44:25
Duration:02:03:09
</desc></wpt>
<wpt lat = "52.51506" lon = "13.35792"><name>HLEM1LS1</name><desc>Start
Images:8237
First:24.09.2023 08:50:01
Last:24.09.2023 17:22:48
Duration:08:32:47
</desc></wpt>
<wpt lat = "52.51506" lon = "13.35792"><name>HLEM1LS2</name><desc>Start
Images:11563
First:24.09.2023 08:59:02
Last:24.09.2023 17:23:10
Duration:08:24:08
</desc></wpt>
<wpt lat = "52.51514" lon = "13.36036"><name>IGUD1</name><desc>Start
Images:7258
First:24.09.2023 09:15:24
Last:24.09.2023 10:47:02
Duration:01:31:38
</desc></wpt>
<wpt lat = "52.51514" lon = "13.36036"><name>IGUD1LS1</name><desc>Start
Images:1443
First:24.09.2023 09:14:31
Last:24.09.2023 10:47:30
Duration:01:32:59
</desc></wpt>
<wpt lat = "52.51514" lon = "13.36036"><name>IGUD1LS2</name><desc>Start
Images:1437
First:24.09.2023 09:14:22
Last:24.09.2023 10:47:32
Duration:01:33:10
</desc></wpt>
</gpx>